name_ar,name_en,width_m,length_m,num_lanes,paved,start_lat,start_lng,end_lat,end_lng,center_lat,center_lng,street_id
ابن مشرف,Ibn Meshref,12,492,1,Yes,24.738085623000018,46.65232926200002,24.742122101000007,46.65030788199999,24.74067060466668,46.651034761333335,001000010000923
عبدالعزيز بن رباح,Abdulaziz Bin Rabah,12,286,1,Yes,24.742536425000026,46.65316253100002,24.743617416999996,46.655732004000015,24.743142629857143,46.65460344471428,001000010009354
عبدالله بن يربوع,Abdullah Bin Yarboua,10,453,1,Yes,24.725896282999997,46.65297832300001,24.72709040799998,46.655593361,24.726764124666673,46.65496867891667,001000010009663
زهر اللؤلؤ,Zahr Al LoLo,12,161,1,Yes,24.74069982100002,46.652553642999976,24.742015148999997,46.651880775999985,24.741151079,46.65232279866666,001000010009768
عتيك بن قيس,Ateek Bin Qais,12,156,1,Yes,24.73499023300002,46.652394851999986,24.736265452999987,46.65175090399998,24.735630987250005,46.65207129049999,001000010009816
إبراهيم الحديثي,Ibrahim Al Hedeithi,20,346,1,Yes,24.732360286000016,46.64625093500001,24.73519448000002,46.64481750800002,24.733620102500012,46.64561557075001,001000010000098
عثمان بن عوف,Othman Bin Owf,12,144,1,Yes,24.738911357000006,46.65346883799998,24.74008818599998,46.65287139499998,24.739319334333327,46.65326171933331,001000010009855
عدي بن الربيع,Adi Bin Al Rabie,12,266,1,Yes,24.728454668999973,46.65134558,24.72744302199999,46.64895601799998,24.72778136466665,46.649755200333324,001000010009873
علي الظفري,Ali Al Thafri,20,492,1,Yes,24.723856403000013,46.649803514999974,24.727884632999974,46.64776010600002,24.726419462999985,46.64850192749999,001000010010022
علي بن هارون,Ali Bin Haroun,20,342,1,Yes,24.73600478100002,46.648498647,24.733200764000003,46.64991598099999,24.734507784666665,46.649254723000006,001000010010142
عمر بن العديم,Omar Bin Al Adim,10,117,1,Yes,24.72886996699998,46.653827788,24.72790772899998,46.65430687999998,24.72823546099998,46.65414370433333,001000010010217
أبي إبراهيم المقدسي,Abi Ibrahim Al Moqaddasi,10,119,1,Yes,24.72818053100002,46.65675253699999,24.72772433199998,46.65568341699998,24.728028112666664,46.65639533866666,001000010001020
عمرو بن نصر,Amr Bin Nasr,15,156,1,Yes,24.735962809,46.650211087,24.735367859000007,46.64881710100002,24.735664048399997,46.6495128862,001000010010299
عيسى بن عبدالكريم,Issa Bin Abdulkareem,12,120,1,Yes,24.739134595999985,46.653996732999985,24.73867932799999,46.65292015199998,24.738905235333334,46.65345435999999,001000010010364
محمد الربعي,Mohammed Al Robee,15,191,1,Yes,24.726010266999992,46.651769172,24.725276408000013,46.650059876,24.72565136224999,46.65093321124999,001000010010958
محمد بن أحمد الأموي,Mohammed Bin Ahmad Al Amawy,10,102,1,Yes,24.727819361,46.661522526,24.728658482000014,46.661112421999974,24.728238921500008,46.661317473999986,001000010011074
محمد بن يسار,Mohammed Bin Yasar,30,1359,6,Yes,24.73177230300007,46.63789214500008,24.73802783700006,46.64925414600003,24.73469297652386,46.641983030047676,001000010011160
مروان بن سليمان,Marwan Bin Soliman,12,399,1,Yes,24.73839773100002,46.653062552999984,24.738350070000024,46.65308665399999,24.738247082000008,46.652792847399986,001000010011257
أبي الحسن السلمي,Abi Al-Hasan As-Salmi,20,380,1,Yes,24.734364691999986,46.64072913799998,24.737470280000025,46.63914305499998,24.735520655571438,46.64013876742856,001000010001134
منية,Monia,20,396,1,Yes,24.729089811999984,46.65711442200001,24.725844350999978,46.658761674999994,24.727523959999985,46.65790968066667,001000010011490
أبي الحسن بن المبارك,Abi Al-Hasan Bin Mubarak,20,911,1,Yes,24.72811643199998,46.646768227999985,24.73328828000001,46.639485588000014,24.730922507470584,46.64281774658824,001000010001165
وادي ذي الرمث,Thi Al Ramath Valley,15,226,1,Yes,24.737395606000007,46.64419467900001,24.739242671,46.64324062200001,24.738319138500003,46.64371765050001,001000010011850
وجدة,Wajda,15,237,1,Yes,24.735905150999997,46.642527019,24.73498500300002,46.64041234000001,24.73544507700001,46.641469679500005,001000010011912
يافا,Yafa,12,342,1,Yes,24.738632530000018,46.657352726,24.735826589999988,46.658765414000015,24.737151725285717,46.65809848100001,001000010011937
يعقوب بن شرف الدين,Yaqub Bin Sharafuddin,12,104,1,Yes,24.739921771000013,46.65669492400002,24.739531623999994,46.655763261000004,24.739726697500004,46.65622909250001,001000010012038
يوسف بن أبي إسحاق,Youssef Bin Abi Ishaq,10,690,1,Yes,24.73544614100001,46.65782008100001,24.740435304000016,46.655306413999995,24.737786877375,46.6566207943125,001000010012080
أبي العباس الأصبهاني,Abi Al Abbas Al Asbahani,12,155,1,Yes,24.735041680999984,46.65322772100001,24.733769266000024,46.65386840299999,24.734405473500004,46.653548062,001000010001273
أبي العباس اللخمي,Abi Al Abbas Al Lakhmi,20,676,1,Yes,24.726889873000005,46.64557048299997,24.731048914999974,46.640481094999984,24.72947881319999,46.6424094523,001000010001293
إبراهيم العجاجي,Ibrahim Al Ajaji,20,807,1,Yes,24.72382957299999,46.65161356200002,24.723684642000023,46.651688482,24.72375726075,46.651756698625,001000010000135
أبي الفتح المبارك,Abi Al Fateh Al Mubarak,12,107,1,Yes,24.73747918700002,46.65713972499998,24.738355318000004,46.65670210500002,24.73791725250001,46.656920915,001000010001366
جبل خليفة,Khalifa Mountain,20,180,1,Yes,24.72641696300002,46.64948259900001,24.725729073000025,46.647872667,24.726073018000022,46.648677633000005,001000010014612
أبي القاسم الحربي,Abi Al Qassem Al Harbi,15,332,1,Yes,24.728123991000018,46.650564487999986,24.73083951000001,46.64918665599998,24.7294634339,46.649885585899995,001000010001469
أبي المظفر بن محمد,Abi Al Mothfer Ibn Mohammed,12,343,1,Yes,24.726935614000013,46.651305948000015,24.724122237000017,46.65273241800003,24.725689372666675,46.651935846000015,001000010001564
أبي المعالي الجيلي,Abi Al Maali Al Jili,15,294,1,Yes,24.735936332999984,46.644397094,24.73834276399998,46.64316860500003,24.737139548499982,46.64378284950001,001000010001570
أبي المنصور,Abi Al Mansour,15,381,1,Yes,24.734202202000006,46.647283604999984,24.733561585000018,46.648076919999994,24.734597472000008,46.64735943379999,001000010001602
أبي أمامة الليثي,Abi Emama Al Leithi,20,553,1,Yes,24.723516315999973,46.648996669999974,24.728043404000005,46.64669702399999,24.726436823000007,46.64751313519999,001000010001640
آل سعيد,Al Saeed,15,450,1,Yes,24.736303185999986,46.64919164600002,24.740136828000004,46.647361237999974,24.73829920583334,46.64825177099999,001000010016092
الشيخ محمد بن حسين,Shaikh Mohammed Ibn Hussein,20,340,1,Yes,24.72872713700002,46.64735931199999,24.730756315999997,46.64483772699998,24.730070135250003,46.645694464749994,001000010016093
أبي بشير,Abi Bashir,20,222,1,Yes,24.725825052999994,46.64453060599999,24.726655784000002,46.64652707099998,24.72624801875,46.64554652974999,001000010001652
أبي بكر الجلال,Abi Bakr Al Jalal,12,203,1,Yes,24.740435304000016,46.655306413999995,24.740425647999984,46.655311316999985,24.740397524624996,46.65522677874999,001000010001662
أبي بكر العطار,Abi Bakr Al Attar,20,420,1,Yes,24.722260206999977,46.64788163399999,24.72569761599999,46.64614042599999,24.723613924833327,46.64715546791666,001000010001682
أبي حميدان,Abi Hemeidan,20,419,1,Yes,24.721959589999983,46.64716680599997,24.725392370999998,46.64542979800001,24.723540187166673,46.64636599599999,001000010001770
دخنة,Dokhna,15,129,1,Yes,24.736487941000007,46.647687915999995,24.73698133099998,46.648847639999985,24.736734635999994,46.64826777799999,001000010017195
أبي صقرة,Abi Saqra,10,113,1,Yes,24.726656101999993,46.65064795699999,24.72573384499998,46.651125322999974,24.72619809324999,46.65088501174999,001000010001874
أبي عامر بن الفرج,Abi Amer Ibn Al Faraj,10,141,1,Yes,24.728391421000026,46.654066054,24.727861743999995,46.652794141000015,24.72812658250001,46.65343009750001,001000010001903
عذبة,Azba,10,431,1,Yes,24.725553155,46.656121557000006,24.729170133000025,46.654543346000025,24.72734821185714,46.65539384100001,001000010018726
أبي علي الغالي,Abi Ali Al Ghali,10,121,1,Yes,24.729135251000002,46.655880439999976,24.728687717000014,46.65478690499998,24.728837775999995,46.65515341899999,001000010001983
أبي محمد التركي,Abi Mohammed Al Turki,20,237,1,Yes,24.736515252000004,46.642211938,24.735622173000024,46.64008692800002,24.736068712500014,46.64114943300001,001000010002035
أبي محمد بن سفيان,Abi Mohammed Ibn Sofian,15,118,1,Yes,24.732371645,46.648039444999995,24.733336774999998,46.64753612300001,24.732617707499998,46.647911126,001000010002077
أبي منصور بن محاوش,Abi Mansour Ibn Makhawesh,12,104,1,Yes,24.737105894000024,46.654366648999996,24.736251863000007,46.65479610699998,24.73667107300001,46.65458530299999,001000010002116
أبي نصر الضرير,Abi Nasr Al Dharir,10,283,1,Yes,24.734133896000003,46.651315090000026,24.734892047000017,46.65287785200002,24.73459325266666,46.652320698555556,001000010002134
أحمد البرلسي,Ahmad Al Barlasi,20,179,1,Yes,24.72754003900002,46.64695273000001,24.728223442,46.64855393900001,24.72788174050001,46.64775333450001,001000010002193
أحمد العامري,Ahmad Al Ameri,20,251,1,Yes,24.72504055799999,46.644610774,24.72600489199999,46.646855792,24.725683122666663,46.64610669666666,001000010002249
أسفل الباطن,Asfal Al Baten,8,265,1,Yes,24.728914784999972,46.66009520900002,24.727911902000017,46.65771349900001,24.728448698428565,46.658987206,001000010002532
الشيخ عمر بن حسن,Shaikh Omar Ibn Hassan,20,1072,1,Yes,24.734097781999992,46.65655454300003,24.74288732299999,46.652113955000004,24.738475348227272,46.65433944581818,001000010024434
إسماعيل بن الحصين,Esmail Bin Al Hosain,12,341,1,Yes,24.736804698000014,46.65302927800002,24.73401891100002,46.654452943000024,24.735552494333337,46.65367183433335,001000010002579
الأرطاوي,Al Artavi,15,269,1,Yes,24.729280485000004,46.647983995999994,24.730314067999984,46.65039359899998,24.729558630249997,46.64863243724999,001000010002712
أبحر,Ubhur,15,121,1,Yes,24.740934494999976,46.65309631600002,24.740470962000018,46.65201412099998,24.740750673399997,46.65266921760001,001000010025675
الأمير حمود بن عبدالعزيز,Prince Homoud Bin Abdul Aziz,20,843,1,Yes,24.739585579999982,46.65773694000001,24.73636808499998,46.650182141000016,24.738054446000003,46.65414926525,001000010002844
الأمير عبدالإله بن عبدالعزيز,Abdulelah Ibn Abdulaziz,20,1713,6,Yes,24.733638798000015,46.655469004999986,24.74262026399998,46.65104535099999,24.740166576833335,46.65219768929166,001000010002864
محمد آل قاسم,Mohammed Al Qasim,10,86,1,Yes,24.72599955999999,46.65271392300002,24.725669754000023,46.651942899000005,24.725828472000003,46.65231395225001,001000010027068
البادرية,Al Baderia,15,130,1,Yes,24.732991009999978,46.64105341300001,24.73352838599999,46.64220056200003,24.733239861333328,46.64157899566667,001000010002963
فرسان,Farsan,30,616,1,Yes,24.732606816999976,46.642353015000026,24.73358070400002,46.644670614000006,24.73228157741176,46.64199603988236,001000010027907
ابن حزم,Ibn-Hazam,12,364,1,Yes,24.738946649000013,46.65806077299999,24.737544704000015,46.65480677400001,24.738285681111122,46.65653794244445,001000010027913
أبي هلال العسكري,Abi Hilal Al Askari,12,339,1,Yes,24.737833833000025,46.655481640999994,24.73504569200003,46.656870089999984,24.736316950600006,46.65623569459999,001000010028063
الصبيحي,Al Sabihi,12,100,1,Yes,24.734487993000016,46.65308328100002,24.734117291000018,46.652184234,24.734302642000017,46.65263375750001,001000010028267
الباب,Al Bab,8,118,1,Yes,24.730292265999992,46.65999281400002,24.731262082,46.659515528999975,24.730777173999996,46.6597541715,001000010028368
سعد بن الربيع,Saad Bin Rabie,10,184,1,Yes,24.725123241000006,46.65349292899998,24.725819957999988,46.65514090400001,24.725585893333328,46.654587260666666,001000010028582
عبدالله البيهقي,Abdullah Al Baihaqe,15,314,1,Yes,24.73117219400001,46.649970379000024,24.729976959,46.64715477200002,24.730490158428584,46.64836370257143,001000010028769
آل سرحان,Al Sarhan,20,1113,1,Yes,24.73114844899999,46.64571628599998,24.722708764999993,46.651357303,24.72675296253334,46.649200506999996,001000010000029
عنابه,Enaba,20,147,1,Yes,24.731005326000002,46.64272928499997,24.730005055999982,46.64176791,24.730505190999992,46.642248597499986,001000010028884
طريف,Taraif,12,176,1,Yes,24.728807055000004,46.65643759400001,24.727362233000008,46.65716973899998,24.72835013125001,46.656668287749994,001000010028908
ابن أبي بدر,Ibn Abi Badr,15,191,1,Yes,24.72537619100001,46.65209267199998,24.724658463000026,46.65037212599998,24.725058303333338,46.65132541866666,001000010028982
يحيى بن خلدون,Yahya Bin Khaldoun,12,400,1,Yes,24.73499023300002,46.652394851999986,24.73602719500002,46.65426128500002,24.735475039214293,46.65330215107143,001000010029034
الثمامية,Al Themamiya,20,160,1,Yes,24.737370933000022,46.642649516999995,24.736760564999997,46.64121425500002,24.73706574900001,46.64193188600001,001000010003240
الفضول,Al Fodhoul,10,104,1,Yes,24.729853075999984,46.65894147099999,24.728999567000017,46.65937836500001,24.729632088499997,46.65905471525001,001000010029342
الورد,Al Ward,12,479,1,Yes,24.737096327000017,46.65372065299999,24.737244920000023,46.653645514000004,24.736808874600012,46.652869175199996,001000010029413
البادر,Al Bader,8,118,1,Yes,24.729996203999974,46.65928409600002,24.73096528000002,46.658806837999975,24.730598562249995,46.658987442249995,001000010029417
تيماء,Tima,15,186,1,Yes,24.73238455799998,46.64846325299999,24.730864922000023,46.64924651899997,24.731423250600006,46.6489587404,001000010029596
أدم بن ربيعة,Adam Bin Rabaie,20,304,1,Yes,24.73468054199998,46.64839269999999,24.733508058999973,46.64567419399998,24.734094300499976,46.647033446999984,001000010029969
خزاعة,Khozaah,25,227,1,Yes,24.732749464999984,46.642583392000006,24.734615242000018,46.641647826999986,24.73367689366667,46.642121589000006,001000010030060
السكب,Al Sakab,20,261,1,Yes,24.734883653999987,46.644089479,24.735880439000027,46.646424231000026,24.735382046500007,46.645256855000014,001000010030512
شقراء,Shagra,10,293,1,Yes,24.736940877999984,46.657027986,24.737025636999988,46.65695930999999,24.737124958500004,46.65728669283334,001000010030747
سيهات,Sihat,15,125,1,Yes,24.734522723999987,46.64616173100001,24.735548806999986,46.645647440999994,24.735037062999993,46.64590396999999,001000010030752
المثناة,Al Mathnat,12,492,1,Yes,24.741624950000016,46.64913455200002,24.737593048000008,46.65117199000002,24.74046619900001,46.649719744500004,001000010030854
ريدة,Raida,15,185,1,Yes,24.73948655700002,46.645848820000026,24.73878205599999,46.64419425800003,24.739127570250005,46.645004901500016,001000010030886
ميسان,Missan,15,141,1,Yes,24.733939951000025,46.64353153100001,24.733395058999974,46.64226713199997,24.73367468875,46.64291600099999,001000010030895
هجر,Hajr,15,141,1,Yes,24.734006211999997,46.64195624299998,24.73454648500001,46.64322263899999,24.734337816000004,46.64273351959999,001000010030905
يثرب,Yathreb,10,121,1,Yes,24.742244640000024,46.65243863400002,24.74179462500001,46.651344725,24.742019632500018,46.65189167950001,001000010031023
نبرة,Nabra,12,106,1,Yes,24.736302619000014,46.65739291900002,24.735902306000014,46.656442794999975,24.73612006800001,46.656958771333336,001000010031029
وتر,Watar,12,155,1,Yes,24.735594300999992,46.65816818600001,24.736866272999976,46.657523556,24.73644201733333,46.65773856666667,001000010031273
قها,Qaha,10,121,1,Yes,24.735836027999994,46.65567759300001,24.73537931499999,46.654588898999975,24.73560767149999,46.65513324599999,001000010031402
نخال,Nakhal,12,155,1,Yes,24.73806263900002,46.656019816000025,24.736785368000028,46.65665683399999,24.737211683000016,46.65644421633334,001000010031457
تمام بنت الحسين,Tamam Bint Al Hussein,10,144,1,Yes,24.729623143000026,46.658391067000025,24.72844123499999,46.65897419800001,24.72911133000001,46.658645352750014,001000010031582
البارقة,Al Bareqa,15,134,1,Yes,24.733200188000012,46.64148301199998,24.734294799999986,46.640917864000016,24.733747494,46.641200438,001000010031601
شمسان,Shamsan,10,121,1,Yes,24.727182647000006,46.655114879999985,24.72672597899998,46.65402982400002,24.726954312999993,46.654572352,001000010031763
الريف,Al Rif,15,191,1,Yes,24.73729703800001,46.645786421000025,24.73656248399999,46.64407744699997,24.736858478600006,46.644766092,001000010032249
غزة,Gaza,20,475,1,Yes,24.731963802999985,46.642747665,24.73185106400001,46.642806096000015,24.731818036866663,46.64269567073334,001000010032576
ذهبان,zahaban,20,207,1,Yes,24.736603426999977,46.64988891899998,24.735807315999978,46.64804006999998,24.73633510799999,46.64926578899999,001000010032762
مؤتة,Mo'Ta,12,104,1,Yes,24.736155279000002,46.657040600000016,24.73529951500001,46.65747353799998,24.735727397000005,46.657257068999996,001000010032878
منجد,Monjed,12,104,1,Yes,24.735931130999973,46.65348279199998,24.735532180999996,46.652552066,24.73571430133332,46.652977899999996,001000010032898
صفية البغدادية,Safia Al Baghdadya,10,128,1,Yes,24.72525899499999,46.655424916000015,24.726308759000005,46.654893818000005,24.725954826666662,46.65507275000001,001000010033156
الشارقة,Ash Shariqa,36,917,6,Yes,24.738779925000017,46.642010395,24.73128251999998,46.64584649699998,24.735036706000002,46.64392564024999,001000010033222
أروي,Arwa,20,179,1,Yes,24.734855030000006,46.64694931399998,24.73417550099998,46.64533880800002,24.73462735233333,46.64640971066666,001000010033379
العارض,Al Aredh,20,1098,1,Yes,24.722560346000023,46.64859533399999,24.730489119000026,46.642233148,24.72815405533335,46.644852353666664,001000010033480
زنجبار,Zenjebar,15,221,1,Yes,24.73176063599999,46.64878484500002,24.730910660999996,46.646811179,24.731352085249995,46.64783617875,001000010033553
سميراء,Samira,12,509,1,Yes,24.728336834000004,46.65255301899998,24.724163163000014,46.65465968199999,24.72599983533333,46.653735545999986,001000010033743
مصياف,Masayef,10,117,1,Yes,24.72948666999997,46.65806438599998,24.73044785000002,46.657579451000004,24.730180130833322,46.65771287166667,001000010033786
الأوسي,Al Aossi,15,121,1,Yes,24.740316833999998,46.653407809999976,24.739855447000025,46.65232539099998,24.74008614050001,46.652866600499976,001000010033882
الاوضاح,Al Awzaah,15,360,1,Yes,24.740518339000005,46.646522941,24.737553886,46.64799019499998,24.739036112500003,46.64725656799999,001000010033887
صخر,Sakar,15,227,1,Yes,24.737640218000024,46.64477471999999,24.73949669199999,46.643829455,24.738981035666672,46.64409244266667,001000010033985
البترا,Al Battra,20,241,1,Yes,24.73234974799999,46.64184076800001,24.733820992000005,46.640090394000026,24.732949064499998,46.641120505,001000010034130
الحوافظ,Al Hawafeth,12,0,1,Yes,24.73915924099998,46.65487118200002,24.738851522000004,46.65413975199999,24.7390066815,46.654508604750006,001000010003758
وادي ابي خشبة,Abi Khashaba Valley,15,0,1,Yes,24.729626914999983,46.64980081099998,24.729270364,46.648957970000026,24.729448639499992,46.6493793905,001000010034484
سطام أبا الخيل,Sattam Aba Al Kheil,10,1,1,Yes,24.72645835899999,46.65524860300002,24.728598659,46.660046394000005,24.727628275999997,46.65788550557143,001000010034568
البراري,Al-Bararee,15,0,1,Yes,24.73591781800002,46.64079037900001,24.73777061300001,46.639850377000016,24.736945495400004,46.64027070200001,001000010034767
البرك,Al Barak,12,0,1,Yes,24.72599809000002,46.657211168,24.724803973000007,46.654347452000025,24.725533561500015,46.65608720675,001000010034778
الحجر,Al Hajjar,15,0,1,Yes,24.733494135,46.65061807699999,24.735668337999982,46.649524085999985,24.734139975799998,46.6502931108,001000010034895
عمرو بن امامه,Amr Bin Emama,10,0,1,Yes,24.735339807999992,46.65592891799997,24.73487816400001,46.65484231200003,24.735100788750003,46.65536632050001,001000010034930
الطرفية,Al Tarfiya,10,0,1,Yes,24.72676504200001,46.660976436,24.730086277999987,46.659499713,24.728830561599995,46.66003269869999,001000010035144
الخطيب أبو الغنائم,Al Khatib Abi Al Ghanaem,10,0,1,Yes,24.729235852999977,46.65993061400002,24.728761779000024,46.65882261399997,24.728998816,46.659376613999996,001000010003852
المشمش,Al Meshmesh,10,0,1,Yes,24.726406515999997,46.65419167499999,24.727600732999974,46.653587216000005,24.72708295049999,46.653849256,001000010035274
سدوان,Sadwan,12,0,1,Yes,24.737387927999976,46.656775459000016,24.737754085999995,46.657795254999996,24.73750350366667,46.6571258855,001000010035507
عبد الرحمن بن معاوية,Abdulrahman Bin Moweya,10,0,1,Yes,24.72685876600002,46.65527900500001,24.728063736000024,46.65467259299999,24.727407945800017,46.65500238560001,001000010036026
النجيل,Al Najil,10,0,1,Yes,24.73037666800002,46.66019486699997,24.72928803999997,46.660755053,24.729832353999996,46.66047495999999,001000010036159
احمد البيهقي,Ahmad Al Bahiqi,10,0,1,Yes,24.729205693999972,46.66148716700002,24.727352810000014,46.66241391400001,24.727992159500005,46.662093198250005,001000010037263
الروض,Al Rawdh,20,0,1,Yes,24.73036250199999,46.64352791499999,24.732620387999987,46.64240736900001,24.73139539566666,46.643031434111116,001000010004210
الريعة,Al Reea,8,0,1,Yes,24.72473182599998,46.65611458199999,24.72677773700002,46.655086254000025,24.72588582414286,46.65553579514285,001000010004239
الزريقات,Al Zoreiqat,8,0,1,Yes,24.728823019999993,46.66057696299998,24.730230673999984,46.65984537700001,24.729723539799988,46.66010871499999,001000010004270
الزوين,Al Zowein,10,0,1,Yes,24.72783172300001,46.654128705999995,24.726954631000012,46.654573105,24.72740251500001,46.65434609725,001000010004299
السرايا,Al Saraya,8,0,1,Yes,24.725780346000022,46.65667184099999,24.726598892000027,46.65625223799998,24.726189619000024,46.656462039499985,001000010004350
السفرجل,Al Safarjal,15,0,1,Yes,24.73920449000002,46.64518581499999,24.73786424000002,46.64586646700002,24.738315079000017,46.645637506333344,001000010004379
الشعيبات,Al Shoebat,15,0,1,Yes,24.736665629000015,46.64611131700002,24.739031528999988,46.64477750499998,24.73775994833333,46.64548515816667,001000010004565
الصباح,Al Sabah,12,1,1,Yes,24.73294426299998,46.65192239700002,24.736135574000002,46.65950450499997,24.734730052999996,46.656138892538465,001000010004721
ابن العربي,Ibn Al Arabi,20,0,1,Yes,24.72278146299999,46.64675483399998,24.723209062000024,46.64826773200002,24.723473701000007,46.64868290628571,001000010000475
العقيلية,Al Aqiliya,10,0,1,Yes,24.729781361999983,46.66050120099999,24.73023940799999,46.66159569000001,24.730010338499994,46.66104833425,001000010005117
ابن اللحام الحنبلي,Ibn Al Laham Al Hanbali,10,0,1,Yes,24.728884868000023,46.66164660999999,24.728422850000015,46.66055642200001,24.728730033000016,46.66128125866667,001000010000524
أحمد الغافقي,Ahmad Al Ghafqi,10,0,1,Yes,24.73788068099998,46.65184775900002,24.737218719999987,46.652188274000025,24.737622116999983,46.65198076533335,001000010044023
محمد السليماني,Mohammed Al Solimani,15,0,1,Yes,24.732118249999985,46.64969542799997,24.732953583999972,46.65173142399999,24.732523188999988,46.65068396199998,001000010044148
بن الناعم,Bin Al Naem,15,0,1,Yes,24.73317446499999,46.65027807000001,24.732497733000002,46.65062503399997,24.732836098999996,46.65045155199999,001000010044149
أحمد المعقري,Ahmed Al Mahakri,20,0,1,Yes,24.731539859999998,46.64978699699998,24.730406974000005,46.64707005299999,24.73091285800001,46.648283283249995,001000010044306
القاسم بن خالد,Al Qassem Ibn Khaled,10,0,1,Yes,24.729741500999978,46.66184550700001,24.72914412199998,46.660408974000006,24.729477874999986,46.66121155725,001000010005406
القطين,Al Qatin,12,0,1,Yes,24.739727516000016,46.654585763,24.740103923999982,46.655473968000024,24.739916637999997,46.65503203050001,001000010005513
المدار,Al Madar,12,1,1,Yes,24.738500595999994,46.65520462500001,24.743194942999992,46.65284001700002,24.740423892857144,46.654232691785715,001000010005788
المنصور المريني,Al Mansour Al Marini,12,0,1,Yes,24.740317827000013,46.65502586500003,24.74279259399998,46.65377141699997,24.741225120750002,46.65456478875001,001000010006112
الناصرة,Al Nasera,20,1,1,Yes,24.731134756000017,46.66200965600001,24.72704117500001,46.65227553599999,24.72919625792,46.65738066444,001000010006183
يحيى القرشي,Yehya Al Qurashi,12,0,1,Yes,24.74105072499998,46.65172092900002,24.740744794000022,46.65099762199998,24.7408977595,46.6513592755,001000010045740
الوقيط,Al Waqit,12,0,1,Yes,24.728273467000008,46.66259007000002,24.731801390999976,46.66080330099999,24.729867274454545,46.661783336090906,001000010006405
ابن حيان الأندلسي,Ibn Hayan Al Andalusi,10,0,1,Yes,24.72532858400001,46.65755243900003,24.727137646000017,46.656639316999986,24.72582716400001,46.6573001022,001000010000642
برهان الدين المرشدي,Burhan Ud Din Al Murshadi,15,0,1,Yes,24.733234433999996,46.64077683199997,24.73267270399998,46.64024217000002,24.732955403000005,46.640511246,001000010055651
بشار بن برد,Bashar Bin Bard,15,0,1,Yes,24.733561585000018,46.648076919999994,24.73302766400002,46.64679254700002,24.733308674666677,46.647468530000005,001000010055114
بقي بن محمد,Bagi Bin Mohammed,15,0,1,Yes,24.739611153,46.64837413499998,24.73935680400001,46.647753394999995,24.739483978500004,46.64806376499999,001000010054203
أمين الشيبي,Ameen Alshayebi,20,0,1,Yes,24.72855026899998,46.64838281599998,24.728873037000028,46.64915785900001,24.728681114999993,46.64869700879999,001000010054868
بلال بن هرمي,Bilal Bin Harmi,15,0,1,Yes,24.738833654000018,46.64876730899999,24.73857241600001,46.648147741,24.738703035000015,46.648457525,001000010054864
بدر بن عامر الهذلي,Badar Bin Amir Al Hazli,20,0,1,Yes,24.731503936000024,46.64650625600001,24.730024453999988,46.647266651999985,24.730764195000006,46.646886454,001000010054003
بقيعه الجنوبية,Bagia Al Janubia,15,0,1,Yes,24.727346625999985,46.650521432000005,24.727971704000026,46.65020477500002,24.727671706250007,46.65035675050001,001000010055322
سعيد التلمساني,Ain Alzaraa,12,0,1,Yes,24.73901942499998,46.64792301099999,24.738792468999975,46.64737716799999,24.7389274474,46.647701799000004,001000010053380
بصوة,Baswa,12,0,1,Yes,24.73655949900001,46.65244798600003,24.735679591999997,46.65289884200001,24.736119545500003,46.65267341400002,001000010006717
الراعي الكلبي,Al Raee Al Kalbi,12,0,1,Yes,24.74124978499998,46.65602615300003,24.740983733000007,46.655405202,24.741072976999988,46.65561349333334,001000010048630
الحسين بن عبد العزيز,Al Hussein Ibn Abdul Aziz,12,0,1,Yes,24.741807779999988,46.65353164800001,24.741504254999995,46.652808977999996,24.74165601749999,46.653170313000004,001000010048605
الأبراق,Al Abraq,20,0,1,Yes,24.729248258999974,46.64537488000002,24.728624176999972,46.644804610999984,24.728938657249984,46.645091973999996,001000010048596
أبي القاسم الشاطبي,Abi Al Qassem Al Shatbi,10,0,1,Yes,24.73853309399999,46.64552678899997,24.73835845100001,46.645116497000004,24.73841759266666,46.64525543999999,001000010049172
الراعب,Al Raeb,12,0,1,Yes,24.74050558800002,46.654186853,24.740202409999995,46.65346551499999,24.740353999000007,46.653826183999996,001000010048614
أبي الشكر البلخي,Abi Al Shokr Al Balkhi,12,0,1,Yes,24.742394063000006,46.65544505999998,24.742129766000005,46.65482929299998,24.742261914500006,46.65513717649998,001000010049177
أبو القاسم السبتي,Abi al-Qasim al-Sabti,10,0,1,Yes,24.738703123999983,46.650610599000004,24.738443657000005,46.65000425300002,24.73861331433333,46.65040072366668,001000010048586
الحكيم القاضي,Al Hakim Al Qadi,12,0,1,Yes,24.74060564199999,46.656345199999976,24.740917130000014,46.657072176999975,24.740761386000003,46.656708688499975,001000010170781
أبي القاسم السكري,Abi Al Qassem Al Sokari,10,0,1,Yes,24.72956012100002,46.64863589999999,24.729887319,46.648472450999975,24.729724833000006,46.64855361974999,001000010049178
الحشرج,Al Hashraj,12,0,1,Yes,24.739381971,46.64953065100002,24.73907514000001,46.648809347999986,24.739228555500006,46.6491699995,001000010048617
الاباتر,Al Abatar,20,0,1,Yes,24.730451578999975,46.646571986000026,24.729846899999984,46.64598142,24.730245965333324,46.64637117100002,001000010049173
أبو القاسم العفيف,Abi Al Qassem Al Afif,10,0,1,Yes,24.734807026,46.65079456299998,24.7345095,46.650107182,24.734730997249997,46.6506189135,001000010048594
أبو الشمقمق,Abi Al Shamqamaq,12,0,1,Yes,24.739734955000017,46.65238632500001,24.73943042100001,46.65165583100003,24.739627262000017,46.652127999333345,001000010048625
أبي القاسم الشاماتي,Abi Al Qassem Al Shamati,10,0,1,Yes,24.728671937,46.65611416799999,24.729627116000017,46.65563230700002,24.729146745999998,46.6558746405,001000010048627
بني سويف,Bni Soweif,12,0,1,Yes,24.733473650999997,46.65317044400001,24.73434113000002,46.652727098000014,24.734051074333347,46.65287533766667,001000010006791
ابن رشيد,Ibn Rasheed,20,0,1,Yes,24.736216356,46.641500726000004,24.738062704000015,46.64052204000001,24.737092889499998,46.64103664775,001000010000676
ابن رواحة,Ibn Rowaha,12,0,1,Yes,24.72858740999999,46.66331260300001,24.727445482999997,46.66063340699998,24.728027412285712,46.662008697285714,001000010000683
جامع التميمي,Al Tamimi Mosque,10,0,1,Yes,24.727233430000013,46.655928288999974,24.72836044899998,46.65536858799999,24.727778014666665,46.65565746533332,001000010006975
جبل ابرق راكس,Abraq Rax Mountain,10,0,1,Yes,24.729552694999995,46.647675720999985,24.730302365,46.64945921200001,24.729832898124997,46.64834278637499,001000010006991
جبل عماية,Amaya Mountain,10,0,1,Yes,24.726368314000013,46.65571468600001,24.72682417599998,46.65679662299999,24.72654046225,46.65612081325,001000010007103
جزيرة أقور,Jazirat Aqour,15,0,1,Yes,24.728675512999985,46.65028775600001,24.72832434899999,46.64943389299998,24.728499930999988,46.649860824499996,001000010007158
جعفر المسلمي,Jaffar Al Maslami,20,0,1,Yes,24.732040155999982,46.64730476300002,24.733814402999997,46.64638446399999,24.732634906666664,46.64699626666667,001000010007173
جعفر بن أحمد,Jafar Bin Ahmad,12,0,1,Yes,24.740391848,46.64797934400002,24.740423683000017,46.648125456,24.740396896200004,46.64801931480001,001000010007181
عبدالرحمن بن صالح الشبيلي,Abdulrahman Bin Saleh Alsheibli,20,1,1,Yes,24.727835276999997,46.65166269299999,24.732014300999992,46.66131170199998,24.728459283230766,46.652998335307686,001000010171164
جمال الدين الشاهد,Jamaluddin Al Shahed,15,0,1,Yes,24.737884925000003,46.645354983000004,24.737207335999983,46.64374824999999,24.737538627874997,46.644533825625004,001000010007207
جونة,Jona,12,0,1,Yes,24.723684642000023,46.651688482,24.72494821700002,46.651057326,24.724350982000004,46.65135500950001,001000010007248
ممر1,Mumar1,10,0,1,Yes,24.739344358999972,46.65097977400001,24.739099897000017,46.650409938999985,24.739259593999993,46.650782188666675,001000010048571
ممر7,Mumar7,10,0,1,Yes,24.74038418600003,46.651178207999976,24.740128982999977,46.650585912,24.740256584500003,46.65088205999999,001000010048588
ممر21,Mumar21,10,0,1,Yes,24.739183277999985,46.651779593000015,24.73893383500001,46.65118584700002,24.73905835875,46.651481859,001000010049175
ممر12,Mumar12,10,0,1,Yes,24.739891107000005,46.650009796999996,24.739633715000025,46.649403586000005,24.73982441950001,46.6498527345,001000010048603
ممر11,Mumar11,10,0,1,Yes,24.741475822999973,46.65515791600001,24.741223081999976,46.65456328800002,24.74130906366666,46.65476557833333,001000010048601
ممر24,Mumar 24,10,0,1,Yes,24.741546046999986,46.654401115999974,24.741294788000005,46.65379051299999,24.741420417499995,46.65409581449998,001000010049187
ممر2,Mumar2,10,0,1,Yes,24.739726030999975,46.650787987,24.73948169900001,46.65021665299997,24.739603864999992,46.65050231999999,001000010048574
ممر5,Mumar5,10,0,1,Yes,24.730577067000013,46.648568420000004,24.730039723999994,46.64883478600001,24.730308395500003,46.648701603000006,001000010048585
ممر3,Mumar3,10,0,1,Yes,24.727340646000016,46.647054020999974,24.72703383999999,46.64633613900003,24.727223475,46.64677985766667,001000010171227
حاتم بن الليث,Hatem Bin Al Leith,12,0,1,Yes,24.727216295999995,46.65199708900002,24.726206606000005,46.649589832000004,24.726679566374997,46.650710437250005,001000010007260
الكتبان,Kitban,10,0,1,Yes,24.741630929999985,46.654358495999986,24.741877735000003,46.65495594499998,24.74177249766666,46.654701193333324,001000010048584
حسين البوري,Hussein Al Bouri,15,0,1,Yes,24.737383727000008,46.64088205899998,24.738529621999987,46.643608933999985,24.738001611999994,46.642345447,001000010007400
الحسين بن علي,Hussein Bin Ali,12,0,1,Yes,24.739279359000022,46.657022213000005,24.743302916999994,46.65498443199999,24.7414574179,46.6559182201,001000010007411
حقل,Hagel,12,0,1,Yes,24.73663385399999,46.657224826000004,24.737118517,46.65811554300001,24.7365044356,46.6568193586,001000010007456
حكيم بن الحارث,Hakim Bin Al Hareith,12,0,1,Yes,24.737833943999988,46.651737954,24.741231132999985,46.65003383499999,24.739972652666665,46.65066477233332,001000010007458
حلة الأسمر,Hilat Al Asmar,10,0,1,Yes,24.738143928,46.64654505599998,24.737693218000004,46.64545153400002,24.737928849,46.646023226500006,001000010007467
حمد بن عبد العزيز,Hamad Bin Abdulaziz,12,0,1,Yes,24.740730402999986,46.648850036,24.736671849000004,46.65089852699998,24.738701125999995,46.64987428149999,001000010007503
خليفة بن بديع,Khalifa Bin Badae,36,1,6,Yes,24.728372282000066,46.64180899400003,24.73373019400003,46.65142052600004,24.730794254103504,46.64507496472419,001000010007698
خليل الخالدي,Khalil Al Khaledi,15,0,1,Yes,24.726512672000013,46.65031031500001,24.729622321000022,46.64878090600001,24.727081403909096,46.650029367545464,001000010007703
خميس الشعراء,Khamis Al Shoara,20,0,1,Yes,24.72435290200002,46.64769008100001,24.723753604000024,46.64624903800001,24.724119048249996,46.64712775862501,001000010007711
خير الدين الرملي,Khairuddin Al Ramli,8,0,1,Yes,24.729336214,46.657704233000004,24.727875030000007,46.658558313000015,24.7294544389,46.657693080600005,001000010007720
رأس السر,Ras Al Sirr,20,0,1,Yes,24.73351918999998,46.64891656399999,24.733018705999996,46.64770200200002,24.733351691999985,46.64851008366666,001000010007874
رغدان,Raghdan,20,0,1,Yes,24.733310128000028,46.643852279999976,24.737064405000012,46.641928721,24.735613471272732,46.6426780000909,001000010007965
رميحة,Ramiha,10,0,1,Yes,24.725141495999992,46.651514513999985,24.72387854599998,46.652145738,24.724512612999987,46.65182880774999,001000010007993
زيد بن أسلم,Zaid Bin Aslam,20,1,1,Yes,24.729280485000004,46.647983995999994,24.725583083000004,46.64429917299998,24.728154730749992,46.646824988499986,001000010008120
سالم بن عبد الله,Salem Bin Abdullah,10,0,1,Yes,24.731338144000006,46.66103875499999,24.729971175000003,46.657816819000004,24.730576649499994,46.65924559050001,001000010008170
سبط السلاوي,Sabat Al Selawi,10,0,1,Yes,24.727592834999996,46.66098382500002,24.72874433200002,46.660390878999976,24.72825333900001,46.66064370866667,001000010008183
سعيد التلمساني,Saeed Al Telmesani,12,0,1,Yes,24.733246212999973,46.65263346299997,24.736039905999974,46.651215820999994,24.734162592749996,46.652166648999994,001000010008275
سليمان العمري,Soliman Al Amri,10,0,1,Yes,24.733630995999988,46.65354193899998,24.733623152999996,46.653523423000024,24.734934756749997,46.65286162550001,001000010008408
ابن غانية,Ibn Ghania,10,0,1,Yes,24.73733383000001,46.65491376900002,24.73688138199998,46.653829347,24.737051705,46.65423737025,001000010000863
شعيرة,Shaeera,12,0,1,Yes,24.740555632999985,46.65562032899999,24.743744752999987,46.65413774699999,24.742501979874994,46.654703602625005,001000010008665
ضباء,Diba,20,0,1,Yes,24.732053303999976,46.645370309999976,24.732059212000024,46.64553526399999,24.73197512899999,46.64526741624999,001000010008881
