[
  {
    "place_id": "ChIJ1cVl5EEELz4R5OEzVhvNnmQ",
    "name": "Kudu - Al Malaz",
    "lat": 24.6663876,
    "lon": 46.72442909999999,
    "address": "Al Farazdaq Street, Riyadh",
    "types": "restaurant,meal_delivery,meal_takeaway,food,point_of_interest,establishment",
    "rating": 4,
    "district": "Al Amal Dist."
  },
  {
    "place_id": "ChIJ6wjfDF8ELz4RqTl1GGGYDc0",
    "name": "Domino's Pizza دومينوز بيتزا",
    "lat": 24.654983,
    "lon": 46.712067,
    "address": "Prince Abdulaziz Ibn Musaid Ibn Jalawi Street, Riyadh",
    "types": "meal_delivery,meal_takeaway,restaurant,food,point_of_interest,establishment",
    "rating": 4,
    "district": "Al Amal Dist."
  },
  {
    "place_id": "ChIJ8-yY8fcELz4RXsE_DwvY9jQ",
    "name": "Amo Hamza",
    "lat": 24.651917,
    "lon": 46.708341,
    "address": "Al Washm Street, Riyadh",
    "types": "restaurant,food,point_of_interest,establishment",
    "rating": 3.5,
    "district": "Al Amal Dist."
  },
  {
    "place_id": "ChIJF21dkvcELz4R2MIPUa-CtBI",
    "name": "KFC",
    "lat": 24.6518213,
    "lon": 46.7078897,
    "address": "Al Washm Street, Riyadh",
    "types": "restaurant,food,point_of_interest,establishment",
    "rating": 3.8,
    "district": "Al Amal Dist."
  },
  {
    "place_id": "ChIJhTPbxFgELz4Ra3AFAKM8QZk",
    "name": "Aquarium Boutique Hotel",
    "lat": 24.6564725,
    "lon": 46.7108184,
    "address": "Prince Abdulaziz Ibn Musaid Ibn Jalawi Street, Riyadh",
    "types": "night_club,lodging,cafe,bar,restaurant,food,point_of_interest,establishment",
    "rating": 4,
    "district": "Al Amal Dist."
  },
  {
    "place_id": "ChIJDy1Eo_sELz4RQYdkxgKQR20",
    "name": "Downtown Cairo Cafe",
    "lat": 24.64595030000001,
    "lon": 46.7023641,
    "address": "King Fahad Branch Road, Riyadh",
    "types": "cafe,store,restaurant,food,point_of_interest,establishment",
    "rating": 4.1,
    "district": "Al Amal Dist."
  },
  {
    "place_id": "ChIJJ8QkRisELz4RT5Y5k612gbM",
    "name": "Falafel Arafah",
    "lat": 24.6553162,
    "lon": 46.7440301,
    "address": "Zeid Ibn Al Khattab, Riyadh",
    "types": "restaurant,food,point_of_interest,establishment",
    "rating": 4,
    "district": "Al Amal Dist."
  },
  {
    "place_id": "ChIJYxXv5-UFLz4RS1lvb3of8DA",
    "name": "Grill And Rice",
    "lat": 24.6286034,
    "lon": 46.7395277,
    "address": "Al Kharj Road, Riyadh",
    "types": "restaurant,food,point_of_interest,establishment",
    "rating": 4.2,
    "district": "Al Amal Dist."
  },
  {
    "place_id": "ChIJ4xiZDQQDLz4R6SV9KazsAx4",
    "name": "Kabab House-Malaz بيت الكباب-الملز",
    "lat": 24.6661736,
    "lon": 46.73092189999999,
    "address": "7402 Ibn Shaddad, Riyadh",
    "types": "restaurant,food,point_of_interest,establishment",
    "rating": 3.5,
    "district": "Al Amal Dist."
  },
  {
    "place_id": "ChIJ-32s_D4ELz4RqsGs7MnAjQE",
    "name": "Maestro Pizza",
    "lat": 24.6662143,
    "lon": 46.7308871,
    "address": "Salah Ad Din Al Ayyubi Road, Riyadh",
    "types": "meal_delivery,meal_takeaway,restaurant,food,point_of_interest,establishment",
    "rating": 4,
    "district": "Al Amal Dist."
  },
  {
    "place_id": "ChIJfWcKfz4ELz4RQQehv8x8_z0",
    "name": "مطاعم ركن هاشم الملز - Hashem Rest Malaz",
    "lat": 24.6676701,
    "lon": 46.73319249999999,
    "address": "Abdullah Al Hamathani Street, MP9M+378, Riyadh",
    "types": "restaurant,food,point_of_interest,establishment",
    "rating": 3.8,
    "district": "Al Amal Dist."
  },
  {
    "place_id": "ChIJSyy0t4sELz4RSZRtlK8H-YU",
    "name": "KFC",
    "lat": 24.6638132,
    "lon": 46.706475,
    "address": "Amer fisal Street Wazarat, الرياض",
    "types": "restaurant,food,point_of_interest,establishment",
    "rating": 3.7,
    "district": "Al Amal Dist."
  },
  {
    "place_id": "ChIJI2RSB40ELz4RxAcOo6ZJDjU",
    "name": "Maestro Pizza",
    "lat": 24.6611855,
    "lon": 46.70123419999999,
    "address": "King Fahd Road, Riyadh",
    "types": "meal_delivery,meal_takeaway,restaurant,food,point_of_interest,establishment",
    "rating": 4.1,
    "district": "Al Amal Dist."
  },
  {
    "place_id": "ChIJnfrOpY0ELz4RKGmY_Xm_7YU",
    "name": "Subway Murraba",
    "lat": 24.661197,
    "lon": 46.70113989999999,
    "address": "King, King Fahad Branch Road, Riyadh",
    "types": "restaurant,food,point_of_interest,establishment",
    "rating": 3.9,
    "district": "Al Amal Dist."
  },
  {
    "place_id": "ChIJ7_RHdmEELz4ReiMyk40dRbk",
    "name": "Al Tazaj",
    "lat": 24.6660905,
    "lon": 46.71172159999999,
    "address": "شازع الأمير فيصل بن تركي بن عبدالعزيز ،, Riyadh",
    "types": "restaurant,food,point_of_interest,establishment",
    "rating": 3.9,
    "district": "Al Amal Dist."
  },
  {
    "place_id": "ChIJi6_GqrQFLz4RnHDZwSQ5uH0",
    "name": "Buffet - Reasturant - بوفيه",
    "lat": 24.6473487,
    "lon": 46.7238142,
    "address": "Riyadh",
    "types": "restaurant,food,point_of_interest,establishment",
    "rating": 3.6,
    "district": "Al Amal Dist."
  },
  {
    "place_id": "ChIJa_yuBAAFLz4RnuCmeIBkgy0",
    "name": "گجرات مطعم",
    "lat": 24.6472117,
    "lon": 46.7247065,
    "address": "Al Farazdaq Street, JPWF+VVP, Riyadh",
    "types": "restaurant,food,point_of_interest,establishment",
    "rating": "",
    "district": "Al Amal Dist."
  },
  {
    "place_id": "ChIJdQeHfUwFLz4RAuQV3hDV4MI",
    "name": "Sahil",
    "lat": 24.6472117,
    "lon": 46.7247065,
    "address": "Al Farazdaq Street, Riyadh",
    "types": "restaurant,food,point_of_interest,establishment",
    "rating": "",
    "district": "Al Amal Dist."
  },
  {
    "place_id": "ChIJ3Sjy1jkFLz4Rw8X3GWAVydo",
    "name": "Chef Al Shawya Restaurant",
    "lat": 24.6472117,
    "lon": 46.7247065,
    "address": "Al Farazdaq Street, Riyadh",
    "types": "restaurant,food,point_of_interest,establishment",
    "rating": 4,
    "district": "Al Amal Dist."
  },
  {
    "place_id": "ChIJxdnzz7IFLz4RQPFuuBdrduE",
    "name": "Restaurant of Shaabiyat Al - Sadda",
    "lat": 24.6457156,
    "lon": 46.7205971,
    "address": "حي 2549, 2549 عبدالحكيم الجمحي, Riyadh",
    "types": "restaurant,food,point_of_interest,establishment",
    "rating": 3.9,
    "district": "Al Amal Dist."
  },
  {
    "place_id": "ChIJxzSAp18ELz4R2vrgrQTFeck",
    "name": "dr.CAFE COFFEE‎",
    "lat": 24.66068750000001,
    "lon": 46.7251875,
    "address": "Al Jamiah Street, MP6G+73, Riyadh",
    "types": "cafe,store,food,point_of_interest,establishment",
    "rating": 4,
    "district": "Al Amal Dist."
  },
  {
    "place_id": "ChIJD6czT6cFLz4R8SSWQFkyTRs",
    "name": "Dunkin' Donuts - 10244",
    "lat": 24.6288015,
    "lon": 46.7101671,
    "address": "Al Muqaybirah Street, Riyadh",
    "types": "cafe,bakery,store,food,point_of_interest,establishment",
    "rating": 4,
    "district": "Al Amal Dist."
  },
  {
    "place_id": "ChIJpwzGxCgCLz4R4S4Jm23OkD8",
    "name": "Dunkin' - دانكن",
    "lat": 24.668699,
    "lon": 46.719099,
    "address": "King Abdulaziz Road, Riyadh",
    "types": "cafe,store,food,point_of_interest,establishment",
    "rating": 3.8,
    "district": "Al Amal Dist."
  },
  {
    "place_id": "ChIJPSgCDowELz4R_2wRRei1EgI",
    "name": "Café Mr. Dainty",
    "lat": 24.6637153,
    "lon": 46.70360469999999,
    "address": "Prince Faisal Bin Turki Bin Abdulaziz St Prince Faisal Bin Turki Bin Abdulaziz Street, Riyadh",
    "types": "cafe,food,point_of_interest,establishment",
    "rating": 4.5,
    "district": "Al Amal Dist."
  },
  {
    "place_id": "ChIJRUSeuY0ELz4R38cHL3SylCY",
    "name": "Dunkin' - دانكن",
    "lat": 24.661731,
    "lon": 46.70107600000001,
    "address": "طريق الملك فهد الفرعي, Riyadh",
    "types": "cafe,store,food,point_of_interest,establishment",
    "rating": 4.3,
    "district": "Al Amal Dist."
  },
  {
    "place_id": "ChIJ78Rba6gFLz4RugF6cpvp0BU",
    "name": "..",
    "lat": 24.6448201,
    "lon": 46.7259579,
    "address": "Al Farazdaq Street, زيد بن سهل, Riyadh",
    "types": "cafe,food,point_of_interest,establishment",
    "rating": 4,
    "district": "Al Amal Dist."
  },
  {
    "place_id": "ChIJOztJZQAFLz4RhfSIRtVwiC8",
    "name": "ميعاد للمأكولات",
    "lat": 24.6425838,
    "lon": 46.72311209999999,
    "address": "شارع أبي جعفر المنصور, JPVF+26Q, Riyadh",
    "types": "cafe,store,food,point_of_interest,establishment",
    "rating": "",
    "district": "Al Amal Dist."
  },
  {
    "place_id": "ChIJ3w8UftIFLz4RS6P7YkwhwAc",
    "name": "الشا",
    "lat": 24.6424043,
    "lon": 46.7228861,
    "address": "JPVC+J2Q, Riyadh",
    "types": "cafe,food,point_of_interest,establishment",
    "rating": 5,
    "district": "Al Amal Dist."
  },
  {
    "place_id": "ChIJoc9gJgAFLz4REz0kzkFzXwQ",
    "name": "قهوة الجوز",
    "lat": 24.6479647,
    "lon": 46.7227243,
    "address": "2762 Ibn Al Anbari, Riyadh",
    "types": "cafe,store,food,point_of_interest,establishment",
    "rating": "",
    "district": "Al Amal Dist."
  },
  {
    "place_id": "ChIJm1O5qVEFLz4RFlvP6e4ja8o",
    "name": "OTHAYI. BOOFIYA (ALIYANS)",
    "lat": 24.6450121,
    "lon": 46.719927,
    "address": "Riyadh",
    "types": "cafe,store,food,point_of_interest,establishment",
    "rating": 4.7,
    "district": "Al Amal Dist."
  },
  {
    "place_id": "ChIJPy7lIgAFLz4R_Pf9ILqFh1k",
    "name": "Hayah Coffee & Juice",
    "lat": 24.6461432,
    "lon": 46.7187874,
    "address": "Al Garabbi Street, JPW9+9GV, Riyadh",
    "types": "cafe,food,point_of_interest,establishment",
    "rating": 5,
    "district": "Al Amal Dist."
  },
  {
    "place_id": "ChIJOw-1OycFLz4RcTaLDdBZgCs",
    "name": "MK Tea Time",
    "lat": 24.640987,
    "lon": 46.7211343,
    "address": "ثابت بن النعمان، العمل،،, JPRC+9FR, Riyadh",
    "types": "cafe,store,food,point_of_interest,establishment",
    "rating": 3.3,
    "district": "Al Amal Dist."
  },
  {
    "place_id": "ChIJy11WnZYFLz4RyoP1HSEiFFc",
    "name": "شاي احمر للمشروبات",
    "lat": 24.643265,
    "lon": 46.7185195,
    "address": "العمل،, Riyadh",
    "types": "cafe,store,food,point_of_interest,establishment",
    "rating": 4.4,
    "district": "Al Amal Dist."
  },
  {
    "place_id": "ChIJv3MiBwAFLz4Ri1IDl29uhGo",
    "name": "خيط الصبح",
    "lat": 24.642327,
    "lon": 46.7189121,
    "address": "Al Bathaa, JPR9+WHM, Riyadh",
    "types": "cafe,store,food,point_of_interest,establishment",
    "rating": 5,
    "district": "Al Amal Dist."
  },
  {
    "place_id": "ChIJjQWlFwAFLz4RqGCF75rQq2E",
    "name": "Team Cafe",
    "lat": 24.6445433,
    "lon": 46.71793779999999,
    "address": "Riyadh",
    "types": "cafe,store,food,point_of_interest,establishment",
    "rating": 5,
    "district": "Al Amal Dist."
  },
  {
    "place_id": "ChIJYQ48ZwAFLz4R4eQAYAnYx88",
    "name": "مقهى المجالس",
    "lat": 24.64310129999999,
    "lon": 46.7181929,
    "address": "حي, شارع اسد بن الفرات, Riyadh",
    "types": "cafe,store,food,point_of_interest,establishment",
    "rating": 5,
    "district": "Al Amal Dist."
  },
  {
    "place_id": "ChIJXTp13G0FLz4RdQ4MVCAxr9g",
    "name": "SIPP COFFEE HOUSE, Riyadh",
    "lat": 24.6457157,
    "lon": 46.71775660000001,
    "address": "Filipino market, Al Bathaa, Riyadh",
    "types": "cafe,food,point_of_interest,establishment",
    "rating": 5,
    "district": "Al Amal Dist."
  },
  {
    "place_id": "ChIJiy1LZjAFLz4RCnCRQFwfWFA",
    "name": "Dunkin’ Donuts",
    "lat": 24.6486104,
    "lon": 46.72853729999999,
    "address": "3403 Prince Fahad Ibn Ibrahim Al Saud Street, 8091, Riyadh",
    "types": "cafe,food,point_of_interest,establishment",
    "rating": 4.1,
    "district": "Al Amal Dist."
  },
  {
    "place_id": "ChIJx5VaElEELz4RxsVbAEXCEVw",
    "name": "EMAD UNIFORMS",
    "lat": 24.6509602,
    "lon": 46.71591189999999,
    "address": "8228 King Abdulaziz Road, Riyadh",
    "types": "clothing_store,store,point_of_interest,establishment",
    "rating": 4,
    "district": "Al Amal Dist."
  },
  {
    "place_id": "ChIJMwGNFGEDLz4RyHJ8sbyc72k",
    "name": "Systems Center for Studies and Research Services",
    "lat": 24.65205570000001,
    "lon": 46.7093565,
    "address": "Al Washm Street, Riyadh",
    "types": "store,point_of_interest,establishment",
    "rating": 4.7,
    "district": "Al Amal Dist."
  },
  {
    "place_id": "ChIJ9YCzHjgELz4R_mbjblYEgp8",
    "name": "Digital platform for Information Technology",
    "lat": 24.6579133,
    "lon": 46.72981859999999,
    "address": "الشيخ محمد بن ابراهيم, الملز - شارع الامير فهد, Riyadh",
    "types": "bank,electronics_store,store,point_of_interest,finance,establishment",
    "rating": 3.8,
    "district": "Al Amal Dist."
  },
  {
    "place_id": "ChIJ97wo20wELz4Rj2ufoVaWmS4",
    "name": "Al Shuraa Trading Est",
    "lat": 24.6474623,
    "lon": 46.7222071,
    "address": "حي, Al Garabbi Street, Riyadh",
    "types": "store,point_of_interest,establishment",
    "rating": 4.1,
    "district": "Al Amal Dist."
  },
  {
    "place_id": "ChIJXyeVG7YFLz4RgQpYydM878Q",
    "name": "Basic Systems Co. LTD",
    "lat": 24.643394,
    "lon": 46.728141,
    "address": "Omar Al Moukhtar, Riyadh",
    "types": "electronics_store,store,point_of_interest,establishment",
    "rating": 4.1,
    "district": "Al Amal Dist."
  },
  {
    "place_id": "ChIJ_____6YFLz4RJT54lh_sIB0",
    "name": "راكان الالكترونيات صيانة Rakan Electronics repair (Circuit City مدينة الدوائر)",
    "lat": 24.6300492,
    "lon": 46.7131826,
    "address": "Thamiri St, Electronic Market, Near Of Masmak Fortress, Al Imam Turki Muhammad, الرياض",
    "types": "electronics_store,store,point_of_interest,establishment",
    "rating": 4.2,
    "district": "Al Amal Dist."
  },
  {
    "place_id": "ChIJB6cpjLQFLz4R-LTOn6fdThI",
    "name": "Tetra Tech Co.",
    "lat": 24.6457637,
    "lon": 46.7245556,
    "address": "Al Farazdaq Street, Tetra Tech Building, Riyadh",
    "types": "store,food,point_of_interest,establishment",
    "rating": 4.2,
    "district": "Al Amal Dist."
  },
  {
    "place_id": "ChIJb4W4MMkFLz4RvUJAzKvQsRk",
    "name": "Al Qarni Trading Co. QTE شركة محمد صالح القرني للتجارة",
    "lat": 24.6443384,
    "lon": 46.7328126,
    "address": "3789 Omar Al Moukhtar, طريق الخرج, Riyadh",
    "types": "hardware_store,store,point_of_interest,establishment",
    "rating": 4.4,
    "district": "Al Amal Dist."
  },
  {
    "place_id": "ChIJRTYV0bMJLz4RVV3ug4wwTTI",
    "name": "Rubber Corner ركن المطاط",
    "lat": 24.6454297,
    "lon": 46.72780650000001,
    "address": "Asad Ibn Al Fourat, Riyadh",
    "types": "store,point_of_interest,establishment",
    "rating": 4.9,
    "district": "Al Amal Dist."
  },
  {
    "place_id": "ChIJgxwiBBMELz4ReXt5cE35tSU",
    "name": "Roadmaster Riyadh - رودماستر الرياض",
    "lat": 24.6615493,
    "lon": 46.72609109999999,
    "address": "Al Farazdaq Street, Riyadh",
    "types": "electronics_store,store,point_of_interest,establishment",
    "rating": 4.3,
    "district": "Al Amal Dist."
  },
  {
    "place_id": "ChIJ7_5xyqYFLz4R-GzZ8I1mmJg",
    "name": "مؤسسة احمد الحرقان للتجارة",
    "lat": 24.630782,
    "lon": 46.713437,
    "address": "3158 Al Thumairi Street, Riyadh",
    "types": "store,jewelry_store,point_of_interest,establishment",
    "rating": 4.9,
    "district": "Al Amal Dist."
  },
  {
    "place_id": "ChIJSTafebQFLz4RgqR2MLfhp5Y",
    "name": "The lights of the power EST",
    "lat": 24.644606,
    "lon": 46.72389,
    "address": "2893 اسد بن الفرات، العمل، الرياض 12643 7612, Riyadh",
    "types": "store,point_of_interest,establishment",
    "rating": 4,
    "district": "Al Amal Dist."
  },
  {
    "place_id": "ChIJiyifQrQFLz4RjvSy8w2pjf8",
    "name": "ZAHRAT AL YAMAMAH TRADING EST.",
    "lat": 24.6447209,
    "lon": 46.7248919,
    "address": "2988 Asad Ibn Al Fourat, Riyadh",
    "types": "store,point_of_interest,establishment",
    "rating": 4.1,
    "district": "Al Amal Dist."
  },
  {
    "place_id": "ChIJX5pfvrMFLz4RPjCBVnbIDT4",
    "name": "Rowad Cables Trading Co. شركة رواد الكابلات للتجارة",
    "lat": 24.6433533,
    "lon": 46.7223435,
    "address": "Asad Ibn Al Fourat, Riyadh",
    "types": "store,point_of_interest,establishment",
    "rating": 4.2,
    "district": "Al Amal Dist."
  },
  {
    "place_id": "ChIJvcnJsLMFLz4RoZ3WSyUAZhM",
    "name": "ALRIFI FOR CABLES",
    "lat": 24.6433889,
    "lon": 46.7216157,
    "address": "7491 Shaiban Bin Muhraz, Riyadh",
    "types": "store,point_of_interest,establishment",
    "rating": 4.2,
    "district": "Al Amal Dist."
  },
  {
    "place_id": "ChIJ_YXhi7YFLz4RrJPwTr2aGQE",
    "name": "Albawardi tools and hardware البواردي للعدد والأدوات",
    "lat": 24.6427782,
    "lon": 46.7246692,
    "address": "شارع عمر المختار, Riyadh",
    "types": "home_goods_store,store,point_of_interest,establishment",
    "rating": 4.2,
    "district": "Al Amal Dist."
  },
  {
    "place_id": "ChIJpxAXrEwELz4Riv7oGt6y6k0",
    "name": "Michelin Tyres - World Project EST For Trading",
    "lat": 24.6474,
    "lon": 46.72320999999999,
    "address": "Ibn Al Anbari, Riyadh",
    "types": "car_repair,store,point_of_interest,establishment",
    "rating": 4.5,
    "district": "Al Amal Dist."
  },
  {
    "place_id": "ChIJH7ZMe7YFLz4RNZRpOJCb22M",
    "name": "Mayaseem Holding Co - Rail Street Branch",
    "lat": 24.643385,
    "lon": 46.7261158,
    "address": "Ar Rail Omar Al Moukhtar, Riyadh",
    "types": "hardware_store,store,point_of_interest,establishment",
    "rating": 4.6,
    "district": "Al Amal Dist."
  },
  {
    "place_id": "ChIJsWIaTUsELz4RAYQeTawEsgo",
    "name": "AEG SERVICE CENTER",
    "lat": 24.6476598,
    "lon": 46.7244626,
    "address": "Al Farazdaq Road Al Farazdaq Street, Riyadh",
    "types": "electronics_store,store,point_of_interest,establishment",
    "rating": 3.3,
    "district": "Al Amal Dist."
  },
  {
    "place_id": "ChIJUVt6RrIFLz4R3OjNWEzL1Qg",
    "name": "Anwar Al Wessam for Trading",
    "lat": 24.6428772,
    "lon": 46.72134619999999,
    "address": "7451 Asad Ibn Al Fourat, 2614, Riyadh",
    "types": "store,point_of_interest,establishment",
    "rating": 4.4,
    "district": "Al Amal Dist."
  },
  {
    "place_id": "ChIJzylt_lIELz4Rzeafkv-_IS4",
    "name": "NestO Hypermarket Villagio Mall",
    "lat": 24.6469764,
    "lon": 46.7167205,
    "address": "2170 سليمان بن مالك, Riyadh",
    "types": "supermarket,grocery_or_supermarket,bakery,clothing_store,furniture_store,home_goods_store,store,point_of_interest,food,establishment",
    "rating": 4.3,
    "district": "Al Amal Dist."
  },
  {
    "place_id": "ChIJceAdtaoFLz4Rg8h1oe-E1jQ",
    "name": "LuLu Hypermarket - Al Batha",
    "lat": 24.6337003,
    "lon": 46.7156861,
    "address": "Commercial Center, Al Batha St, Ibn Sulaiman, Riyadh",
    "types": "supermarket,grocery_or_supermarket,clothing_store,furniture_store,home_goods_store,store,point_of_interest,food,establishment",
    "rating": 4.2,
    "district": "Al Amal Dist."
  },
  {
    "place_id": "ChIJtc8XZjAELz4RJGLB_vxR_S0",
    "name": "Meed - ميد‎",
    "lat": 24.6608045,
    "lon": 46.7347452,
    "address": "2313 Salah Ad Din Al Ayyubi Road, Riyadh",
    "types": "convenience_store,supermarket,grocery_or_supermarket,store,point_of_interest,food,establishment",
    "rating": 3.6,
    "district": "Al Amal Dist."
  },
  {
    "place_id": "ChIJKXW0yroFLz4Rpqm8mgLXILA",
    "name": "Nesto Hypermarket Batha",
    "lat": 24.6355755,
    "lon": 46.7188212,
    "address": "Al Bathaa, Riyadh",
    "types": "supermarket,grocery_or_supermarket,clothing_store,home_goods_store,store,point_of_interest,food,establishment",
    "rating": 4,
    "district": "Al Amal Dist."
  },
  {
    "place_id": "ChIJqUrGPrMFLz4R0afmYD1J2-A",
    "name": "تموينات صالح حميداني",
    "lat": 24.6459836,
    "lon": 46.7222577,
    "address": "شارع عبدالحكيم الجمحي، حي العمل, JPWC+9WR, Riyadh",
    "types": "supermarket,grocery_or_supermarket,store,point_of_interest,food,establishment",
    "rating": 3.9,
    "district": "Al Amal Dist."
  },
  {
    "place_id": "ChIJRYqkdAwFLz4R3lt2eGby4vc",
    "name": "Gurabi Bakkala بقالة اسماعيل",
    "lat": 24.6459045,
    "lon": 46.7220576,
    "address": "Abdulhakeem Al Jamhi, JPWC+9R7, Riyadh",
    "types": "supermarket,grocery_or_supermarket,store,point_of_interest,food,establishment",
    "rating": 4.4,
    "district": "Al Amal Dist."
  },
  {
    "place_id": "ChIJWYV6O7QFLz4R2OECqlhS3AM",
    "name": "الأصداف للتجارة | ALASDAF Trading Est",
    "lat": 24.6437763,
    "lon": 46.72491449999999,
    "address": "Unnamed Road, Riyadh",
    "types": "hardware_store,supermarket,grocery_or_supermarket,store,point_of_interest,food,establishment",
    "rating": 5,
    "district": "Al Amal Dist."
  },
  {
    "place_id": "ChIJ6efFSQAFLz4RToUKM1XTFnw",
    "name": "تموينات القوز",
    "lat": 24.6472117,
    "lon": 46.7247065,
    "address": "Al Farazdaq Street, JPWF+VVP, Riyadh",
    "types": "supermarket,grocery_or_supermarket,store,point_of_interest,food,establishment",
    "rating": "",
    "district": "Al Amal Dist."
  },
  {
    "place_id": "ChIJm0U2DQAFLz4Rw8dcN2UPeMQ",
    "name": "المهندالتنجيدالسيارت إشراف السلال",
    "lat": 24.6457604,
    "lon": 46.7203239,
    "address": "2536 ابن سلامة, 7711, Riyadh",
    "types": "supermarket,grocery_or_supermarket,store,point_of_interest,food,establishment",
    "rating": 5,
    "district": "Al Amal Dist."
  },
  {
    "place_id": "ChIJhZHISbIFLz4RlAl3qsLZCRg",
    "name": "Al Hogail Trading Co",
    "lat": 24.6428686,
    "lon": 46.72082559999999,
    "address": "2552 Asad Ibn Al Fourat, Riyadh",
    "types": "supermarket,grocery_or_supermarket,store,point_of_interest,food,establishment",
    "rating": 4.4,
    "district": "Al Amal Dist."
  },
  {
    "place_id": "ChIJCTn3YMkFLz4Ry-oEEiuseiQ",
    "name": "Office Supplies Trading Company",
    "lat": 24.6418509,
    "lon": 46.7220007,
    "address": "Omar Al Moukhtar, Riyadh",
    "types": "supermarket,grocery_or_supermarket,store,point_of_interest,food,establishment",
    "rating": 5,
    "district": "Al Amal Dist."
  },
  {
    "place_id": "ChIJ5RFD6-8FLz4R4da20ev4ppc",
    "name": "شركة عددكم التجارية Edadcom Trading Co",
    "lat": 24.6415977,
    "lon": 46.72208750000001,
    "address": "Omar Ibn Al Khattab Road, Riyadh",
    "types": "supermarket,grocery_or_supermarket,store,point_of_interest,food,establishment",
    "rating": 4.4,
    "district": "Al Amal Dist."
  },
  {
    "place_id": "ChIJqYGXAv4FLz4RNv0CjiM5yVA",
    "name": "مؤسسة الشرق التاسع للتجارة NINE EAST",
    "lat": 24.6438509,
    "lon": 46.7273789,
    "address": "Omar Al Moukhtar, حي ثليم تقاطع, Riyadh",
    "types": "electronics_store,supermarket,grocery_or_supermarket,store,point_of_interest,food,establishment",
    "rating": 4.8,
    "district": "Al Amal Dist."
  },
  {
    "place_id": "ChIJ_ZNYUK0FLz4RKZaEP4MSTwM",
    "name": "Makkah Hypermarket مكه هايبرماركت",
    "lat": 24.644689,
    "lon": 46.7179894,
    "address": "2323 ابن طلحة, Riyadh",
    "types": "supermarket,grocery_or_supermarket,store,point_of_interest,food,establishment",
    "rating": 4.2,
    "district": "Al Amal Dist."
  },
  {
    "place_id": "ChIJf5m0oLEFLz4RkhcS9AEztog",
    "name": "Sun City Supermarket",
    "lat": 24.6402495,
    "lon": 46.72120029999999,
    "address": "Batha Thanit Ibn An Numan, P.B #42343Behind Riyadh Bank ,Batha, Riyadh",
    "types": "supermarket,grocery_or_supermarket,store,point_of_interest,food,establishment",
    "rating": 3.9,
    "district": "Al Amal Dist."
  },
  {
    "place_id": "ChIJN8_nDhgFLz4Rswf9iNjMt1k",
    "name": "QASAR HYPERMARKET",
    "lat": 24.6439613,
    "lon": 46.71792109999999,
    "address": "Al Bathaa, Riyadh",
    "types": "supermarket,grocery_or_supermarket,store,point_of_interest,food,establishment",
    "rating": 4.3,
    "district": "Al Amal Dist."
  },
  {
    "place_id": "ChIJ_c2nYQAFLz4Rnc9jYTEv8us",
    "name": "تموينات ومخابز ركائز الرسام",
    "lat": 24.6472801,
    "lon": 46.7184108,
    "address": "Al Garabbi Street, JPW9+W97, Riyadh",
    "types": "supermarket,grocery_or_supermarket,store,point_of_interest,food,establishment",
    "rating": "",
    "district": "Al Amal Dist."
  },
  {
    "place_id": "ChIJzU-LUq0FLz4R_oWCR9Zm6EE",
    "name": "SAJ HYPER MARKET- Shamokh Al Jazeerah Trading Est.",
    "lat": 24.6451239,
    "lon": 46.7178043,
    "address": "Al Bathaa, Riyadh",
    "types": "supermarket,grocery_or_supermarket,store,point_of_interest,food,establishment",
    "rating": 4.5,
    "district": "Al Amal Dist."
  },
  {
    "place_id": "ChIJIwcz6NgFLz4RQ016IRvCeUs",
    "name": "Elite10 Hypermarket",
    "lat": 24.645665,
    "lon": 46.71785269999999,
    "address": "Elite10 Hypermarket, Filipino Market Batha, الرياض",
    "types": "supermarket,grocery_or_supermarket,store,point_of_interest,food,establishment",
    "rating": 4.2,
    "district": "Al Amal Dist."
  },
  {
    "place_id": "ChIJGwWTpEUFLz4RBwVj1kX-Yhs",
    "name": "تموينات ومخابز ركائز الوسام",
    "lat": 24.64725229999999,
    "lon": 46.7183786,
    "address": "Al Garabbi Street, Riyadh",
    "types": "supermarket,grocery_or_supermarket,store,point_of_interest,food,establishment",
    "rating": 4.7,
    "district": "Al Amal Dist."
  },
  {
    "place_id": "ChIJk4TE1a0FLz4RlzFib77Gq4s",
    "name": "MyOwn",
    "lat": 24.6401702,
    "lon": 46.7166194,
    "address": "Khalf Ibn Saad, Riyadh",
    "types": "shopping_mall,point_of_interest,establishment",
    "rating": 4,
    "district": "Al Amal Dist."
  },
  {
    "place_id": "ChIJwXGRR7AFLz4RliKtHp0d194",
    "name": "Ingenious Riyadh",
    "lat": 24.6339124,
    "lon": 46.7182245,
    "address": "حي, 2493، الإمام عبدالرحمن بن فبصل,6429, RCSB2493, Riyadh",
    "types": "shopping_mall,point_of_interest,establishment",
    "rating": 4.2,
    "district": "Al Amal Dist."
  },
  {
    "place_id": "ChIJGVqsbzEELz4RxhFWexwly5U",
    "name": "shop alshriqi for safety tools",
    "lat": 24.6569563,
    "lon": 46.7350334,
    "address": "محطة وقود ساسكو, Dhahran Street, معرض رقم 1 ، عمارة السلامة ، مقابل, Riyadh",
    "types": "shopping_mall,point_of_interest,establishment",
    "rating": 4.3,
    "district": "Al Amal Dist."
  },
  {
    "place_id": "ChIJ8zmhyOkFLz4RoDPBn-mEVeM",
    "name": "شركة الاعلان المتقدم للدعاية والاعلان (فرع رقم 1 ) ADVANCED AD FOR ADVERTISING",
    "lat": 24.6314026,
    "lon": 46.7350982,
    "address": "مجمع الوسط النجاري, Riyadh",
    "types": "shopping_mall,point_of_interest,establishment",
    "rating": 4.4,
    "district": "Al Amal Dist."
  },
  {
    "place_id": "ChIJk79YgL0FLz4ReJml7gUpTbE",
    "name": "Popular Hilla market",
    "lat": 24.6274795,
    "lon": 46.72115139999999,
    "address": "7821 Al Ras Street, Riyadh",
    "types": "shopping_mall,point_of_interest,establishment",
    "rating": 3.8,
    "district": "Al Amal Dist."
  },
  {
    "place_id": "ChIJLba9vTgELz4RM_8CwMyzZbk",
    "name": "Elegant Centre",
    "lat": 24.6619769,
    "lon": 46.7295842,
    "address": "3429-3467 Al Jamiah Street, Riyadh",
    "types": "shopping_mall,point_of_interest,establishment",
    "rating": 4.2,
    "district": "Al Amal Dist."
  },
  {
    "place_id": "ChIJO2H4zKYFLz4RVNH2CMw2PuE",
    "name": "Bisht Souq",
    "lat": 24.629195,
    "lon": 46.71237730000001,
    "address": "3047, Riyadh",
    "types": "shopping_mall,point_of_interest,establishment",
    "rating": 4.4,
    "district": "Al Amal Dist."
  },
  {
    "place_id": "ChIJTT08bq4FLz4RGSili8pyOIg",
    "name": "Al Batha Commercial Center",
    "lat": 24.639678,
    "lon": 46.71722419999999,
    "address": "Al Bathaa, Riyadh",
    "types": "shopping_mall,point_of_interest,establishment",
    "rating": 4,
    "district": "Al Amal Dist."
  },
  {
    "place_id": "ChIJD6J4OKMFLz4Rq3xKaqBsTN0",
    "name": "Al-Taamir Market For Meat and Vegetables",
    "lat": 24.6298008,
    "lon": 46.71901319999999,
    "address": "طارق بن زياد, JPH9+WJC, Riyadh",
    "types": "shopping_mall,grocery_or_supermarket,food,point_of_interest,store,establishment",
    "rating": 4,
    "district": "Al Amal Dist."
  },
  {
    "place_id": "ChIJTUu8JGUFLz4Rol5nX4n8ufY",
    "name": "معرض شركة العبدالكريم (موادومعدات كهربائية)",
    "lat": 24.64436989999999,
    "lon": 46.72353589999999,
    "address": "شارع Asad Ibn Al Fourat, Riyadh",
    "types": "shopping_mall,point_of_interest,establishment",
    "rating": 3.4,
    "district": "Al Amal Dist."
  },
  {
    "place_id": "ChIJ63ikGAEFLz4RdDX4KiJHmDI",
    "name": "مؤسسة أوتاد المتقدمة للتجارة",
    "lat": 24.6453216,
    "lon": 46.7246537,
    "address": "2963 Ahmad Taymour, Riyadh",
    "types": "shopping_mall,point_of_interest,establishment",
    "rating": "",
    "district": "Al Amal Dist."
  },
  {
    "place_id": "ChIJfWuvzBkFLz4RtIgZ5FjxGks",
    "name": "AKB شركة ابناء عبدالكريم اباحسين",
    "lat": 24.6458101,
    "lon": 46.7227773,
    "address": "7753 Al Adl Al Waez, 2760, Riyadh",
    "types": "shopping_mall,point_of_interest,establishment",
    "rating": 4.8,
    "district": "Al Amal Dist."
  },
  {
    "place_id": "ChIJNVS7kbQFLz4RpIq6ckGXG8U",
    "name": "شركة الذوق المميز لبيع محامص ومطاحن القهوة وعدد الحلويات",
    "lat": 24.6457933,
    "lon": 46.7246667,
    "address": "7751 Al Farazdaq Street, Riyadh",
    "types": "shopping_mall,point_of_interest,establishment",
    "rating": 4.1,
    "district": "Al Amal Dist."
  },
  {
    "place_id": "ChIJa77SWRkFLz4RtCWql_2Q0tQ",
    "name": "توفير المنتجات المخفضه",
    "lat": 24.64722039999999,
    "lon": 46.724454,
    "address": "Al Farazdaq Street, JPWF+VQP, Riyadh",
    "types": "shopping_mall,point_of_interest,establishment",
    "rating": 5,
    "district": "Al Amal Dist."
  },
  {
    "place_id": "ChIJG4waH8sFLz4RG02ZgGQBmB8",
    "name": "مؤسسة العدد",
    "lat": 24.642629,
    "lon": 46.7253464,
    "address": "عمر المختار، العمل،, Riyadh",
    "types": "shopping_mall,point_of_interest,establishment",
    "rating": 3.8,
    "district": "Al Amal Dist."
  },
  {
    "place_id": "ChIJ55MtUAMFLz4RgyLoWc5ZGTY",
    "name": "Al Fares Trading",
    "lat": 24.6426953,
    "lon": 46.7255808,
    "address": "JPVG+36G, Riyadh",
    "types": "shopping_mall,point_of_interest,establishment",
    "rating": 4.5,
    "district": "Al Amal Dist."
  },
  {
    "place_id": "ChIJXyQXxUwELz4Rse-xkMcTP1E",
    "name": "SANAFA CAR ACCESSORIES / (الصنافة) السنافة لزينة السيارات",
    "lat": 24.6475157,
    "lon": 46.72204299999999,
    "address": "2683 Ibn Al Anbari, Riyadh",
    "types": "shopping_mall,point_of_interest,store,establishment",
    "rating": 4.9,
    "district": "Al Amal Dist."
  },
  {
    "place_id": "ChIJkw2AfrYFLz4RL6NpPE5LT1w",
    "name": "مؤسسة سعيد محمد باسليمان للتجارة Saeed Mohammed Basuliman Est",
    "lat": 24.6432025,
    "lon": 46.72620550000001,
    "address": "Omar Al Moukhtar, Riyadh",
    "types": "shopping_mall,point_of_interest,establishment",
    "rating": 4.7,
    "district": "Al Amal Dist."
  },
  {
    "place_id": "ChIJl_v9b-kFLz4RaY1Zgro8guM",
    "name": "عملاق الغرابي لزينة السيارات",
    "lat": 24.6442696,
    "lon": 46.72039969999999,
    "address": "7737 Ibn Salamah, Street الرياض SA",
    "types": "shopping_mall,point_of_interest,establishment",
    "rating": 5,
    "district": "Al Amal Dist."
  },
  {
    "place_id": "ChIJAT4FEAYFLz4RWfcB3CcwvSY",
    "name": "Abdullah Hashim Co.- Honda Power Products Showroom شركة عبدالله هاشم المحدودة - معرض هوندا",
    "lat": 24.6422376,
    "lon": 46.7249173,
    "address": "Ar Rail, JPRF+XX8 عمر المختار،, Riyadh",
    "types": "shopping_mall,point_of_interest,establishment",
    "rating": 3.4,
    "district": "Al Amal Dist."
  },
  {
    "place_id": "ChIJq84YFOEELz4ROWiv-CYRGpI",
    "name": "Herfy",
    "lat": 24.6399265,
    "lon": 46.6931508,
    "address": "8905 الامام عبدالعزيز بن محمد بن سعود الرياض 12741",
    "types": "restaurant,point_of_interest,food,establishment",
    "rating": 3.8,
    "district": "Al Namudhajiyah Dist."
  },
  {
    "place_id": "ChIJe3N3gJoELz4RulbSX4ZD2Uo",
    "name": "Anardana",
    "lat": 24.6669554,
    "lon": 46.6963365,
    "address": "King Fahad Branch Road, Riyadh",
    "types": "restaurant,point_of_interest,food,establishment",
    "rating": 3.9,
    "district": "Al Namudhajiyah Dist."
  },
  {
    "place_id": "ChIJ_2RVaqYELz4RpOvFtnUAONU",
    "name": "Canton",
    "lat": 24.6638237,
    "lon": 46.683067,
    "address": "المعذر ، شارع التخصصي،،",
    "types": "restaurant,point_of_interest,food,establishment",
    "rating": 3.9,
    "district": "Al Namudhajiyah Dist."
  },
  {
    "place_id": "ChIJ9XakVaQELz4RjqT5Y9S3cOQ",
    "name": "Casa Pasta",
    "lat": 24.663725,
    "lon": 46.6827321,
    "address": "التخصصي،, Riyadh",
    "types": "restaurant,point_of_interest,food,establishment",
    "rating": 4.2,
    "district": "Al Namudhajiyah Dist."
  },
  {
    "place_id": "ChIJG8b_VqQELz4RLTNLULVAgo8",
    "name": "Domino's Pizza دومينوز بيتزا",
    "lat": 24.664531,
    "lon": 46.68249999999999,
    "address": "Al Takhassousi, Riyadh",
    "types": "meal_delivery,meal_takeaway,restaurant,point_of_interest,food,establishment",
    "rating": 4,
    "district": "Al Namudhajiyah Dist."
  },
  {
    "place_id": "ChIJQe0MyaUELz4RI4G8m4mTseM",
    "name": "Wow burger",
    "lat": 24.6659377,
    "lon": 46.6819459,
    "address": "3361 6922",
    "types": "restaurant,point_of_interest,food,establishment",
    "rating": 3.3,
    "district": "Al Namudhajiyah Dist."
  },
  {
    "place_id": "ChIJjTjl4asELz4R4DQoiMoQEkE",
    "name": "McDonald's",
    "lat": 24.66497099999999,
    "lon": 46.67766200000001,
    "address": "Al Faisal University (Food Court, Riyadh",
    "types": "restaurant,point_of_interest,food,establishment",
    "rating": 4,
    "district": "Al Namudhajiyah Dist."
  },
  {
    "place_id": "ChIJz2p1z2ADLz4R9h3qeusc0k0",
    "name": "Holiday Inn Meydan",
    "lat": 24.6782811,
    "lon": 46.6915016,
    "address": "at the Crossing With, طريق الملك فهد, Khurais Rd, الرياض",
    "types": "lodging,restaurant,point_of_interest,food,establishment",
    "rating": 4.1,
    "district": "Al Namudhajiyah Dist."
  },
  {
    "place_id": "ChIJS8bfFswELz4RAnDpakUgN-4",
    "name": "Finding Sushi",
    "lat": 24.6430833,
    "lon": 46.67441119999999,
    "address": "Prince Talal Road Prince Talal Ibn Abd Al Aziz, Riyadh",
    "types": "restaurant,point_of_interest,food,establishment",
    "rating": 4.3,
    "district": "Al Namudhajiyah Dist."
  },
  {
    "place_id": "ChIJ7fvoKmEDLz4R5-89l69s1g8",
    "name": "Fraser Suites Riyadh",
    "lat": 24.6792087,
    "lon": 46.6918415,
    "address": "Olaya Street, Riyadh",
    "types": "lodging,restaurant,point_of_interest,food,establishment",
    "rating": 4.3,
    "district": "Al Namudhajiyah Dist."
  },
  {
    "place_id": "ChIJwcEU_EwbLz4RDqx4tBWiyIQ",
    "name": "Maestro Pizza",
    "lat": 24.6542458,
    "lon": 46.6691844,
    "address": "حي, 6478 وادي الليسن, شارع لأميرهشام بن عبد العزيز, الرياض",
    "types": "meal_delivery,meal_takeaway,restaurant,point_of_interest,food,establishment",
    "rating": 4,
    "district": "Al Namudhajiyah Dist."
  },
  {
    "place_id": "ChIJW3nTpmYDLz4RH8HcSdvczHs",
    "name": "Dunkin' - دانكن",
    "lat": 24.680744,
    "lon": 46.69455699999999,
    "address": "Makkah Al Mukarramah Road, Riyadh",
    "types": "cafe,bakery,store,restaurant,point_of_interest,food,establishment",
    "rating": 4.2,
    "district": "Al Namudhajiyah Dist."
  },
  {
    "place_id": "ChIJU-KbDLsELz4RsRZ8BtxpJbg",
    "name": "Golden Tulip Al-Nasiriah hotel",
    "lat": 24.6595734,
    "lon": 46.683504,
    "address": "King Saud Road, MM5M+RCC, Riyadh",
    "types": "cafe,lodging,store,food,point_of_interest,establishment",
    "rating": 3.6,
    "district": "Al Namudhajiyah Dist."
  },
  {
    "place_id": "ChIJO3qTE54ELz4RC2RTz7EMqdw",
    "name": "Blue Rose Garden Hotel Olaya",
    "lat": 24.6739384,
    "lon": 46.6938199,
    "address": "Abdulmalik Ibn Marwan, Riyadh",
    "types": "cafe,lodging,store,food,point_of_interest,establishment",
    "rating": 3.6,
    "district": "Al Namudhajiyah Dist."
  },
  {
    "place_id": "ChIJHzGzvL8ELz4RG0czKYQ5dnw",
    "name": "Dunkin' - دانكن",
    "lat": 24.6551358,
    "lon": 46.68800469999999,
    "address": "Prince Fahd Bin Salman Road, Riyadh",
    "types": "cafe,store,food,point_of_interest,establishment",
    "rating": 4.1,
    "district": "Al Namudhajiyah Dist."
  },
  {
    "place_id": "ChIJmd_Gel0DLz4Rga5tsRHOoDA",
    "name": "Continent Al Waha Hotel",
    "lat": 24.680947,
    "lon": 46.68927799999999,
    "address": "Wadi AlDawasir Street, Riyadh",
    "types": "cafe,lodging,restaurant,food,point_of_interest,establishment",
    "rating": 4.1,
    "district": "Al Namudhajiyah Dist."
  },
  {
    "place_id": "ChIJd0yLcAAFLz4R3Ow4RECgjp0",
    "name": "مقهى أماسي الخليج",
    "lat": 24.65592669999999,
    "lon": 46.70112659999999,
    "address": "5060 حي, RBJA8952، 8952 الملك فهد الفرعي, Riyadh",
    "types": "cafe,store,food,point_of_interest,establishment",
    "rating": 4.3,
    "district": "Al Namudhajiyah Dist."
  },
  {
    "place_id": "ChIJVXdQGAAFLz4Roycs4kiKn5A",
    "name": "No Brand",
    "lat": 24.6583151,
    "lon": 46.7006727,
    "address": "King Fahad Branch Road, MP52+87F, Riyadh",
    "types": "cafe,store,food,point_of_interest,establishment",
    "rating": 5,
    "district": "Al Namudhajiyah Dist."
  },
  {
    "place_id": "ChIJVUQ1kbAFLz4R4HtEguyKRUA",
    "name": "RIYADH COFFEE",
    "lat": 24.6583445,
    "lon": 46.69178180000001,
    "address": "Al Amir Fahad Ibn Salman Ibn Abdulaziz, MM5R+8PM, Riyadh",
    "types": "cafe,store,food,point_of_interest,establishment",
    "rating": 4.6,
    "district": "Al Namudhajiyah Dist."
  },
  {
    "place_id": "ChIJ0UroRgAFLz4R2ezUBqP-QR0",
    "name": "جوارسته كافيه",
    "lat": 24.6605239,
    "lon": 46.6923207,
    "address": "MM6R+6W4, Riyadh",
    "types": "cafe,store,food,point_of_interest,establishment",
    "rating": 5,
    "district": "Al Namudhajiyah Dist."
  },
  {
    "place_id": "ChIJST2OfAAFLz4REFMptgz5wjA",
    "name": "Dunkin' - دانكن",
    "lat": 24.6618125,
    "lon": 46.7001875,
    "address": "Riyadh",
    "types": "cafe,store,food,point_of_interest,establishment",
    "rating": 4,
    "district": "Al Namudhajiyah Dist."
  },
  {
    "place_id": "ChIJP_t2FsAELz4RbGlL6nAf5k8",
    "name": "مقهى مجلس المضياف",
    "lat": 24.6530117,
    "lon": 46.68907939999999,
    "address": "Riyadh",
    "types": "cafe,store,food,point_of_interest,establishment",
    "rating": 3.9,
    "district": "Al Namudhajiyah Dist."
  },
  {
    "place_id": "ChIJfVMzFAAFLz4Rber3buYn-vI",
    "name": "تيلر | teller - النموذجية",
    "lat": 24.6515658,
    "lon": 46.68979270000001,
    "address": "MM2Q+HWR, Riyadh",
    "types": "cafe,store,food,point_of_interest,establishment",
    "rating": 4.1,
    "district": "Al Namudhajiyah Dist."
  },
  {
    "place_id": "ChIJKVSyOgAFLz4RQrSZi3d2n_o",
    "name": "القحطاني للحفلات والمناسبات",
    "lat": 24.6515336,
    "lon": 46.6897864,
    "address": "MM2Q+JW7, Riyadh",
    "types": "cafe,store,food,point_of_interest,establishment",
    "rating": 5,
    "district": "Al Namudhajiyah Dist."
  },
  {
    "place_id": "ChIJiaTTWAAFLz4RAhpSmCYE1u0",
    "name": "villagio mall",
    "lat": 24.6515431,
    "lon": 46.689746,
    "address": "Nasseriyah Street, MM2Q+JWF, Riyadh",
    "types": "cafe,store,food,point_of_interest,establishment",
    "rating": "",
    "district": "Al Namudhajiyah Dist."
  },
  {
    "place_id": "ChIJd4eaP4oELz4ROWOnubKJAlg",
    "name": "Budget Rent A Car | بدجت لتاجير السيارات",
    "lat": 24.6643062,
    "lon": 46.7077153,
    "address": "Riyadh",
    "types": "car_rental,car_dealer,store,point_of_interest,establishment",
    "rating": 3.9,
    "district": "Al Namudhajiyah Dist."
  },
  {
    "place_id": "ChIJK3WvT_cELz4R3S7JNSBws20",
    "name": "Garden Lights - Riyadh Branch",
    "lat": 24.6509189,
    "lon": 46.7048375,
    "address": "Al Washm Street, Riyadh",
    "types": "home_goods_store,store,point_of_interest,establishment",
    "rating": 3.3,
    "district": "Al Namudhajiyah Dist."
  },
  {
    "place_id": "ChIJPxKFb_cELz4RvUbYqACwJzQ",
    "name": "AlHarthi for Cameras",
    "lat": 24.65131700000001,
    "lon": 46.70609770000001,
    "address": "Prince Abdallah Ibn Jalawi Ibn Turki, Riyadh",
    "types": "home_goods_store,electronics_store,store,point_of_interest,establishment",
    "rating": 4.1,
    "district": "Al Namudhajiyah Dist."
  },
  {
    "place_id": "ChIJW_oiNQgFLz4RiFofv6YebKM",
    "name": "AL-Dakheel Oud Company",
    "lat": 24.6654395,
    "lon": 46.6978512,
    "address": "طريق الملك فهد الفرعي, Riyadh",
    "types": "clothing_store,store,point_of_interest,establishment",
    "rating": 4.1,
    "district": "Al Namudhajiyah Dist."
  },
  {
    "place_id": "ChIJ4VpTd_cELz4RQmsBPWrkCKk",
    "name": "Al Rasheed Pastries & Sweets",
    "lat": 24.651391,
    "lon": 46.7063977,
    "address": "Al Washm Street, MP24+HH2, Riyadh",
    "types": "store,food,point_of_interest,establishment",
    "rating": 4,
    "district": "Al Namudhajiyah Dist."
  },
  {
    "place_id": "ChIJI_gUG4oELz4RfYyKFUVwiqM",
    "name": "Hasoub Company",
    "lat": 24.6655856,
    "lon": 46.6998688,
    "address": "6075 الامير عبدالعزيز بن مساعد بن جلوي, 2904, Riyadh",
    "types": "electronics_store,store,point_of_interest,establishment",
    "rating": 3.8,
    "district": "Al Namudhajiyah Dist."
  },
  {
    "place_id": "ChIJ9a8Go44ELz4RffAwLRPIQ-E",
    "name": "Malabar Gold and Diamonds - Avenue Mall - Riyadh",
    "lat": 24.664412,
    "lon": 46.703309,
    "address": "Lulu Hyper Market, Riyadh Avenue Mall, Murabbah, Riyadh",
    "types": "jewelry_store,store,point_of_interest,establishment",
    "rating": 4.9,
    "district": "Al Namudhajiyah Dist."
  },
  {
    "place_id": "ChIJue8ZVfUELz4Rx37nGnXCXEE",
    "name": "Kawader For Commercial Kitchen & Café Equipment",
    "lat": 24.6613754,
    "lon": 46.7091691,
    "address": "حي, 7206 Prince Abdulaziz Ibn Musaid Ibn Jalawi Street, Riyadh",
    "types": "furniture_store,home_goods_store,store,point_of_interest,establishment",
    "rating": 4.5,
    "district": "Al Namudhajiyah Dist."
  },
  {
    "place_id": "ChIJRwCw9ogELz4RIXfeqomy6Xg",
    "name": "شركة المصادر الخامسه للمستلزمات الطبيه MSCO5",
    "lat": 24.6674475,
    "lon": 46.70310860000001,
    "address": "Prince Abdulaziz Ibn Musaid Ibn Jalawi Street, MP83+X6H, Riyadh",
    "types": "store,health,point_of_interest,establishment",
    "rating": 2.1,
    "district": "Al Namudhajiyah Dist."
  },
  {
    "place_id": "ChIJb-AKtqMELz4RUCKuzIUA7Zk",
    "name": "Noufasera",
    "lat": 24.6661491,
    "lon": 46.6875655,
    "address": "Umm Salmah Al Ansari Street, MM8Q+F24, Riyadh",
    "types": "furniture_store,home_goods_store,store,point_of_interest,establishment",
    "rating": 3.7,
    "district": "Al Namudhajiyah Dist."
  },
  {
    "place_id": "ChIJ4R_yyKMELz4RylFR9zjkFLM",
    "name": "Sid Boutiques Riyadh",
    "lat": 24.6666378,
    "lon": 46.68778409999999,
    "address": "Umm Salmah Al Ansari Street, MM8Q+M43, Riyadh",
    "types": "clothing_store,store,point_of_interest,establishment",
    "rating": 4.1,
    "district": "Al Namudhajiyah Dist."
  },
  {
    "place_id": "ChIJG03ZS6IELz4RdkyOMdOg34w",
    "name": "لو 66 LE 66",
    "lat": 24.6667764,
    "lon": 46.68748459999999,
    "address": "7116 شارع جابر بن عبدالله، المؤتمرات الرياض 12712 3859 Jabir Ibn Abdullah Street, Riyadh",
    "types": "clothing_store,store,point_of_interest,establishment",
    "rating": 3.7,
    "district": "Al Namudhajiyah Dist."
  },
  {
    "place_id": "ChIJo_AtmokELz4RTdEkMu6RYJw",
    "name": "Manar Hayatak Medical Company",
    "lat": 24.6661338,
    "lon": 46.7069383,
    "address": "Prince Abdulaziz Ibn Musaid Ibn Jalawi Street, MP84+FQ4, Riyadh",
    "types": "store,health,point_of_interest,establishment",
    "rating": "",
    "district": "Al Namudhajiyah Dist."
  },
  {
    "place_id": "ChIJRe5JuuEELz4RWqSHRkn6Fzg",
    "name": "Panda Super 26 | بنده سوبر",
    "lat": 24.6395041,
    "lon": 46.6932205,
    "address": "Near TV station, Olysha, Riyadh",
    "types": "supermarket,grocery_or_supermarket,store,point_of_interest,food,establishment",
    "rating": 3.9,
    "district": "Al Namudhajiyah Dist."
  },
  {
    "place_id": "ChIJx-wIEIMDLz4RvKZZVl5NY6U",
    "name": "Meed - ميد",
    "lat": 24.6760625,
    "lon": 46.71543750000001,
    "address": "Prince Mansour Bin Abdulaziz Street, MPG8+C5, Riyadh",
    "types": "convenience_store,supermarket,grocery_or_supermarket,store,point_of_interest,food,establishment",
    "rating": 3.4,
    "district": "Al Namudhajiyah Dist."
  },
  {
    "place_id": "ChIJSzO2ORsFLz4R2biEcgwXHSI",
    "name": "تاج فايف ماركت",
    "lat": 24.6546889,
    "lon": 46.6882774,
    "address": "حي, 8131 شارع الأمير سعود بن فيصل بن عبدالعزيز، النموذجية، الرياض 12734 3943،",
    "types": "supermarket,grocery_or_supermarket,store,point_of_interest,food,establishment",
    "rating": 4.4,
    "district": "Al Namudhajiyah Dist."
  },
  {
    "place_id": "ChIJt-VWQZUFLz4R7aNl7mmQg_w",
    "name": "اسواق خيرات الحزم للمواد الغذائيه",
    "lat": 24.6569102,
    "lon": 46.6865026,
    "address": "Riyadh",
    "types": "supermarket,grocery_or_supermarket,store,point_of_interest,food,establishment",
    "rating": 3.8,
    "district": "Al Namudhajiyah Dist."
  },
  {
    "place_id": "ChIJ-5HmfwAFLz4RCbjAFnU5N-o",
    "name": "تموينات كيفان",
    "lat": 24.6563051,
    "lon": 46.6862929,
    "address": "Al Washm Street, Riyadh",
    "types": "supermarket,grocery_or_supermarket,store,point_of_interest,food,establishment",
    "rating": 3.7,
    "district": "Al Namudhajiyah Dist."
  },
  {
    "place_id": "ChIJfxBoD4cFLz4RJFypsWDRxVA",
    "name": "LuLu Hypermarket - Riyadh Avenue Mall - Murabba",
    "lat": 24.6637609,
    "lon": 46.70368729999999,
    "address": "طريق الملك عبدالعزيز, Riyadh Avenue Mall, Level 1, Prince Faisal Bin Turki Bin, الرياض",
    "types": "supermarket,grocery_or_supermarket,clothing_store,furniture_store,home_goods_store,store,point_of_interest,food,establishment",
    "rating": 4.3,
    "district": "Al Namudhajiyah Dist."
  },
  {
    "place_id": "ChIJx5Zlz_kELz4R5XKBJDiOM5s",
    "name": "اسواق العثيم (سيتي) | Othaim Markets (city)‏",
    "lat": 24.650008,
    "lon": 46.706274,
    "address": "متفرع من, شارع الوشم, شارع الأمير عبدالله بن جلوي, الرياض",
    "types": "supermarket,grocery_or_supermarket,store,point_of_interest,food,establishment",
    "rating": 4,
    "district": "Al Namudhajiyah Dist."
  },
  {
    "place_id": "ChIJC7H4OP0FLz4RaTLNn6Ge-vc",
    "name": "دوامي",
    "lat": 24.6639154,
    "lon": 46.7040692,
    "address": "7511 أم رومان، حي الضباط، الرياض 12625 3977،",
    "types": "supermarket,grocery_or_supermarket,store,point_of_interest,food,establishment",
    "rating": 4.6,
    "district": "Al Namudhajiyah Dist."
  },
  {
    "place_id": "ChIJnU0bVacFLz4RjTQcYuU0OHQ",
    "name": "تموينات السهام الذهبي",
    "lat": 24.646302,
    "lon": 46.7025114,
    "address": "7412 Muafa Al Sedeed, RBGA5282، 5282, Riyadh",
    "types": "supermarket,grocery_or_supermarket,store,point_of_interest,food,establishment",
    "rating": "",
    "district": "Al Namudhajiyah Dist."
  },
  {
    "place_id": "ChIJR-GTAAAFLz4Rj3SlujaC-io",
    "name": "Meed - ميد",
    "lat": 24.6666875,
    "lon": 46.6988125,
    "address": "King Fahd Road, MM8X+MG3, Riyadh",
    "types": "convenience_store,supermarket,grocery_or_supermarket,store,point_of_interest,food,establishment",
    "rating": 3.8,
    "district": "Al Namudhajiyah Dist."
  },
  {
    "place_id": "ChIJXxPHxIsELz4R4NtFSsggheY",
    "name": "Al Annas Supermarket",
    "lat": 24.6640753,
    "lon": 46.7060854,
    "address": "Prince Faisal Bin Turki Bin Abdulaziz Street, MP74+JCP, Riyadh",
    "types": "supermarket,grocery_or_supermarket,store,point_of_interest,food,establishment",
    "rating": 2.5,
    "district": "Al Namudhajiyah Dist."
  },
  {
    "place_id": "ChIJ8ee1WOYELz4RakmzoPRqeXg",
    "name": "Rawad Supermarket",
    "lat": 24.6436794,
    "lon": 46.6933563,
    "address": "7117 الإمام عبد العزيز بن محمد بن سعود،, Riyadh",
    "types": "supermarket,grocery_or_supermarket,store,point_of_interest,food,establishment",
    "rating": 4.4,
    "district": "Al Namudhajiyah Dist."
  },
  {
    "place_id": "ChIJT8tfY-wFLz4R2LSUrOSKPx0",
    "name": "مركت",
    "lat": 24.6531814,
    "lon": 46.7099695,
    "address": "RCRA6327، 4168, MP35+7XH, Riyadh",
    "types": "supermarket,grocery_or_supermarket,store,point_of_interest,food,establishment",
    "rating": "",
    "district": "Al Namudhajiyah Dist."
  },
  {
    "place_id": "ChIJ2xdNBwAFLz4RatMefTWJ3ac",
    "name": "اطياف البياض",
    "lat": 24.6420585,
    "lon": 46.6940976,
    "address": "JMRV+RJH, Riyadh",
    "types": "supermarket,grocery_or_supermarket,store,point_of_interest,food,establishment",
    "rating": 5,
    "district": "Al Namudhajiyah Dist."
  },
  {
    "place_id": "ChIJiZG7qNUFLz4RXxh4NGdLbpY",
    "name": "تموينات طارق احمد طويل التجارية",
    "lat": 24.6457224,
    "lon": 46.7073645,
    "address": "Al Amir Abdullah Ibn Jalawi Ibn Turki, JPW4+7WC, Riyadh",
    "types": "supermarket,grocery_or_supermarket,store,point_of_interest,food,establishment",
    "rating": 4.7,
    "district": "Al Namudhajiyah Dist."
  },
  {
    "place_id": "ChIJE4RWIgAFLz4RaxlbUjqglTk",
    "name": "تموينات عليشة",
    "lat": 24.6413045,
    "lon": 46.69308789999999,
    "address": "3832 حي, RBGA9153، 9153 الإمام عبدالعزيز بن محمد بن سعود الفرعي, Riyadh",
    "types": "supermarket,grocery_or_supermarket,store,point_of_interest,food,establishment",
    "rating": 3.7,
    "district": "Al Namudhajiyah Dist."
  },
  {
    "place_id": "ChIJUbc7pIkELz4RQL5IYjPOjcM",
    "name": "Mawred Trading Company",
    "lat": 24.6668978,
    "lon": 46.7071135,
    "address": "MP84+QR5, Riyadh",
    "types": "supermarket,grocery_or_supermarket,store,point_of_interest,food,establishment",
    "rating": 5,
    "district": "Al Namudhajiyah Dist."
  },
  {
    "place_id": "ChIJjZjlsaUELz4RLIAcpxgzOJA",
    "name": "Panda Hyper 10026 | بنده هايبر",
    "lat": 24.6647236,
    "lon": 46.6823775,
    "address": "Al Takhassousi, Riyadh",
    "types": "supermarket,grocery_or_supermarket,store,point_of_interest,food,establishment",
    "rating": 4.2,
    "district": "Al Namudhajiyah Dist."
  },
  {
    "place_id": "ChIJl46XcgUFLz4RM5uDTJTG6qw",
    "name": "اسواق ربيع الخزان المركزية",
    "lat": 24.6415422,
    "lon": 46.7048194,
    "address": "Riyadh",
    "types": "supermarket,grocery_or_supermarket,store,point_of_interest,food,establishment",
    "rating": 4.7,
    "district": "Al Namudhajiyah Dist."
  },
  {
    "place_id": "ChIJ0zouP6YELz4RmtC9QAAJ2iw",
    "name": "AlMaather Square",
    "lat": 24.6644158,
    "lon": 46.68267039999999,
    "address": "Al Takhassousi, MM7M+Q37, Riyadh",
    "types": "shopping_mall,point_of_interest,establishment",
    "rating": 4.3,
    "district": "Al Namudhajiyah Dist."
  },
  {
    "place_id": "ChIJRbF0YsEFLz4RqQGAmDvYN8c",
    "name": "مؤسسة مورا للاتصالات",
    "lat": 24.65681530000001,
    "lon": 46.7012206,
    "address": "حي, King Fahd Road, Riyadh",
    "types": "shopping_mall,point_of_interest,establishment",
    "rating": 3,
    "district": "Al Namudhajiyah Dist."
  },
  {
    "place_id": "ChIJjfaYvyAFLz4RmOBbVVB5W78",
    "name": "مدن الإنجاز للخدمات العامة",
    "lat": 24.6567548,
    "lon": 46.6865923,
    "address": "8544، الناصرية، الرياض 12732 3660،",
    "types": "shopping_mall,point_of_interest,establishment",
    "rating": 1.7,
    "district": "Al Namudhajiyah Dist."
  },
  {
    "place_id": "ChIJFxAoA4wELz4REW_NxX7sBHw",
    "name": "Riyadh Avenue Mall",
    "lat": 24.6629868,
    "lon": 46.7035022,
    "address": "Prince Faisal Bin Turki Bin Abdulaziz Street, Riyadh",
    "types": "shopping_mall,department_store,store,point_of_interest,establishment",
    "rating": 4.3,
    "district": "Al Namudhajiyah Dist."
  },
  {
    "place_id": "ChIJj_YlXkQFLz4RGIjNqATrjfA",
    "name": "Lulu head office",
    "lat": 24.663183,
    "lon": 46.7032651,
    "address": "MP73+78, Riyadh",
    "types": "shopping_mall,point_of_interest,establishment",
    "rating": 4.1,
    "district": "Al Namudhajiyah Dist."
  },
  {
    "place_id": "ChIJCQsio7AFLz4RATVRTOZZCBA",
    "name": "مكتبة حكاية أيام",
    "lat": 24.6501537,
    "lon": 46.7061428,
    "address": "MP24+3F6, Unnamed Road, Riyadh",
    "types": "shopping_mall,point_of_interest,establishment",
    "rating": 2.9,
    "district": "Al Namudhajiyah Dist."
  },
  {
    "place_id": "ChIJx-430YgFLz4ReVu7HbYeKis",
    "name": "سوق المربع سكوير",
    "lat": 24.650729,
    "lon": 46.7065229,
    "address": "9091 2418 الامير عبدالله بن جلوي بن تركي الرياض 12631",
    "types": "shopping_mall,point_of_interest,establishment",
    "rating": 3.8,
    "district": "Al Namudhajiyah Dist."
  },
  {
    "place_id": "ChIJTyKa4vUFLz4RBezjV5NBxIM",
    "name": "الحلم السامي للعطور",
    "lat": 24.66380389999999,
    "lon": 46.70382960000001,
    "address": "7501 طريق الملك فيصل، المربع، الرياض 12612 3520،",
    "types": "shopping_mall,point_of_interest,establishment",
    "rating": 4,
    "district": "Al Namudhajiyah Dist."
  },
  {
    "place_id": "ChIJ2eByeCsFLz4R3A7DSM4NEB0",
    "name": "شركة اناء الجزيرة التجارية",
    "lat": 24.6517368,
    "lon": 46.707629,
    "address": "2727 Al Washm Street, Riyadh",
    "types": "shopping_mall,point_of_interest,establishment",
    "rating": 4.5,
    "district": "Al Namudhajiyah Dist."
  },
  {
    "place_id": "ChIJeVu-A4IFLz4RM8bXUzE0SLU",
    "name": "ORO SQUARE By Alsaedan",
    "lat": 24.6668994,
    "lon": 46.6951133,
    "address": "MM8W+Q25, Riyadh",
    "types": "shopping_mall,point_of_interest,establishment",
    "rating": 4.6,
    "district": "Al Namudhajiyah Dist."
  },
  {
    "place_id": "ChIJf63zCR8FLz4RqAa-TO-j0RA",
    "name": "شركة الثنيان الدولية",
    "lat": 24.6662325,
    "lon": 46.7020243,
    "address": "King Faisal Road, Riyadh",
    "types": "shopping_mall,point_of_interest,establishment",
    "rating": 5,
    "district": "Al Namudhajiyah Dist."
  },
  {
    "place_id": "ChIJNfwQdlgELz4RHkaWoIsrLDY",
    "name": "مؤسسة دقة التحكم الطبية",
    "lat": 24.6532981,
    "lon": 46.7092233,
    "address": "MP35+8M9, Riyadh",
    "types": "shopping_mall,point_of_interest,establishment",
    "rating": 4.7,
    "district": "Al Namudhajiyah Dist."
  },
  {
    "place_id": "ChIJVb72ed8FLz4Rw5QkZQCTvrA",
    "name": "E-commerce",
    "lat": 24.654317,
    "lon": 46.7107299,
    "address": "Riyadh",
    "types": "shopping_mall,point_of_interest,establishment",
    "rating": "",
    "district": "Al Namudhajiyah Dist."
  },
  {
    "place_id": "ChIJAckKTKIELz4RMKqsOUeYoEg",
    "name": "Nojoud Mall",
    "lat": 24.6667819,
    "lon": 46.6874759,
    "address": "شارع جابر بن عبدالله،, Riyadh",
    "types": "shopping_mall,point_of_interest,establishment",
    "rating": 3.6,
    "district": "Al Namudhajiyah Dist."
  },
  {
    "place_id": "ChIJ9ccdy6MELz4R6sV9zp4MOCA",
    "name": "FashFlare",
    "lat": 24.6667365,
    "lon": 46.6873375,
    "address": "Jabir Ibn Abdullah, MM8P+MWW, Riyadh",
    "types": "shopping_mall,point_of_interest,establishment",
    "rating": 5,
    "district": "Al Namudhajiyah Dist."
  },
  {
    "place_id": "ChIJwcSW8aUFLz4RChbtYn2BZYQ",
    "name": "Oro_lamy",
    "lat": 24.6663968,
    "lon": 46.6867796,
    "address": "MM8P+HP2, Riyadh",
    "types": "shopping_mall,point_of_interest,establishment",
    "rating": 4.6,
    "district": "Al Namudhajiyah Dist."
  },
  {
    "place_id": "ChIJyd-Fd30DLz4RBSjW1sPDcxY",
    "name": "Marketing Yarmouk factory Modern Center",
    "lat": 24.6662271,
    "lon": 46.70709219999999,
    "address": "مقابل الغرفة التجارية الرئيسية, Prince Abdulaziz Ibn Musaid Ibn Jalawi Street, الأمير, Riyadh",
    "types": "shopping_mall,point_of_interest,establishment",
    "rating": 4.2,
    "district": "Al Namudhajiyah Dist."
  },
  {
    "place_id": "ChIJkYiEC8oFLz4R9wzSExDO5Ec",
    "name": "مجمع الرصيص",
    "lat": 24.6675246,
    "lon": 46.70725059999999,
    "address": "6327 Prince Abdulaziz Ibn Musaid Ibn Jalawi Street, Riyadh",
    "types": "shopping_mall,point_of_interest,establishment",
    "rating": 4.2,
    "district": "Al Namudhajiyah Dist."
  },
  {
    "place_id": "ChIJKx1fxPMFLz4RgaWBmm_y-xw",
    "name": "السوق الطبي",
    "lat": 24.6688024,
    "lon": 46.70642600000001,
    "address": "Al Bariz, MP94+GMR, Riyadh",
    "types": "shopping_mall,hospital,point_of_interest,health,establishment",
    "rating": "",
    "district": "Al Namudhajiyah Dist."
  },
  {
    "place_id": "ChIJnZ5ZSz0FLz4RihrvYGp1PxY",
    "name": "KFC",
    "lat": 24.62540690000001,
    "lon": 46.6889225,
    "address": "Shemesi St, Riyadh",
    "types": "restaurant,point_of_interest,food,establishment",
    "rating": 3.9,
    "district": "Al Jarradiyah Dist."
  },
  {
    "place_id": "ChIJGx6NqmoFLz4R56rfj473Wfg",
    "name": "مطعم مشويات المزيد",
    "lat": 24.616196,
    "lon": 46.68937679999999,
    "address": "Al Madina Al Munawwarah Road, Riyadh",
    "types": "restaurant,point_of_interest,food,establishment",
    "rating": 4.1,
    "district": "Al Jarradiyah Dist."
  },
  {
    "place_id": "ChIJN3jihUcFLz4Rw8bNf1QI5pk",
    "name": "Herfy",
    "lat": 24.6131416,
    "lon": 46.6820341,
    "address": "JM7J+7R3, Riyadh",
    "types": "restaurant,point_of_interest,food,establishment",
    "rating": 3.8,
    "district": "Al Jarradiyah Dist."
  },
  {
    "place_id": "ChIJ0aWxvhgFLz4R4NeNpyQzorQ",
    "name": "Lapaz Batchoy Shumaisi",
    "lat": 24.6299614,
    "lon": 46.6913507,
    "address": "Al Imam Turki Ibn Abd Allah Ibn Muhammad, Riyadh",
    "types": "restaurant,point_of_interest,food,establishment",
    "rating": 4.3,
    "district": "Al Jarradiyah Dist."
  },
  {
    "place_id": "ChIJ6daS834FLz4R5OPK9YRlPAQ",
    "name": "Al Tazaj",
    "lat": 24.6057825,
    "lon": 46.7061672,
    "address": "طريق الملك فهد الفرعي عتيقة،, Riyadh",
    "types": "restaurant,point_of_interest,food,establishment",
    "rating": 3.9,
    "district": "Al Jarradiyah Dist."
  },
  {
    "place_id": "ChIJl0XiI4IFLz4RfjeKJCKSC6Y",
    "name": "KFC",
    "lat": 24.6096844,
    "lon": 46.71070839999999,
    "address": "Manfouhah, الرياض",
    "types": "restaurant,point_of_interest,food,establishment",
    "rating": 3.9,
    "district": "Al Jarradiyah Dist."
  },
  {
    "place_id": "ChIJ223iDn4FLz4RixmJTjgG6L0",
    "name": "Domino's Pizza دومينوز بيتزا",
    "lat": 24.603647,
    "lon": 46.704694,
    "address": "3469 Al Aam St, Riyadh",
    "types": "meal_delivery,meal_takeaway,restaurant,point_of_interest,food,establishment",
    "rating": 4.1,
    "district": "Al Jarradiyah Dist."
  },
  {
    "place_id": "ChIJC2VrFX4FLz4RdpXEjmGndfY",
    "name": "Maestro Pizza",
    "lat": 24.60386579999999,
    "lon": 46.7056246,
    "address": "السويدي، 3543 شارع السويدي العام،،, الرياض",
    "types": "meal_delivery,meal_takeaway,restaurant,point_of_interest,food,establishment",
    "rating": 4,
    "district": "Al Jarradiyah Dist."
  },
  {
    "place_id": "ChIJvSR3omIFLz4RzCu5Zyoj5lE",
    "name": "McDonald's",
    "lat": 24.601027,
    "lon": 46.69856499999999,
    "address": "Qaser Mall, Riyadh",
    "types": "restaurant,point_of_interest,food,establishment",
    "rating": 3.8,
    "district": "Al Jarradiyah Dist."
  },
  {
    "place_id": "ChIJlcGpyWEFLz4RWNf8RW8AAQs",
    "name": "Bahrya",
    "lat": 24.5993098,
    "lon": 46.69268950000001,
    "address": "Al Souweidi Al Aam, Riyadh",
    "types": "restaurant,point_of_interest,food,establishment",
    "rating": 3.9,
    "district": "Al Jarradiyah Dist."
  },
  {
    "place_id": "ChIJXRidP34FLz4RnG3cNGpCmtg",
    "name": "Subway",
    "lat": 24.59907999999999,
    "lon": 46.698334,
    "address": "8043 Main Street, Block #3543 Al-Suwaidi, الرياض",
    "types": "restaurant,point_of_interest,food,establishment",
    "rating": 3.7,
    "district": "Al Jarradiyah Dist."
  },
  {
    "place_id": "ChIJ18V_kdYELz4RSdlmUfIp9xs",
    "name": "Domino's Pizza دومينوز بيتزا",
    "lat": 24.634129,
    "lon": 46.67618299999999,
    "address": "2115 Amr Ibn Al Aas St, Riyadh",
    "types": "meal_delivery,meal_takeaway,restaurant,point_of_interest,food,establishment",
    "rating": 4,
    "district": "Al Jarradiyah Dist."
  },
  {
    "place_id": "ChIJyX4wTlgFLz4R3iObwDBk8DE",
    "name": "KFC",
    "lat": 24.5962469,
    "lon": 46.6817783,
    "address": "Al Souweidi Al Aam, Riyadh",
    "types": "restaurant,point_of_interest,food,establishment",
    "rating": 3.9,
    "district": "Al Jarradiyah Dist."
  },
  {
    "place_id": "ChIJVxsGM1gFLz4RUsM2RFi-3X0",
    "name": "McDonald's",
    "lat": 24.595997,
    "lon": 46.681119,
    "address": "Al Souweidi, Riyadh",
    "types": "restaurant,point_of_interest,food,establishment",
    "rating": 3.8,
    "district": "Al Jarradiyah Dist."
  },
  {
    "place_id": "ChIJ5z4tTgAFLz4Rb0AaDFwqxnU",
    "name": "Al-Jarradiyah",
    "lat": 24.617923,
    "lon": 46.69658809999999,
    "address": "JMHV+R3J, Riyadh",
    "types": "restaurant,point_of_interest,food,establishment",
    "rating": "",
    "district": "Al Jarradiyah Dist."
  },
  {
    "place_id": "ChIJI52FljQFLz4RlAV1t3CBfY8",
    "name": "مطعم نصيل التاج ( اتراك )",
    "lat": 24.6177236,
    "lon": 46.6962444,
    "address": "RBGB4643، 4643 طريق المدينة المنورة، 8135، حي الجرادية، الرياض 12771،",
    "types": "restaurant,point_of_interest,food,establishment",
    "rating": 4.1,
    "district": "Al Jarradiyah Dist."
  },
  {
    "place_id": "ChIJv04oBgAFLz4RBiaX2drvga8",
    "name": "Sultan Restaurant",
    "lat": 24.617891,
    "lon": 46.6951779,
    "address": "Al Madina Al Munawwarah Road, JM9W+533, Riyadh",
    "types": "restaurant,point_of_interest,food,establishment",
    "rating": 4.7,
    "district": "Al Jarradiyah Dist."
  },
  {
    "place_id": "ChIJXR7RCwAFLz4Rv04o-PMLth4",
    "name": "Restaurant",
    "lat": 24.6178856,
    "lon": 46.69517929999999,
    "address": "Al Madina Al Munawwarah Road, Riyadh",
    "types": "restaurant,point_of_interest,food,establishment",
    "rating": 4.6,
    "district": "Al Jarradiyah Dist."
  },
  {
    "place_id": "ChIJ81c2aTsFLz4R3-jHpHcBlSs",
    "name": "Restaurant Awais Khalid",
    "lat": 24.6178734,
    "lon": 46.69518189999999,
    "address": "Al Madina Al Munawwarah Road, Riyadh",
    "types": "restaurant,point_of_interest,food,establishment",
    "rating": 5,
    "district": "Al Jarradiyah Dist."
  },
  {
    "place_id": "ChIJGZ0zsyIFLz4R_9aoHcdbrpc",
    "name": "Krispy Kreme",
    "lat": 24.6254375,
    "lon": 46.68893749999999,
    "address": "F, Samahat Al Shaikh Abdulaziz, Samahat Ash Shaikh Abdulaziz Ibn Baz St, Front of Shemicy Hospital, Riyadh",
    "types": "cafe,bakery,store,point_of_interest,food,establishment",
    "rating": 4,
    "district": "Al Jarradiyah Dist."
  },
  {
    "place_id": "ChIJe-yxfWIFLz4RHsUvwKRvXGg",
    "name": "Starbucks",
    "lat": 24.600466,
    "lon": 46.697815,
    "address": "Al Qasr Mall, Riyadh",
    "types": "cafe,store,point_of_interest,food,establishment",
    "rating": 4.1,
    "district": "Al Jarradiyah Dist."
  },
  {
    "place_id": "ChIJsf0Bb2IFLz4RR5rdFeR8f_U",
    "name": "ماما بنز كافيه | MammaBunz Cafe‏",
    "lat": 24.6002656,
    "lon": 46.6963474,
    "address": "Al-Qasr Mall, Riyadh",
    "types": "cafe,point_of_interest,food,establishment",
    "rating": 4.4,
    "district": "Al Jarradiyah Dist."
  },
  {
    "place_id": "ChIJ1SZUF9YELz4REOQ9BVOR6z4",
    "name": "Ko Coffee",
    "lat": 24.6310861,
    "lon": 46.6763501,
    "address": "الامير سطام بن عبدالعزيز، حي عليشة, JMJG+CGQ, Riyadh",
    "types": "cafe,store,point_of_interest,food,establishment",
    "rating": 4.1,
    "district": "Al Jarradiyah Dist."
  },
  {
    "place_id": "ChIJw4alJwAFLz4Ry5gtCpQgrAY",
    "name": "كافيه آصل الحلا 24 Origin of Sweetness Cafe",
    "lat": 24.6181137,
    "lon": 46.6976288,
    "address": "Riyadh",
    "types": "cafe,store,point_of_interest,food,establishment",
    "rating": 4.3,
    "district": "Al Jarradiyah Dist."
  },
  {
    "place_id": "ChIJHY2nfAAFLz4Rr47EWtJG1Js",
    "name": "عصاير السفياني",
    "lat": 24.61913789999999,
    "lon": 46.692442,
    "address": "JM9R+MX4, Riyadh",
    "types": "cafe,store,point_of_interest,food,establishment",
    "rating": 4.3,
    "district": "Al Jarradiyah Dist."
  },
  {
    "place_id": "ChIJB24-egAFLz4RiDobwE5cesQ",
    "name": "مقهي شرق القاش",
    "lat": 24.6173042,
    "lon": 46.69237869999999,
    "address": "RBBA3778، 3778 المدينه المنوره، 6509، حي البديعة, Riyadh 12747, الرياض",
    "types": "cafe,store,point_of_interest,food,establishment",
    "rating": 5,
    "district": "Al Jarradiyah Dist."
  },
  {
    "place_id": "ChIJ4YJDVgAFLz4Ryhs9mwOb26o",
    "name": "جنبة الحبش",
    "lat": 24.6168854,
    "lon": 46.692099,
    "address": "Abdul Aziz Al Qahimi, JM8R+QR5, Riyadh",
    "types": "cafe,store,point_of_interest,food,establishment",
    "rating": 3.5,
    "district": "Al Jarradiyah Dist."
  },
  {
    "place_id": "ChIJlUxL_JMFLz4RyMD8GlRs2Ws",
    "name": "عصيرات مذهلة",
    "lat": 24.6153148,
    "lon": 46.7006921,
    "address": "JP82+47G, Riyadh",
    "types": "cafe,store,point_of_interest,food,establishment",
    "rating": 4.3,
    "district": "Al Jarradiyah Dist."
  },
  {
    "place_id": "ChIJnTxzy0cFLz4RUR7XyPOMIaI",
    "name": "Assa Cafe",
    "lat": 24.6150961,
    "lon": 46.6877225,
    "address": "Al Madina Al Munawwarah Road, Riyadh",
    "types": "cafe,store,point_of_interest,food,establishment",
    "rating": 4.6,
    "district": "Al Jarradiyah Dist."
  },
  {
    "place_id": "ChIJEznmJpEFLz4R4CwmnFNCzks",
    "name": "MOHAMED MURTADA MUDAWI ALI",
    "lat": 24.6125869,
    "lon": 46.7024893,
    "address": "JP72+2XQ, Riyadh",
    "types": "cafe,store,point_of_interest,food,establishment",
    "rating": "",
    "district": "Al Jarradiyah Dist."
  },
  {
    "place_id": "ChIJa_0LNAAFLz4RhlXs41a7d-c",
    "name": "الخلطة الخاصة للعصائر و المشروبات",
    "lat": 24.6150493,
    "lon": 46.68752799999999,
    "address": "RBBA3755، 3755 ابن السني، 7236, Riyadh",
    "types": "cafe,store,point_of_interest,food,establishment",
    "rating": 5,
    "district": "Al Jarradiyah Dist."
  },
  {
    "place_id": "ChIJ98RKRwAFLz4ROcGhLVhuGeo",
    "name": "Sari",
    "lat": 24.6211185,
    "lon": 46.70551210000001,
    "address": "King Fahd Road, JPC4+C7R, Riyadh",
    "types": "cafe,store,point_of_interest,food,establishment",
    "rating": 3.8,
    "district": "Al Jarradiyah Dist."
  },
  {
    "place_id": "ChIJSSx4aMIFLz4RkjpZD8jBhA0",
    "name": "Mezaj Najdi Cafe مزاج نجدي",
    "lat": 24.6243769,
    "lon": 46.68718440000001,
    "address": "Riyadh",
    "types": "cafe,point_of_interest,food,establishment",
    "rating": 4.5,
    "district": "Al Jarradiyah Dist."
  },
  {
    "place_id": "ChIJByjbAgAFLz4RDzcNzUW2R9E",
    "name": "كشك(جافا تايم) داخل برج النساءوالولادة",
    "lat": 24.6274486,
    "lon": 46.69034219999999,
    "address": "3551 Al Imam Abd Al Aziz Ibn Muhammad Ibn Saoud, 7614, Riyadh",
    "types": "cafe,store,point_of_interest,food,establishment",
    "rating": 3.7,
    "district": "Al Jarradiyah Dist."
  },
  {
    "place_id": "ChIJgRwtukkFLz4RR04pbiuHvyM",
    "name": "dr.CAFE COFFEE | د.كيف كافيه",
    "lat": 24.6270614,
    "lon": 46.6896369,
    "address": "Pediatric Clinic, Riyadh",
    "types": "cafe,store,point_of_interest,food,establishment",
    "rating": 4.5,
    "district": "Al Jarradiyah Dist."
  },
  {
    "place_id": "ChIJ78N1WhkFLz4RdnLGbgc3XsE",
    "name": "CEFETARIA",
    "lat": 24.6286476,
    "lon": 46.6924578,
    "address": "3725 Al Imam Abd Al Aziz Ibn Muhammad Ibn Saoud, 7774, Riyadh",
    "types": "cafe,store,point_of_interest,food,establishment",
    "rating": "",
    "district": "Al Jarradiyah Dist."
  },
  {
    "place_id": "ChIJcxv-230FLz4RtTCNk61H1f4",
    "name": "Java Cafe",
    "lat": 24.6281743,
    "lon": 46.6910667,
    "address": "Samahat Ash Shaikh Abdulaziz Ibn Baz Street, JMHR+7C8, Riyadh",
    "types": "cafe,store,point_of_interest,food,establishment",
    "rating": 3.9,
    "district": "Al Jarradiyah Dist."
  },
  {
    "place_id": "ChIJsdahJp4FLz4RpWzDxAKrhCs",
    "name": "La Caverna Cafe",
    "lat": 24.6206018,
    "lon": 46.70764889999999,
    "address": "7808 سلام, Al Salam, 7808 سلام، 2369, Riyadh",
    "types": "cafe,store,point_of_interest,food,establishment",
    "rating": 1,
    "district": "Al Jarradiyah Dist."
  },
  {
    "place_id": "ChIJk_-8gp0FLz4RXdzPDMI4AQs",
    "name": "Rathath Es",
    "lat": 24.616188,
    "lon": 46.70996499999999,
    "address": "11531 Prince Abdullah Ibn Abdulrahman Ibn Faisal, Riyadh",
    "types": "park,general_contractor,home_goods_store,point_of_interest,store,establishment",
    "rating": 4,
    "district": "Al Jarradiyah Dist."
  },
  {
    "place_id": "ChIJ07_hmwkFLz4RDmca_qdmKK0",
    "name": "Al-Sannat for Luggage",
    "lat": 24.6277022,
    "lon": 46.7075747,
    "address": "شارع العطايف، الديرة،, Riyadh",
    "types": "point_of_interest,store,establishment",
    "rating": 4.1,
    "district": "Al Jarradiyah Dist."
  },
  {
    "place_id": "ChIJGWLkTHMFLz4RRyI4gogkcG8",
    "name": "مؤسسة أطياف العروسة",
    "lat": 24.6191953,
    "lon": 46.69974619999999,
    "address": "Al Madina Al Munawwarah Road, JM9X+MVH, Riyadh",
    "types": "clothing_store,point_of_interest,store,establishment",
    "rating": 4,
    "district": "Al Jarradiyah Dist."
  },
  {
    "place_id": "ChIJ1wyhPgoFLz4RRlMtTSvVU18",
    "name": "Asbalh household utensils",
    "lat": 24.6238451,
    "lon": 46.69754620000001,
    "address": "2534 As Sibalah, Riyadh",
    "types": "point_of_interest,store,establishment",
    "rating": 4,
    "district": "Al Jarradiyah Dist."
  },
  {
    "place_id": "ChIJN9pV_A0FLz4RDM6UAyaOl2U",
    "name": "Yazidi Foundation Christalat",
    "lat": 24.6243846,
    "lon": 46.7000454,
    "address": "4537 السبالة، الشميسي، الرياض 12745 7301 As Sibalah, Riyadh",
    "types": "home_goods_store,point_of_interest,store,establishment",
    "rating": 5,
    "district": "Al Jarradiyah Dist."
  },
  {
    "place_id": "ChIJdfmJ2w0FLz4R5mfBuLfXR9k",
    "name": "محمد عبدالرحمن المنيعي لتجارة الأواني المنزلية",
    "lat": 24.6246327,
    "lon": 46.7009798,
    "address": "As Sibalah, Riyadh",
    "types": "furniture_store,home_goods_store,point_of_interest,store,establishment",
    "rating": 3.9,
    "district": "Al Jarradiyah Dist."
  },
  {
    "place_id": "ChIJhWmiKwwFLz4RQRSYeq70fGc",
    "name": "AL MOUBTAKER CENTER",
    "lat": 24.6251304,
    "lon": 46.70209209999999,
    "address": "4746 السبالة - حي, Riyadh",
    "types": "home_goods_store,point_of_interest,store,establishment",
    "rating": 4.1,
    "district": "Al Jarradiyah Dist."
  },
  {
    "place_id": "ChIJZ8-NIgwFLz4R1igCq3M9t3w",
    "name": "شركة باصرة للاواني المنزلية Basurrah Campany",
    "lat": 24.6252151,
    "lon": 46.7030819,
    "address": "4837 As Sibalah, Riyadh",
    "types": "home_goods_store,point_of_interest,store,establishment",
    "rating": 3.8,
    "district": "Al Jarradiyah Dist."
  },
  {
    "place_id": "ChIJxQWJGncFLz4RcHHhc1uvPwg",
    "name": "معرض العالمي للاثاث اسواق بن دايل",
    "lat": 24.6147135,
    "lon": 46.7059484,
    "address": "5621 Khalid Ibn Uday, Riyadh",
    "types": "furniture_store,home_goods_store,point_of_interest,store,establishment",
    "rating": 3.7,
    "district": "Al Jarradiyah Dist."
  },
  {
    "place_id": "ChIJY_FKHXcFLz4Rk-6Z8PU-oyk",
    "name": "مفرشات مكيت ثيل",
    "lat": 24.6147612,
    "lon": 46.7061314,
    "address": "5645 Khalid Ibn Uday, Riyadh",
    "types": "furniture_store,home_goods_store,point_of_interest,store,establishment",
    "rating": 3.8,
    "district": "Al Jarradiyah Dist."
  },
  {
    "place_id": "ChIJcYUvrDwFLz4RTvqTvsmirNg",
    "name": "Petromin Express",
    "lat": 24.62387,
    "lon": 46.685447,
    "address": "Riyadh Samahat Al Sheikh Abd Al Aziz Bin Baz Street, الرياض",
    "types": "car_wash,car_repair,point_of_interest,store,establishment",
    "rating": 4.1,
    "district": "Al Jarradiyah Dist."
  },
  {
    "place_id": "ChIJX4CIDnUFLz4RWizyd6ViI4w",
    "name": "Cone Zone",
    "lat": 24.6208206,
    "lon": 46.7082379,
    "address": "7808 سلام, Riyadh",
    "types": "food,point_of_interest,store,establishment",
    "rating": 4,
    "district": "Al Jarradiyah Dist."
  },
  {
    "place_id": "ChIJcXkt7XcFLz4RbeGV27jWMmM",
    "name": "المتجر السعودي ، مؤسسة نوران الشرق للتجارة",
    "lat": 24.6137677,
    "lon": 46.7077499,
    "address": "King Fahd Road, Riyadh",
    "types": "point_of_interest,store,establishment",
    "rating": 3.6,
    "district": "Al Jarradiyah Dist."
  },
  {
    "place_id": "ChIJ2ZBUi3cFLz4ReJnRI_fyXDg",
    "name": "عبداللطيف للمعلومات",
    "lat": 24.6136175,
    "lon": 46.7078188,
    "address": "2216 6995, Saudi, الرياض",
    "types": "electronics_store,point_of_interest,store,establishment",
    "rating": 4.8,
    "district": "Al Jarradiyah Dist."
  },
  {
    "place_id": "ChIJ9TxGJ3gFLz4RneJKCijk-jc",
    "name": "كاميرات مراقبة",
    "lat": 24.6135722,
    "lon": 46.7078681,
    "address": "King Fahd Road, Riyadh",
    "types": "electronics_store,point_of_interest,store,establishment",
    "rating": 4.1,
    "district": "Al Jarradiyah Dist."
  },
  {
    "place_id": "ChIJ-QTkhwkFLz4RQ3ny63HsNwM",
    "name": "Himalayan Salt",
    "lat": 24.62696099999999,
    "lon": 46.706062,
    "address": "مركز التعمير للجملة, King Fahad Branch Road, Riyadh",
    "types": "store,point_of_interest,establishment",
    "rating": 4,
    "district": "Al Jarradiyah Dist."
  },
  {
    "place_id": "ChIJBYl4FgoFLz4R-HXSzqfINlc",
    "name": "حلويات بازهير",
    "lat": 24.6266762,
    "lon": 46.70812490000001,
    "address": "As Sibalah, Riyadh",
    "types": "food,point_of_interest,store,establishment",
    "rating": 4,
    "district": "Al Jarradiyah Dist."
  },
  {
    "place_id": "ChIJix6uF38FLz4R8ukav6_uTg0",
    "name": "Kitchen Iteams market riyadh",
    "lat": 24.6093333,
    "lon": 46.707504,
    "address": "King Fahd Road, طريق مركز اتحاد السباله الرياض, Riyadh",
    "types": "home_goods_store,point_of_interest,store,establishment",
    "rating": 4.5,
    "district": "Al Jarradiyah Dist."
  },
  {
    "place_id": "ChIJQ5kqkIEPLz4RPV4iQLYEAEQ",
    "name": "شركة محمد سعيد بالبيد التجارية للمواد الغذائية بالجملة",
    "lat": 24.5993933,
    "lon": 46.707459,
    "address": "Abi Zakariya Ibn Al Awwam, Riyadh",
    "types": "supermarket,grocery_or_supermarket,store,point_of_interest,food,establishment",
    "rating": 4.1,
    "district": "Al Jarradiyah Dist."
  },
  {
    "place_id": "ChIJ1ZkNZ8QGLz4RTIhh0RFA_70",
    "name": "اسواق العثيم | Othaim Markets",
    "lat": 24.616112,
    "lon": 46.689918,
    "address": "حي, Al Madina Al Munawwarah Road, Riyadh",
    "types": "supermarket,grocery_or_supermarket,store,point_of_interest,food,establishment",
    "rating": 4.2,
    "district": "Al Jarradiyah Dist."
  },
  {
    "place_id": "ChIJ5WmGmmIFLz4R1Yt2JpByC9A",
    "name": "Carrefour",
    "lat": 24.6007715,
    "lon": 46.69906469999999,
    "address": "Al Qasr Mall, As Suwaidi Al Am, Riyadh",
    "types": "supermarket,grocery_or_supermarket,store,point_of_interest,food,establishment",
    "rating": 4.1,
    "district": "Al Jarradiyah Dist."
  },
  {
    "place_id": "ChIJEca7GAAFLz4R4gNKsHcbqOg",
    "name": "تموينات عائشه",
    "lat": 24.6175255,
    "lon": 46.6953133,
    "address": "4549 Al Madina Al Munawwarah Road, Riyadh",
    "types": "supermarket,grocery_or_supermarket,store,point_of_interest,food,establishment",
    "rating": "",
    "district": "Al Jarradiyah Dist."
  },
  {
    "place_id": "ChIJ4bojQQAFLz4RZ0JFIySPa40",
    "name": "بقاله عسير",
    "lat": 24.6210902,
    "lon": 46.6973754,
    "address": "Assir Street, JMCW+CXJ, Riyadh",
    "types": "supermarket,grocery_or_supermarket,store,point_of_interest,food,establishment",
    "rating": "",
    "district": "Al Jarradiyah Dist."
  },
  {
    "place_id": "ChIJkbCAHwAFLz4RjRHusczp1ac",
    "name": "بقاله 24 ساعه.",
    "lat": 24.6204294,
    "lon": 46.69871269999999,
    "address": "RBGD6845, 4416 Al Oumraniah, حي الشميسي, الرياض",
    "types": "supermarket,grocery_or_supermarket,store,point_of_interest,food,establishment",
    "rating": 4.6,
    "district": "Al Jarradiyah Dist."
  },
  {
    "place_id": "ChIJC76Jw2cFLz4R7DjeVvgIwPI",
    "name": "SUPERMARKET 805",
    "lat": 24.6173984,
    "lon": 46.6929483,
    "address": "Al Madina Al Munawwarah Road, Riyadh",
    "types": "supermarket,grocery_or_supermarket,store,point_of_interest,food,establishment",
    "rating": 5,
    "district": "Al Jarradiyah Dist."
  },
  {
    "place_id": "ChIJW839ZQAFLz4RLpJ3U_EZ8OU",
    "name": "تموينات وبقالة اريج مرعي",
    "lat": 24.6218719,
    "lon": 46.6982125,
    "address": "حي, Assir Street, Riyadh",
    "types": "supermarket,grocery_or_supermarket,store,point_of_interest,food,establishment",
    "rating": 5,
    "district": "Al Jarradiyah Dist."
  },
  {
    "place_id": "ChIJDaETLwAFLz4ROGcz2NCjfvA",
    "name": "تمونات وادي الإنجاز",
    "lat": 24.6146303,
    "lon": 46.6933745,
    "address": "JM7V+V85",
    "types": "supermarket,grocery_or_supermarket,store,point_of_interest,food,establishment",
    "rating": "",
    "district": "Al Jarradiyah Dist."
  },
  {
    "place_id": "ChIJJeyCMREFLz4RKv6YRKOeTCU",
    "name": "تموينات",
    "lat": 24.6244976,
    "lon": 46.6950156,
    "address": "Assir Street, JMFW+Q2R, Riyadh",
    "types": "supermarket,grocery_or_supermarket,store,point_of_interest,food,establishment",
    "rating": 4.8,
    "district": "Al Jarradiyah Dist."
  },
  {
    "place_id": "ChIJDSM-lnMFLz4RkJAXamyVVOU",
    "name": "Al Maha Groceries",
    "lat": 24.6178626,
    "lon": 46.7032044,
    "address": "Assir Street, JP93+47W, Riyadh",
    "types": "supermarket,grocery_or_supermarket,store,point_of_interest,food,establishment",
    "rating": 3.9,
    "district": "Al Jarradiyah Dist."
  },
  {
    "place_id": "ChIJWesEUpIFLz4RFM2jjxBDD2A",
    "name": "تموينات",
    "lat": 24.6185112,
    "lon": 46.68597659999999,
    "address": "3121 ال مرشد, 6622, الرياض",
    "types": "supermarket,grocery_or_supermarket,store,point_of_interest,food,establishment",
    "rating": 3.9,
    "district": "Al Jarradiyah Dist."
  },
  {
    "place_id": "ChIJzRqBYQAFLz4RdOiLJS4e_Cs",
    "name": "تموينات شركة السبيعي للمواد الغذائية",
    "lat": 24.62430780000001,
    "lon": 46.687088,
    "address": "7257 Samahat Ash Shaikh Abdulaziz Ibn Baz Street, Riyadh",
    "types": "supermarket,grocery_or_supermarket,store,point_of_interest,food,establishment",
    "rating": "",
    "district": "Al Jarradiyah Dist."
  },
  {
    "place_id": "ChIJ0_KwEQAFLz4RAWj3hqvD-nU",
    "name": "السيارة",
    "lat": 24.62863480000001,
    "lon": 46.6932452,
    "address": "حي, RBGA7755, 7755 العمادي، 3850, Riyadh",
    "types": "supermarket,grocery_or_supermarket,store,point_of_interest,food,establishment",
    "rating": "",
    "district": "Al Jarradiyah Dist."
  },
  {
    "place_id": "ChIJ0_0xABoFLz4RGxExmwdVdhw",
    "name": "تموينات فلاح نايف الشمري للمواد الغذائية",
    "lat": 24.6286777,
    "lon": 46.6932759,
    "address": "حي, شارع العمادي, Riyadh",
    "types": "grocery_or_supermarket,supermarket,store,point_of_interest,food,establishment",
    "rating": 3.6,
    "district": "Al Jarradiyah Dist."
  },
  {
    "place_id": "ChIJw8r-UQAFLz4RGl8ye5Ye_Iw",
    "name": "تموينات هذال سليمان عبدالله الشرادين",
    "lat": 24.62021550000001,
    "lon": 46.6847984,
    "address": "6812 Mousa Al Mousali, 2991, Riyadh",
    "types": "supermarket,grocery_or_supermarket,store,point_of_interest,food,establishment",
    "rating": 4.1,
    "district": "Al Jarradiyah Dist."
  },
  {
    "place_id": "ChIJY86taAAFLz4RmHnRYvxqKRo",
    "name": "تموينات منوه الجزيره",
    "lat": 24.6234778,
    "lon": 46.6858139,
    "address": "RBBA3091، 3091 سماحة الشيخ عبدالعزيز بن باز، 7161, Riyadh",
    "types": "supermarket,grocery_or_supermarket,store,point_of_interest,food,establishment",
    "rating": 3.9,
    "district": "Al Jarradiyah Dist."
  },
  {
    "place_id": "ChIJWbT9-I0FLz4RPj7GyzC7UIM",
    "name": "Asian Supermarket",
    "lat": 24.6294266,
    "lon": 46.6934767,
    "address": "3856 العمادي, 7840, الرياض",
    "types": "supermarket,grocery_or_supermarket,store,point_of_interest,food,establishment",
    "rating": 4.3,
    "district": "Al Jarradiyah Dist."
  },
  {
    "place_id": "ChIJh1ywtX4FLz4RGDQSMzRQZu0",
    "name": "Jonquil",
    "lat": 24.6067599,
    "lon": 46.70585469999999,
    "address": "طريق الملك فهد الفرعي, JP44+P85, Riyadh",
    "types": "clothing_store,shopping_mall,store,point_of_interest,establishment",
    "rating": 3.7,
    "district": "Al Jarradiyah Dist."
  },
  {
    "place_id": "ChIJx0vMxewFLz4RUuvSCVn7K44",
    "name": "MARYNA SOCKS",
    "lat": 24.61838400000001,
    "lon": 46.6965396,
    "address": "Abdul Aziz Ibn Zaid, JM9W+9J3, Riyadh",
    "types": "shopping_mall,point_of_interest,establishment",
    "rating": 5,
    "district": "Al Jarradiyah Dist."
  },
  {
    "place_id": "ChIJ2_DYawAFLz4REZ9txXjCedo",
    "name": "خمسة عالم الاسعار فرع الجراديه",
    "lat": 24.6183403,
    "lon": 46.69680760000001,
    "address": "Al Madina Al Munawwarah Road, JM9W+8J9, Riyadh",
    "types": "shopping_mall,point_of_interest,establishment",
    "rating": 5,
    "district": "Al Jarradiyah Dist."
  },
  {
    "place_id": "ChIJB8tL8nAFLz4Rky8f4X7HVVM",
    "name": "مكتبة مسطرة القلم للقرطاسية",
    "lat": 24.6178535,
    "lon": 46.6968667,
    "address": "Al Madina Al Munawwarah Road, Riyadh",
    "types": "shopping_mall,point_of_interest,establishment",
    "rating": 5,
    "district": "Al Jarradiyah Dist."
  },
  {
    "place_id": "ChIJp-3s3W8FLz4RuJnonJqzn5Q",
    "name": "مؤسسة هياء شديد للملابس والاكسسوارات",
    "lat": 24.6179488,
    "lon": 46.6972338,
    "address": "حي, Riyadh",
    "types": "shopping_mall,point_of_interest,establishment",
    "rating": 5,
    "district": "Al Jarradiyah Dist."
  },
  {
    "place_id": "ChIJzXMqPgAFLz4RRLOwZCCJi9g",
    "name": "ملامح الخليج للكماليات والملابس فرع الجرادية",
    "lat": 24.6180197,
    "lon": 46.69734320000001,
    "address": "حي, Al Madina Al Munawwarah Road, Riyadh",
    "types": "shopping_mall,point_of_interest,establishment",
    "rating": 4.5,
    "district": "Al Jarradiyah Dist."
  },
  {
    "place_id": "ChIJm5CVNaEFLz4RMHJSk4VLJ9A",
    "name": "صالح بن جبر للغازات والاجهزة الالكترونيه",
    "lat": 24.6209691,
    "lon": 46.69724220000001,
    "address": "صالح بن جبر للغازات والاجهزة الالكترونيه، الرياض شارع عسير، الشميسي، الرياض 12652",
    "types": "shopping_mall,point_of_interest,establishment",
    "rating": 3.7,
    "district": "Al Jarradiyah Dist."
  },
  {
    "place_id": "ChIJ0SWS7ocFLz4RKdIQkkoWyCg",
    "name": "مؤسسة الخنبشي لأدوات المطابخ والمطاعم والفنادق",
    "lat": 24.6237083,
    "lon": 46.6975946,
    "address": "7214-7192 Al Oumraniah, Riyadh",
    "types": "shopping_mall,store,point_of_interest,establishment",
    "rating": 4.3,
    "district": "Al Jarradiyah Dist."
  },
  {
    "place_id": "ChIJIWTt43wFLz4R2vshUcfvx5c",
    "name": "Al koobris",
    "lat": 24.6144341,
    "lon": 46.69928040000001,
    "address": "شارع الشباب, Riyadh",
    "types": "shopping_mall,point_of_interest,establishment",
    "rating": 4.4,
    "district": "Al Jarradiyah Dist."
  },
  {
    "place_id": "ChIJ1afDYwAFLz4RLSQpoGO70CY",
    "name": "حفر الباطن",
    "lat": 24.624221,
    "lon": 46.6982103,
    "address": "حي, RBGD4352 7278, 4352 الجندله, Riyadh",
    "types": "shopping_mall,point_of_interest,establishment",
    "rating": "",
    "district": "Al Jarradiyah Dist."
  },
  {
    "place_id": "ChIJizCrJgAFLz4RqoCJA5C_H64",
    "name": "مؤسسة ملتقى الاسعار للكماليات",
    "lat": 24.6178239,
    "lon": 46.7034502,
    "address": "Assir Street, JP93+49G, Riyadh",
    "types": "shopping_mall,point_of_interest,establishment",
    "rating": 5,
    "district": "Al Jarradiyah Dist."
  },
  {
    "place_id": "ChIJHcF54Q0FLz4RqIhdhspJNCc",
    "name": "مؤسسة روائع سفرتي",
    "lat": 24.624698,
    "lon": 46.7004328,
    "address": "شارع السبالة، الشميسي،, JPF2+V5F, Riyadh",
    "types": "shopping_mall,point_of_interest,establishment",
    "rating": 5,
    "district": "Al Jarradiyah Dist."
  },
  {
    "place_id": "ChIJM-ZyFwAFLz4RW8IMaB7icxc",
    "name": "المدنيه المنوره",
    "lat": 24.62434,
    "lon": 46.70154910000001,
    "address": "7295 ممر101 RBGA7295 4689, Riyadh",
    "types": "shopping_mall,point_of_interest,establishment",
    "rating": 3.5,
    "district": "Al Jarradiyah Dist."
  },
  {
    "place_id": "ChIJv632GA4FLz4R5aZpOnFUE88",
    "name": "ركن الخزائن المبتكرة",
    "lat": 24.61487649999999,
    "lon": 46.7038755,
    "address": "اسواق بن دايل, Riyadh",
    "types": "shopping_mall,store,point_of_interest,establishment",
    "rating": 3.4,
    "district": "Al Jarradiyah Dist."
  },
  {
    "place_id": "ChIJEzA6LwwFLz4RzOCe2F6fuZ0",
    "name": "شركة الصحاح العالمية للتجارة المحدودة",
    "lat": 24.6250613,
    "lon": 46.7024165,
    "address": "4663, 4959 السبالة، الشميسي،, Riyadh",
    "types": "shopping_mall,point_of_interest,establishment",
    "rating": 4.1,
    "district": "Al Jarradiyah Dist."
  },
  {
    "place_id": "ChIJz0X6FQAFLz4RQ6igry81mDQ",
    "name": "رنسي للحفلات والمناسبات",
    "lat": 24.6199965,
    "lon": 46.7055081,
    "address": "JP94+X6R, Riyadh",
    "types": "shopping_mall,point_of_interest,establishment",
    "rating": "",
    "district": "Al Jarradiyah Dist."
  },
  {
    "place_id": "ChIJJct3GlAFLz4RrMuPCZQzdQg",
    "name": "محل زملة حسن الدوسري اللافراح والمناسبات",
    "lat": 24.619848,
    "lon": 46.7056271,
    "address": "King Fahd Road, Riyadh",
    "types": "shopping_mall,point_of_interest,establishment",
    "rating": 4,
    "district": "Al Jarradiyah Dist."
  },
  {
    "place_id": "ChIJJ5aH6ggGLz4Ror_gm2ZSB78",
    "name": "Restaurant",
    "lat": 24.6298261,
    "lon": 46.7514577,
    "address": "7912 12873 3512 الخليفة المأمون, الخالدية, Riyadh",
    "types": "restaurant,food,point_of_interest,establishment",
    "rating": 4.1,
    "district": "Al Sinaiyah Dist."
  },
  {
    "place_id": "ChIJsXMQXpwGLz4RU2g76y9zfi4",
    "name": "KFC",
    "lat": 24.669468,
    "lon": 46.75143689999999,
    "address": "intersection of Salah al-Din Street with Fatima Zahra, الرياض",
    "types": "restaurant,food,point_of_interest,establishment",
    "rating": 4,
    "district": "Al Sinaiyah Dist."
  },
  {
    "place_id": "ChIJiQeP5hcELz4RWlYIL9ush68",
    "name": "pizza ram",
    "lat": 24.6717843,
    "lon": 46.7374406,
    "address": "Jarir Street, Riyadh",
    "types": "restaurant,food,point_of_interest,establishment",
    "rating": 4.1,
    "district": "Al Sinaiyah Dist."
  },
  {
    "place_id": "ChIJWdeXxhUELz4R0EWw43_XNQU",
    "name": "Domino's Pizza دومينوز بيتزا",
    "lat": 24.671222,
    "lon": 46.732333,
    "address": "Jarir Street, Riyadh",
    "types": "meal_takeaway,meal_delivery,restaurant,food,point_of_interest,establishment",
    "rating": 3.9,
    "district": "Al Sinaiyah Dist."
  },
  {
    "place_id": "ChIJ12-AS9IFLz4RXBy9XmSSzL4",
    "name": "Daily Break",
    "lat": 24.6500852,
    "lon": 46.74043820000001,
    "address": "2742 الأمير عبدالعزيز بن عبدالله بن تركي, Riyadh",
    "types": "restaurant,food,point_of_interest,establishment",
    "rating": 4.3,
    "district": "Al Sinaiyah Dist."
  },
  {
    "place_id": "ChIJYYGDDwAFLz4RoDgrj1YrZZg",
    "name": "حراج بن قاسم",
    "lat": 24.6417511,
    "lon": 46.73815469999999,
    "address": "6209 أبي بن كعب, RENA2489، 2489, الرياض",
    "types": "restaurant,food,point_of_interest,establishment",
    "rating": "",
    "district": "Al Sinaiyah Dist."
  },
  {
    "place_id": "ChIJM0kXDgAFLz4RuiUeetUOgVg",
    "name": "بوفية بفاريا بنجلاديشية",
    "lat": 24.6407191,
    "lon": 46.7401573,
    "address": "2707 Ibn Tarkhan, Riyadh",
    "types": "restaurant,food,point_of_interest,establishment",
    "rating": "",
    "district": "Al Sinaiyah Dist."
  },
  {
    "place_id": "ChIJwfFSSAAFLz4RTSioiPEHlEc",
    "name": "بوفية",
    "lat": 24.63992619999999,
    "lon": 46.74286420000001,
    "address": "6065 Al Madina Al Munawwarah Road, 2986, Riyadh",
    "types": "restaurant,food,point_of_interest,establishment",
    "rating": 5,
    "district": "Al Sinaiyah Dist."
  },
  {
    "place_id": "ChIJCYpaaAAFLz4RdXI-XsdSVwA",
    "name": "بوفية اروع المذاق",
    "lat": 24.6400033,
    "lon": 46.7434865,
    "address": "6079 Al Madina Al Munawwarah Road, RENA3046، 3046, Riyadh",
    "types": "restaurant,food,point_of_interest,establishment",
    "rating": "",
    "district": "Al Sinaiyah Dist."
  },
  {
    "place_id": "ChIJe6EoctsFLz4RR_nKdwx5yFw",
    "name": "Emad Restaurant BBQ kebab Rowoah",
    "lat": 24.6398493,
    "lon": 46.74008039999999,
    "address": "شارع المدينة المنورة،, JPQR+W2P, Riyadh",
    "types": "restaurant,food,point_of_interest,establishment",
    "rating": 4.1,
    "district": "Al Sinaiyah Dist."
  },
  {
    "place_id": "ChIJlxFQbScFLz4RfBtZP9oiYOc",
    "name": "بوفيه اكلات شاميه صناعيه العويضه",
    "lat": 24.6397974,
    "lon": 46.74011050000001,
    "address": "3094-2986 Al Madina Al Munawwarah Road, Riyadh",
    "types": "restaurant,food,point_of_interest,establishment",
    "rating": 4.4,
    "district": "Al Sinaiyah Dist."
  },
  {
    "place_id": "ChIJCwAcXNsFLz4Rgi3QLonCAyM",
    "name": "بوفية للأكلات الشامية ( بإدارة أبو عامر )",
    "lat": 24.6397974,
    "lon": 46.7401087,
    "address": "Al Saman, Riyadh",
    "types": "restaurant,food,point_of_interest,establishment",
    "rating": 4.4,
    "district": "Al Sinaiyah Dist."
  },
  {
    "place_id": "ChIJwY9fLioFLz4RQUlRn_zEMpc",
    "name": "Noakhali Food Restaurant",
    "lat": 24.6413564,
    "lon": 46.74702769999999,
    "address": "3410 ابراهيم الجيلي, 6231, الرياض",
    "types": "restaurant,food,point_of_interest,establishment",
    "rating": 5,
    "district": "Al Sinaiyah Dist."
  },
  {
    "place_id": "ChIJr3YBBAAFLz4Rxe3aq3JmJE4",
    "name": "مطعم مشزيات",
    "lat": 24.639406,
    "lon": 46.7411339,
    "address": "Al Madina Al Munawwarah Road, JPQR+QF6, Riyadh",
    "types": "restaurant,food,point_of_interest,establishment",
    "rating": "",
    "district": "Al Sinaiyah Dist."
  },
  {
    "place_id": "ChIJObUDfZwGLz4R2Xti7PW2FNY",
    "name": "Dunkin' - دانكن",
    "lat": 24.6697093,
    "lon": 46.75214159999999,
    "address": "7705 Fatimah Al Zahraa, Riyadh",
    "types": "cafe,store,point_of_interest,food,establishment",
    "rating": 4.1,
    "district": "Al Sinaiyah Dist."
  },
  {
    "place_id": "ChIJewaRhwkFLz4RPj5guyrdvOQ",
    "name": "Lounge Cafe",
    "lat": 24.6503067,
    "lon": 46.74040499999999,
    "address": "MP2R+45C, Riyadh",
    "types": "cafe,point_of_interest,food,establishment",
    "rating": 3.8,
    "district": "Al Sinaiyah Dist."
  },
  {
    "place_id": "ChIJC_mg418FLz4RDTFUTUIsxyM",
    "name": "Dunkin' - دانكن",
    "lat": 24.6505625,
    "lon": 46.7405625,
    "address": "Riyadh",
    "types": "cafe,store,point_of_interest,food,establishment",
    "rating": 3.8,
    "district": "Al Sinaiyah Dist."
  },
  {
    "place_id": "ChIJ87jnBNsFLz4RzTWR-UiE6eM",
    "name": "بوفیہ روابی",
    "lat": 24.64089019999999,
    "lon": 46.74017560000001,
    "address": "JPRR+933, Riyadh",
    "types": "cafe,point_of_interest,food,establishment",
    "rating": 3.7,
    "district": "Al Sinaiyah Dist."
  },
  {
    "place_id": "ChIJ__lXUwAFLz4RRlvbfoC0fDo",
    "name": "كافيه",
    "lat": 24.6529013,
    "lon": 46.7452275,
    "address": "3205-3263 طريق عمر بن الخطاب الفرعي, Riyadh",
    "types": "cafe,store,point_of_interest,food,establishment",
    "rating": 4,
    "district": "Al Sinaiyah Dist."
  },
  {
    "place_id": "ChIJubnIhNIFLz4RUYAE0PPDwxQ",
    "name": "مقهى اصداء الراحة Echoes of Comfort Cafe",
    "lat": 24.652899,
    "lon": 46.7457925,
    "address": "7488 طريق عمر بن الخطاب الفرعي, 3263 Umar Ibn, الرياض",
    "types": "cafe,store,point_of_interest,food,establishment",
    "rating": 3.9,
    "district": "Al Sinaiyah Dist."
  },
  {
    "place_id": "ChIJBe9jBwAFLz4Rw-KxVKBL-d4",
    "name": "Amraiz Bofia",
    "lat": 24.649383,
    "lon": 46.7333276,
    "address": "JPXM+Q86, Riyadh",
    "types": "cafe,store,point_of_interest,food,establishment",
    "rating": "",
    "district": "Al Sinaiyah Dist."
  },
  {
    "place_id": "ChIJuYVueQAHLz4Rq5dH8v9JGfI",
    "name": "خيمة ابو براك للتقديم الشاي 7/24",
    "lat": 24.6552666,
    "lon": 46.75091889999999,
    "address": "REMC3780، 3780 أبي حفص السعدي، 7773, Riyadh",
    "types": "cafe,store,point_of_interest,food,establishment",
    "rating": 4.6,
    "district": "Al Sinaiyah Dist."
  },
  {
    "place_id": "ChIJTywuWgAFLz4Rd5OgSVEU-IM",
    "name": "شارع العنوز",
    "lat": 24.6342631,
    "lon": 46.7449646,
    "address": "Al Sobeih Street, JPMV+PX4, Riyadh",
    "types": "cafe,store,point_of_interest,food,establishment",
    "rating": 5,
    "district": "Al Sinaiyah Dist."
  },
  {
    "place_id": "ChIJQ-ykCTEELz4R88BazYfI9rg",
    "name": "Fast Coffee",
    "lat": 24.6579711,
    "lon": 46.7357205,
    "address": "حي, Dhahran Street, Riyadh",
    "types": "cafe,store,point_of_interest,food,establishment",
    "rating": 3.6,
    "district": "Al Sinaiyah Dist."
  },
  {
    "place_id": "ChIJEXv_JKUbLz4RDQhW5O5gTcM",
    "name": "kyan",
    "lat": 24.6401875,
    "lon": 46.7551875,
    "address": "JQR4+339, Riyadh",
    "types": "cafe,point_of_interest,food,establishment",
    "rating": 4.2,
    "district": "Al Sinaiyah Dist."
  },
  {
    "place_id": "ChIJk448SmIFLz4RsebScQShH10",
    "name": "alahamd",
    "lat": 24.6598514,
    "lon": 46.7378862,
    "address": "REMC2440, 8250 Abi Al-Khair, 2440, Riyadh",
    "types": "cafe,store,point_of_interest,food,establishment",
    "rating": "",
    "district": "Al Sinaiyah Dist."
  },
  {
    "place_id": "ChIJgWH9fsYHLz4RHl-vXQzCW9s",
    "name": "Buolivard Cafe",
    "lat": 24.6553495,
    "lon": 46.7535163,
    "address": "Al Imam Ali Ibn Abi Taleb, Riyadh",
    "types": "cafe,point_of_interest,food,establishment",
    "rating": 5,
    "district": "Al Sinaiyah Dist."
  },
  {
    "place_id": "ChIJT_uOcTwDLz4RiJIoCJcgnKE",
    "name": "مقهى ركن النوافير",
    "lat": 24.6607594,
    "lon": 46.74216920000001,
    "address": "Salah Ad Din Al Ayyubi Road, Riyadh",
    "types": "cafe,store,point_of_interest,food,establishment",
    "rating": 4,
    "district": "Al Sinaiyah Dist."
  },
  {
    "place_id": "ChIJ82_3wxEFLz4Rztu_HSF4NPc",
    "name": "بومبو",
    "lat": 24.6382203,
    "lon": 46.72877880000001,
    "address": "6917 ابي ثابت الخطيب،, 3388, Riyadh",
    "types": "cafe,store,point_of_interest,food,establishment",
    "rating": 4.5,
    "district": "Al Sinaiyah Dist."
  },
  {
    "place_id": "ChIJf75VdgQHLz4RuC-i5x4xvjU",
    "name": "Dunkin' - دانكن",
    "lat": 24.6589355,
    "lon": 46.7504516,
    "address": "3727 طريق علي بن أبي طالب, 8152, الرياض",
    "types": "cafe,store,point_of_interest,food,establishment",
    "rating": 4.1,
    "district": "Al Sinaiyah Dist."
  },
  {
    "place_id": "ChIJiwLcJAAFLz4RJBFffJ7vSIk",
    "name": "Bean Cove بين كوو",
    "lat": 24.6615385,
    "lon": 46.744265,
    "address": "Salah Ad Din Al Ayyubi Road, MP6V+JP3, Riyadh",
    "types": "cafe,point_of_interest,food,establishment",
    "rating": 5,
    "district": "Al Sinaiyah Dist."
  },
  {
    "place_id": "ChIJ63OuzzMELz4RQHuXDPUHLMg",
    "name": "PTC Co. JOTUN Paints",
    "lat": 24.6588125,
    "lon": 46.735695,
    "address": "Dhahran Street, Riyadh",
    "types": "home_goods_store,point_of_interest,store,establishment",
    "rating": 4.3,
    "district": "Al Sinaiyah Dist."
  },
  {
    "place_id": "ChIJYUaWO9sFLz4RJ0OB_IDQgpA",
    "name": "ASM TRADING EST",
    "lat": 24.6401996,
    "lon": 46.73907190000001,
    "address": "6188 Al Saman, Riyadh",
    "types": "car_repair,point_of_interest,store,establishment",
    "rating": 4.8,
    "district": "Al Sinaiyah Dist."
  },
  {
    "place_id": "ChIJ9xX0gM4FLz4RA45oWeDZMBo",
    "name": "Adeeb Signage Co. Ltd.",
    "lat": 24.6468941,
    "lon": 46.7355441,
    "address": "2263 Street رقم 2, Riyadh",
    "types": "point_of_interest,store,establishment",
    "rating": 4.6,
    "district": "Al Sinaiyah Dist."
  },
  {
    "place_id": "ChIJCX4VIdsFLz4RqTh4EOChzJ0",
    "name": "MOBCO KSA Hyundai Spare Parts العوبثاني موبكو هونداي",
    "lat": 24.6402095,
    "lon": 46.7390717,
    "address": "Al Saman, Riyadh",
    "types": "car_repair,point_of_interest,store,establishment",
    "rating": 3.6,
    "district": "Al Sinaiyah Dist."
  },
  {
    "place_id": "ChIJcbFXXMUFLz4RLnKLdJFSPF0",
    "name": "بن نعيمان _ مازدا طريق الخرج",
    "lat": 24.6417443,
    "lon": 46.736444,
    "address": "الصناعية القديمة،",
    "types": "car_repair,point_of_interest,store,establishment",
    "rating": 3.6,
    "district": "Al Sinaiyah Dist."
  },
  {
    "place_id": "ChIJdWIkL9sFLz4RhcsDz81lsu8",
    "name": "Jawad Al Adham Foundation Auto Parts",
    "lat": 24.6403289,
    "lon": 46.7386905,
    "address": "Al Madina Al Munawwarah Road, JPRQ+4FP, Riyadh",
    "types": "car_repair,point_of_interest,store,establishment",
    "rating": 3.9,
    "district": "Al Sinaiyah Dist."
  },
  {
    "place_id": "ChIJx5VuCnwGLz4RzV2d2q57BIY",
    "name": "Doha Paper Trading Est",
    "lat": 24.6534102,
    "lon": 46.7417407,
    "address": "Omar Ibn Al Khattab Road, Riyadh",
    "types": "point_of_interest,store,establishment",
    "rating": 4.5,
    "district": "Al Sinaiyah Dist."
  },
  {
    "place_id": "ChIJMwr4ddwFLz4RtpmHFrTct9Y",
    "name": "AL- Fares Trading Co.",
    "lat": 24.6394818,
    "lon": 46.7413231,
    "address": "Al Madina Al Munawwarah Road, JPQR+QGW, Riyadh",
    "types": "finance,point_of_interest,store,establishment",
    "rating": 3.4,
    "district": "Al Sinaiyah Dist."
  },
  {
    "place_id": "ChIJM_PjPMUFLz4RGrPWWOWP9ZE",
    "name": "Nissan Spear Part / Wajiht Shapeap Company L.L.C",
    "lat": 24.6407835,
    "lon": 46.73713159999999,
    "address": "Al Kharj Road, Riyadh",
    "types": "car_repair,point_of_interest,store,establishment",
    "rating": 4.7,
    "district": "Al Sinaiyah Dist."
  },
  {
    "place_id": "ChIJdxDPeMUFLz4RbLLajp7R3z8",
    "name": "البواردي للعدد والأدوات",
    "lat": 24.6419201,
    "lon": 46.735751,
    "address": "2327 Al Kharj Road, 6357, Riyadh",
    "types": "furniture_store,home_goods_store,point_of_interest,store,establishment",
    "rating": 4,
    "district": "Al Sinaiyah Dist."
  },
  {
    "place_id": "ChIJo51hIMUFLz4RtxogCAqtqDA",
    "name": "Saleh Alhamad Co. Ltd.",
    "lat": 24.6403946,
    "lon": 46.7370086,
    "address": "2425 Al Qutadiyah, Riyadh",
    "types": "car_repair,point_of_interest,store,establishment",
    "rating": 4.4,
    "district": "Al Sinaiyah Dist."
  },
  {
    "place_id": "ChIJ19463d4FLz4RRQEbkT2ORp0",
    "name": "ALGICOM",
    "lat": 24.6395918,
    "lon": 46.74487750000001,
    "address": "Al Madina Al Munawwarah Road, Riyadh",
    "types": "furniture_store,home_goods_store,point_of_interest,store,establishment",
    "rating": 4.1,
    "district": "Al Sinaiyah Dist."
  },
  {
    "place_id": "ChIJobUORdsFLz4RIMKWMCp0Y8g",
    "name": "Isuzu Spare Parts (Al Yemni Motors Co.)",
    "lat": 24.6392304,
    "lon": 46.7388815,
    "address": "Ismail Al Basri, JPQQ+MHR, Riyadh",
    "types": "car_repair,point_of_interest,store,establishment",
    "rating": 3.6,
    "district": "Al Sinaiyah Dist."
  },
  {
    "place_id": "ChIJX7xGXhkFLz4RASn-y41Diko",
    "name": "Meed - ميد",
    "lat": 24.6504375,
    "lon": 46.7404375,
    "address": "Rail Station, طريق الثمامة, Riyadh",
    "types": "convenience_store,supermarket,grocery_or_supermarket,store,point_of_interest,food,establishment",
    "rating": 3.9,
    "district": "Al Sinaiyah Dist."
  },