[{"place_id": "ChIJWQPcHprQwxURTMD7WoSTmKo", "name": "Al-Tazaj", "lat": 24.5548875, "lon": 46.5097818, "address": "نجم الدين الأيوبي الفرعي،،, الرياض", "types": "restaurant,food,point_of_interest,establishment", "rating": 3.9}, {"place_id": "ChIJ00scxjkYLz4RymVDzzKFTeY", "name": "بيتزا طعم المذاق بيتزا و باستا وعصيرات. سابقا / بيتزا. الأصايل", "lat": 24.5634764, "lon": 46.51706969999999, "address": "Ahmad Ibn Alkhattab, Riyadh", "types": "meal_delivery,restaurant,food,point_of_interest,establishment", "rating": 4}, {"place_id": "ChIJdwt-GEYYLz4RWTNhSG8wkKY", "name": "Casa Pasta", "lat": 24.5679414, "lon": 46.5447847, "address": "طويق بلازا, Riyadh", "types": "restaurant,food,point_of_interest,establishment", "rating": 4.3}, {"place_id": "ChIJb9UH80kYLz4RJqnzQSULJtA", "name": "Maestro Pizza", "lat": 24.5680244, "lon": 46.54483940000001, "address": "سليمان بن عبدالملك بن مروان،, Riyadh", "types": "meal_delivery,meal_takeaway,restaurant,food,point_of_interest,establishment", "rating": 4.1}, {"place_id": "ChIJPaTOitcZLz4R7h1zsaTYwgY", "name": "Herfy", "lat": 24.5535259, "lon": 46.5644569, "address": "Najm Al Din Al Ayoubi, HH37+CQ8, Riyadh", "types": "restaurant,food,point_of_interest,establishment", "rating": 3.7}, {"place_id": "ChIJ36uZEWIXLz4RRk-S_FsrUfk", "name": "Kudu - Najm Al Din Al Ayyubi", "lat": 24.5531347, "lon": 46.5684861, "address": "Najm Al Din Al Ayoubi, Riyadh", "types": "restaurant,meal_delivery,meal_takeaway,food,point_of_interest,establishment", "rating": 3.9}, {"place_id": "ChIJnc-nrmEXLz4RUMgr8yKoUfo", "name": "KFC", "lat": 24.5527572, "lon": 46.5713944, "address": "Najm Al Din Al Ayoubi, Riyadh", "types": "restaurant,food,point_of_interest,establishment", "rating": 3.7}, {"place_id": "ChIJixiMlU8YLz4RS2_koKLja7Q", "name": "Herfy", "lat": 24.5730097, "lon": 46.5464219, "address": "حي, شارع الذهبي, Riyadh", "types": "restaurant,food,point_of_interest,establishment", "rating": 3.6}, {"place_id": "ChIJGdh6yU8YLz4RCPRUB-msDMo", "name": "Domino's Pizza دومينوز بيتزا", "lat": 24.5730066, "lon": 46.5467046, "address": "St, 3425 Al Ikhlas, Riyadh", "types": "meal_delivery,meal_takeaway,restaurant,food,point_of_interest,establishment", "rating": 3.8}, {"place_id": "ChIJy7ZeYwA9Lz4RvwDRtXB5xN4", "name": "فوال ومطبق جاغوري", "lat": 24.4989243, "lon": 46.5035717, "address": "8607 Jabal Ajyad Road, RKMA3581، 3581, Riyadh", "types": "restaurant,food,point_of_interest,establishment", "rating": 3.7}, {"place_id": "ChIJmUP8qiI9Lz4R4BJOnQZUjCc", "name": "ممتاز فوال", "lat": 24.499128, "lon": 46.503975, "address": "Namar street, Riyadh", "types": "restaurant,food,point_of_interest,establishment", "rating": 4}, {"place_id": "ChIJt_ZWHgA9Lz4Rd-OzGCS-LpA", "name": "مطعم الريان الشمالي البخاري", "lat": 24.4990168, "lon": 46.50426329999999, "address": "8590 حي, RKMB3623، 3623 جبل اجياد, Riyadh", "types": "restaurant,food,point_of_interest,establishment", "rating": 3.6}, {"place_id": "ChIJIbu7UQA9Lz4Rzod0tr3ID_w", "name": "مطعم پاکستانی", "lat": 24.4997634, "lon": 46.49384289999999, "address": "5359 شارع وادي بيشة, حي, RKMC8720, 8720, الرياض", "types": "restaurant,food,point_of_interest,establishment", "rating": 5}, {"place_id": "ChIJjdqj-0E9Lz4Rqr0BCoByUHM", "name": "فوال ريناد", "lat": 24.5000079, "lon": 46.4935384, "address": "شارع أجياد, GF2V+2C3, Riyadh", "types": "restaurant,food,point_of_interest,establishment", "rating": 3.8}, {"place_id": "ChIJE_34aQA9Lz4RjkyO27ViyHQ", "name": "ملحمه", "lat": 24.5041389, "lon": 46.4910278, "address": "5735 Jabal Ajyad Road, Riyadh", "types": "restaurant,food,point_of_interest,establishment", "rating": ""}, {"place_id": "ChIJd_xsmrk9Lz4RvMn7p0Ls9Ug", "name": "مطعم قمة الذهبي", "lat": 24.49911170000001, "lon": 46.51787849999999, "address": "شارع وادي فاطمة, Riyadh", "types": "restaurant,food,point_of_interest,establishment", "rating": 4.4}, {"place_id": "ChIJ_d0st7M9Lz4RhsuSZ65n1OQ", "name": "مطعم امواج الحرير البخاري", "lat": 24.48743869999999, "lon": 46.5120803, "address": "4088 حي, RKMF7866، 7866 وادى فاطمه, Riyadh", "types": "restaurant,food,point_of_interest,establishment", "rating": 5}, {"place_id": "ChIJe5qLDQA9Lz4RW77Af2QDbvs", "name": "شعبيات", "lat": 24.5081372, "lon": 46.48191949999999, "address": "6262 Jabal Ajyad Road, 4420, Riyadh", "types": "restaurant,food,point_of_interest,establishment", "rating": 5}, {"place_id": "ChIJmdMKJrAXLz4RnKO3eKFkmz4", "name": "مطعم شعبيات الريف", "lat": 24.50814909999999, "lon": 46.48188020000001, "address": "6451 Jabal Ajyad Road, 3190, RKMD3190, Riyadh", "types": "restaurant,food,point_of_interest,establishment", "rating": 4}, {"place_id": "ChIJRT6foNcXLz4Rx8s1hxr_Vjw", "name": "مطعم سهول بعدان للاكلات الشعبية", "lat": 24.5047633, "lon": 46.52066199999999, "address": "2518 شارع وادي فاطمة, Riyadh", "types": "restaurant,food,point_of_interest,establishment", "rating": 4}, {"place_id": "ChIJszkGSdQTLz4RrJQgNxyQbcs", "name": "Herfy", "lat": 24.4964041, "lon": 46.62825859999999, "address": "Dirab Branch Road, FJWH+H86, Riyadh", "types": "restaurant,food,point_of_interest,establishment", "rating": 3.4}, {"place_id": "ChIJ2RHlz8URLz4RRLwznsQzuJ0", "name": "KFC", "lat": 24.5358164, "lon": 46.6566777, "address": "Dirab Road, Riyadh", "types": "restaurant,food,point_of_interest,establishment", "rating": 3.5}, {"place_id": "ChIJU299o8URLz4R6fNYs6s5Ip0", "name": "McDonald's", "lat": 24.537533, "lon": 46.657906, "address": "Riyadh", "types": "restaurant,food,point_of_interest,establishment", "rating": 3.8}, {"place_id": "ChIJqZZAm8URLz4RMjwVpLNWwXE", "name": "Subway", "lat": 24.537733, "lon": 46.658158, "address": "Block #6502, 4499 Dirab Branch Road, Riyadh", "types": "restaurant,food,point_of_interest,establishment", "rating": 3.3}, {"place_id": "ChIJAWr4nMURLz4RKVMhXTNhIb8", "name": "Maestro Pizza", "lat": 24.5375771, "lon": 46.6582803, "address": "6482 طريق ديراب الفرعي, Riyadh", "types": "meal_delivery,meal_takeaway,restaurant,food,point_of_interest,establishment", "rating": 4}, {"place_id": "ChIJ3TVZlkoQLz4RhPWk2pXTlVQ", "name": "baskin robbins", "lat": 24.5464541, "lon": 46.6501654, "address": "Al Mashtal, GMW2+H3M, Riyadh", "types": "restaurant,food,point_of_interest,store,establishment", "rating": 3.8}, {"place_id": "ChIJo_EMoZwQLz4RGk3dOIOaMkE", "name": "Burger King - Exit 28", "lat": 24.5683966, "lon": 46.6214388, "address": "Opposite Hyundai, Western Ring Rd, Between Exit 27 & 28, الرياض", "types": "restaurant,food,point_of_interest,establishment", "rating": 4}, {"place_id": "ChIJ80BfjEoQLz4Ri0-cUxiOxKU", "name": "فوال الطائف - Fawal Taif", "lat": 24.5469755, "lon": 46.65004190000001, "address": "Al Mashtal, Riyadh", "types": "restaurant,food,point_of_interest,establishment", "rating": 3.8}, {"place_id": "ChIJhTtlkEoQLz4RnH8I5WwzIhA", "name": "برجر مشوي", "lat": 24.5468822, "lon": 46.6502971, "address": "3732 Al Mashtal, Riyadh", "types": "restaurant,food,point_of_interest,establishment", "rating": 4.2}, {"place_id": "ChIJSxyJeUwQLz4RsKrDP4HjKvc", "name": "مطعم الليوان - الحزم", "lat": 24.5441109, "lon": 46.6545276, "address": "حي, 7213 Al mathari, Riyadh", "types": "restaurant,food,point_of_interest,establishment", "rating": 3.9}, {"place_id": "ChIJhYCyic8RLz4RFt2Aoeic05k", "name": "Herfy Restaurant", "lat": 24.5388059, "lon": 46.6592315, "address": "6626 Dirab Branch Road, Riyadh", "types": "restaurant,food,point_of_interest,establishment", "rating": 3.4}, {"place_id": "ChIJKaRmyMoRLz4R2WZbiNupP5I", "name": "Domino's Pizza دومينوز بيتزا", "lat": 24.545333, "lon": 46.653531, "address": "St, 4022 Al Mashtal, Riyadh", "types": "meal_delivery,meal_takeaway,restaurant,food,point_of_interest,establishment", "rating": 4}, {"place_id": "ChIJyXFEBV4QLz4RXJ1FZhT1_Xk", "name": "KFC", "lat": 24.5582222, "lon": 46.6362541, "address": "Nagm alden street cross southern round road, الرياض", "types": "restaurant,food,point_of_interest,establishment", "rating": 3.7}, {"place_id": "ChIJ75V6210QLz4ROYapljhYp3s", "name": "McDonald’s", "lat": 24.557901, "lon": 46.63720299999999, "address": "Western Ring Road, Riyadh", "types": "restaurant,food,point_of_interest,establishment", "rating": 3.3}, {"place_id": "ChIJ51WS8aAaLz4Rn2QTz0q3wJI", "name": "Khafif", "lat": 24.5587846, "lon": 46.6373493, "address": "4419 الطريق الدائري الغربي الفرعي، ظهرة نمار، Salaam Mall، الرياض 14924", "types": "restaurant,food,point_of_interest,store,establishment", "rating": 3.5}, {"place_id": "ChIJ4eKu_l0QLz4RxcIOGkuXFBo", "name": "Hardee's", "lat": 24.5589375, "lon": 46.6370625, "address": "HJ5P+HR, ال سليم ال سليم، PLAZA, Riyadh", "types": "restaurant,food,point_of_interest,establishment", "rating": 4.2}, {"place_id": "ChIJi9brEFT-Lj4RtOEV-yaVxoA", "name": "Subway", "lat": 24.5649575, "lon": 46.5757437, "address": "Dist, 7482 Abdulrahman Aldaakhil St, Tamimi Tuwaiq Branch, الرياض", "types": "restaurant,food,point_of_interest,establishment", "rating": 3.9}, {"place_id": "ChIJ6RCfggkELz4RTkwM40AaKz4", "name": "McDonald's", "lat": 24.570255, "lon": 46.69138399999999, "address": "Riyadh", "types": "restaurant,point_of_interest,food,establishment", "rating": 3.8}, {"place_id": "ChIJ7c8TslUOLz4Rt_Yznw-LJwc", "name": "Al Romansiah Restaurant", "lat": 24.5622023, "lon": 46.70700439999999, "address": "3143 Al Tourmouzi, 6063, Riyadh", "types": "restaurant,point_of_interest,food,establishment", "rating": 4.3}, {"place_id": "ChIJ5TuGQGwOLz4RKUqwsLsGfFw", "name": "Shawarmer | شاورمر", "lat": 24.5351064, "lon": 46.6933874, "address": "Al Shifa Plaza, Riyadh", "types": "meal_takeaway,restaurant,point_of_interest,food,establishment", "rating": 4.1}, {"place_id": "ChIJuQ4jWUEOLz4RirZ85j88sJM", "name": "KFC", "lat": 24.5456045, "lon": 46.6945168, "address": "Sitteen Street Shefa, Riyadh", "types": "restaurant,point_of_interest,food,establishment", "rating": 3.5}, {"place_id": "ChIJMzrnWEcOLz4Rd8CCw6aqthU", "name": "فلافل ميدان الشام", "lat": 24.5455915, "lon": 46.689965, "address": "3978 Al Khaleel Bin Ahmad, Riyadh", "types": "restaurant,point_of_interest,food,establishment", "rating": 3.9}, {"place_id": "ChIJWVkiHkUOLz4RwzYIxDY7J6Q", "name": "falafel Time restaurants", "lat": 24.5500519, "lon": 46.6980667, "address": "ابن تيمية، بدر،, HM2X+26G, Riyadh", "types": "restaurant,point_of_interest,food,establishment", "rating": 4}, {"place_id": "ChIJiZS34ZIOLz4RCGzHLLbOseM", "name": "KFC", "lat": 24.5496791, "lon": 46.7211729, "address": "4076 Ibn Manadhir, Riyadh", "types": "restaurant,point_of_interest,food,establishment", "rating": 3.5}, {"place_id": "ChIJA_vmXFAOLz4Rs_cePOuj_yw", "name": "Best pasta", "lat": 24.5551257, "lon": 46.7012423, "address": "6400 Ibn Taymeeyah Road, Riyadh", "types": "restaurant,point_of_interest,food,establishment", "rating": 4}, {"place_id": "ChIJJUlEVlAOLz4R7SV3HCBI1H8", "name": "Maestro Pizza", "lat": 24.5557368, "lon": 46.70184099999999, "address": "طريق ابن تيمية، الشفا، الرياض 6488", "types": "meal_delivery,meal_takeaway,restaurant,point_of_interest,food,establishment", "rating": 3.9}, {"place_id": "ChIJ5XCtlizIhRUR_ZWH3dXpSS0", "name": "دومينوز | Domino's", "lat": 24.557406, "lon": 46.70321300000001, "address": "6684 Ibn Taymeeyah Road, Riyadh", "types": "meal_delivery,meal_takeaway,restaurant,point_of_interest,food,establishment", "rating": 3.5}, {"place_id": "ChIJd-OiPVEOLz4R-yHmWyVucNk", "name": "Domino's Pizza", "lat": 24.5574375, "lon": 46.70313760000001, "address": "6684 Ibn Taymeeyah Road, Riyadh", "types": "restaurant,point_of_interest,food,establishment", "rating": 3.9}, {"place_id": "ChIJt0FfOVEOLz4RQ7_fRSIKPlQ", "name": "Pizzaratti AlShifa", "lat": 24.557649, "lon": 46.703449, "address": "طريق ابن تيمية الفرعي, Riyadh", "types": "restaurant,point_of_interest,food,establishment", "rating": 4.3}, {"place_id": "ChIJ64mHxVYOLz4RTvNKMbaTnC8", "name": "McDonald's", "lat": 24.558167, "lon": 46.70514499999999, "address": "Riyadh", "types": "restaurant,point_of_interest,food,establishment", "rating": 3.8}, {"place_id": "ChIJCRB_rlYOLz4RuGe52ytX6B8", "name": "Subway", "lat": 24.5584314, "lon": 46.70415359999999, "address": "6850 Ibn Taymiyyah St, Branch, Al Shifa, الرياض", "types": "restaurant,point_of_interest,food,establishment", "rating": 3.9}, {"place_id": "ChIJDfZ3vlYOLz4RRJKOjtDvAZY", "name": "Alliwan Restaurant", "lat": 24.5589923, "lon": 46.7054587, "address": "حي, طريق ابن تيمية ، بدر, Riyadh", "types": "restaurant,point_of_interest,food,establishment", "rating": 4.1}, {"place_id": "ChIJtQHBrkgKLz4RA37vZsNUI-k", "name": "مطعم سلطان", "lat": 24.5351225, "lon": 46.7958638, "address": "Riyadh", "types": "restaurant,point_of_interest,food,establishment", "rating": 3.7}, {"place_id": "ChIJKS1TjXwJLz4R-IuhhkMGmXo", "name": "Pizza Turkish valley", "lat": 24.5560781, "lon": 46.778721, "address": "RHTA2285، 2285 7799 Sayeed Qoutoub Road, Riyadh", "types": "restaurant,point_of_interest,food,establishment", "rating": 4.1}, {"place_id": "ChIJe1pNs50JLz4R2qClBEnB1u8", "name": "Burger King - Azizia", "lat": 24.569095, "lon": 46.78924199999999, "address": "Panda Supermarket, Azizia Rd, Riyadh", "types": "restaurant,point_of_interest,food,establishment", "rating": 4}, {"place_id": "ChIJieQCdp4JLz4RT956hfMn_hk", "name": "KFC", "lat": 24.5702032, "lon": 46.78817029999999, "address": "Azizi Road Dar Beda District", "types": "restaurant,point_of_interest,food,establishment", "rating": 3.6}, {"place_id": "ChIJp73ANXUJLz4RQdyLvWDPuEk", "name": "Derati Restaurants - Ad Dar Al Baida Branch", "lat": 24.5736391, "lon": 46.7853524, "address": "Arafat Road, تقاطع طريق العزيزية مع, Riyadh", "types": "restaurant,point_of_interest,food,establishment", "rating": 4}, {"place_id": "ChIJQXgrDq2gLz4RHS3hnXml8JI", "name": "Dirati Restaurants", "lat": 24.569962, "lon": 46.8333222, "address": "Al Kharj Road, Riyadh", "types": "restaurant,point_of_interest,food,establishment", "rating": 4.1}, {"place_id": "ChIJk4_LnQQJLz4RYwVsnJYYlLk", "name": "McDonald's", "lat": 24.585652, "lon": 46.778468, "address": "Riyadh", "types": "restaurant,point_of_interest,food,establishment", "rating": 3.8}, {"place_id": "ChIJ0Tuehl4LLz4Rfs4Xbpe_QFQ", "name": "معدات للايجار اليومي والشهري", "lat": 24.4918218, "lon": 46.792831, "address": "Al Haeer Road, Riyadh", "types": "restaurant,point_of_interest,food,establishment", "rating": ""}, {"place_id": "ChIJcT_ECwB1Lz4RjV3IZuRhB_A", "name": "بوفية مائدة الحارة", "lat": 24.48136899999999, "lon": 46.8084534, "address": "FRJ5+G9W, Riyadh", "types": "restaurant,point_of_interest,food,establishment", "rating": ""}, {"place_id": "ChIJOeGBNVJ1Lz4ROtFB78YZzAw", "name": "سيريه العميد", "lat": 24.480443, "lon": 46.8069083, "address": "Riyadh", "types": "meal_takeaway,restaurant,point_of_interest,food,establishment", "rating": 4.7}, {"place_id": "ChIJw1EeSQB1Lz4RyF6bGKDC9Yk", "name": "في شاورما", "lat": 24.4798871, "lon": 46.8050224, "address": "FRH3+WX7, Riyadh", "types": "restaurant,point_of_interest,food,establishment", "rating": 3.6}, {"place_id": "ChIJ8-fyWQB1Lz4RBTi2W53Kj7U", "name": "مشويات درويش", "lat": 24.47979800000001, "lon": 46.8049215, "address": "ميدان, 39شارع الحريه بشتيل", "types": "restaurant,point_of_interest,food,establishment", "rating": ""}, {"place_id": "ChIJD7mVQgB1Lz4RxPikLnPgMy4", "name": "مطعم معني الجود", "lat": 24.47979800000001, "lon": 46.8049215, "address": "FRH3+WX7, Riyadh", "types": "restaurant,point_of_interest,food,establishment", "rating": 5}, {"place_id": "ChIJ3-keajZ1Lz4RUr5iZneJ0Jw", "name": "مطعم بخاري", "lat": 24.4793473, "lon": 46.80442679999999, "address": "FRH3+PQM, Riyadh", "types": "restaurant,point_of_interest,food,establishment", "rating": 3.9}, {"place_id": "ChIJWZ4dfAB1Lz4RKT-uGeHrPOA", "name": "مطعم كبده الجزيره", "lat": 24.479307, "lon": 46.804516, "address": "FRH3+PRC, Riyadh", "types": "restaurant,point_of_interest,food,establishment", "rating": 4.7}, {"place_id": "ChIJ62WwPX51Lz4Rt04eRSygQOg", "name": "مطعم رواد شبرا", "lat": 24.4773812, "lon": 46.8033162, "address": "Al Haeer Road, Riyadh", "types": "restaurant,point_of_interest,food,establishment", "rating": 5}, {"place_id": "ChIJ8d1AArwLLz4RrgbBORpOsng", "name": "مطبخ ابو رحاب للحنيذ الجنوبي", "lat": 24.5206405, "lon": 46.78508230000001, "address": "3129، المنصورية، الرياض 14535 7209،, Riyadh", "types": "restaurant,point_of_interest,food,establishment", "rating": 4.4}, {"place_id": "ChIJJ5XpDcd1Lz4RiJhp3485VNI", "name": "Ammani fast food", "lat": 24.472415, "lon": 46.80056829999999, "address": "FRC2+X68, Riyadh", "types": "restaurant,point_of_interest,food,establishment", "rating": 3}, {"place_id": "ChIJNfUqwsp1Lz4RPoUWCuq_jEg", "name": "مطاعم شواية المستقبل البخاري", "lat": 24.4701355, "lon": 46.80682789999999, "address": "3520 Al Haeer Road, RMGA9100، 9100, Riyadh", "types": "restaurant,point_of_interest,food,establishment", "rating": 4}, {"place_id": "ChIJ21bi9J2hLz4Rg8StrGnsLoU", "name": "KFC", "lat": 24.5533968, "lon": 46.8895143, "address": "Snaiyaa 2 ) area, الرياض", "types": "restaurant,food,point_of_interest,establishment", "rating": 3.8}, {"place_id": "ChIJ4f_jAHahLz4RjpBBdGvaokI", "name": "McDonald's", "lat": 24.553404, "lon": 46.88874999999999, "address": "2nd industrial city services centre, Riyadh", "types": "restaurant,food,point_of_interest,establishment", "rating": 3.8}, {"place_id": "ChIJE3vJzaGqLz4Rl66eLi4BPy0", "name": "Domino's Pizza", "lat": 24.5539, "lon": 46.888973, "address": "Riyadh 2nd Industrial City, 8833, Riyadh", "types": "meal_delivery,meal_takeaway,restaurant,food,point_of_interest,establishment", "rating": 3.7}, {"place_id": "ChIJA5aGxnahLz4RPXxX2lv3SP8", "name": "Subway", "lat": 24.557829, "lon": 46.889935, "address": "Oasis Food Complex, Riyadh", "types": "restaurant,food,point_of_interest,establishment", "rating": 3.9}, {"place_id": "ChIJXWajTgCZLz4R-ALtP1mArZ8", "name": "Ryan Al Madinan Pakistani Resturant", "lat": 24.4973622, "lon": 46.9047349, "address": "السفانيه, FWW3+WVX, Riyadh", "types": "restaurant,food,point_of_interest,establishment", "rating": 3.7}, {"place_id": "ChIJYTm3egCZLz4RHCN9CmZvUsU", "name": "pakistani hotel", "lat": 24.5066381, "lon": 46.9050123, "address": "8006 الصحابة, RMFA2555، 2555, الرياض", "types": "restaurant,food,point_of_interest,establishment", "rating": 5}, {"place_id": "ChIJ9V6GC6-ZLz4RdGIhmqdX4HU", "name": "BENGALI RESTAURANT", "lat": 24.5072336, "lon": 46.9040137, "address": "المصفاة،, RMFC4691، 4691 الصحابة، 6693، حي, الرياض", "types": "restaurant,food,point_of_interest,establishment", "rating": 3.6}, {"place_id": "ChIJA198QwCZLz4RO5ZF9fgMVXk", "name": "12 No,12 villa, Daimond hotel,jumma Masjid", "lat": 24.507441, "lon": 46.9040965, "address": "GW43+XJH, Riyadh", "types": "restaurant,food,point_of_interest,establishment", "rating": ""}, {"place_id": "ChIJ-xUdSACZLz4R1y-VeylRSpk", "name": "Bangladeshi Restaurant", "lat": 24.5064907, "lon": 46.9058694, "address": "RMFA4898، 4898 الصحابة، 6624, الرياض", "types": "restaurant,food,point_of_interest,establishment", "rating": 3.7}, {"place_id": "ChIJ37AfAQCfLz4Rpw_utp7mwas", "name": "New Saikot Resturant", "lat": 24.5081553, "lon": 46.9026705, "address": "RMFC4549، 4549 الصحابة، 6790, الرياض", "types": "restaurant,food,point_of_interest,establishment", "rating": 5}, {"place_id": "ChIJ67S_DwCZLz4RyuSSPhS6q-w", "name": "Bangladeshi Restaurant", "lat": 24.5077479, "lon": 46.9039225, "address": "RMFB4700، 4700 الصحابة، 6764, الرياض", "types": "restaurant,food,point_of_interest,establishment", "rating": 4.8}, {"place_id": "ChIJyxq8W0SZLz4R4baXiE9j7_4", "name": "عمارة بركوك", "lat": 24.508216, "lon": 46.903254, "address": "GW53+78J, Riyadh", "types": "restaurant,food,point_of_interest,establishment", "rating": 3.9}, {"place_id": "ChIJkdcGWXKZLz4RaSsIByICAM0", "name": "Lahore Restaurant ~شركة سماكم بقاري", "lat": 24.5084463, "lon": 46.9028208, "address": "Near Saudi Ceramic New Villa Old, Al Kharj Road, Exit 12, Riyadh", "types": "restaurant,food,point_of_interest,establishment", "rating": 3.9}, {"place_id": "ChIJz-2SClSfLz4RVGeZ0Z8cgxs", "name": "Samacom Indian Cafe", "lat": 24.50908919999999, "lon": 46.90203, "address": "Exit 12, Al Kharj Road, Riyadh", "types": "restaurant,food,point_of_interest,establishment", "rating": 3.7}, {"place_id": "ChIJ_z8QZACfLz4RSa9lM8-DOrc", "name": "مطعم الوجبات السریغ", "lat": 24.50924920000001, "lon": 46.9015618, "address": "GW52+MJQ, Riyadh", "types": "restaurant,food,point_of_interest,establishment", "rating": 5}, {"place_id": "ChIJGUHfT7ifLz4RkYT58m8HSeo", "name": "Taj Al Zafraan Restaurant", "lat": 24.5105461, "lon": 46.89893790000001, "address": "Sahaba Street, Riyadh", "types": "restaurant,food,point_of_interest,establishment", "rating": 5}, {"place_id": "ChIJX7Z_LQCfLz4RYaN49t713Ck", "name": "Islamabad Inn Bukhari Restaurant اسلام آباد ان بخاری مطعم", "lat": 24.5105461, "lon": 46.89893790000001, "address": "Opposite Taj Al Zafraan (Pakistani Restaurant), Sahaba Street, Riyadh", "types": "restaurant,food,point_of_interest,establishment", "rating": 4.4}, {"place_id": "ChIJqU1sJQCZLz4RNYhXPEk-4gU", "name": "Bangali restaurant", "lat": 24.5038344, "lon": 46.91329189999999, "address": "Unnamed Road, GW37+G8F, Riyadh", "types": "restaurant,food,point_of_interest,establishment", "rating": ""}, {"place_id": "ChIJ9R4pVACZLz4RE-EkEqYz8Ek", "name": "Alati Alotani For Sharia Meals", "lat": 24.5038344, "lon": 46.91329189999999, "address": "Bangali Market, Riyadh", "types": "restaurant,food,point_of_interest,establishment", "rating": 5}, {"place_id": "ChIJDUGudwCZLz4RVUE3jXqmA1g", "name": "شركة الوجبات العجيبة التجارية", "lat": 24.4949597, "lon": 46.9153785, "address": "6734 وادي سعيا, RMFC3620، 3620, Riyadh", "types": "restaurant,food,point_of_interest,establishment", "rating": 5}, {"place_id": "ChIJQSutPEAfLz4RqeIp1dYDIpU", "name": "KFC", "lat": 24.6359375, "lon": 46.5339375, "address": "Riyadh", "types": "restaurant,point_of_interest,food,establishment", "rating": 3.6}, {"place_id": "ChIJs-ciae8bLz4Rzv-CPA84pYY", "name": "Subway", "lat": 24.614054, "lon": 46.556124, "address": "3696 Prince Ahmad Ibn Abdulaziz 6026, Wadi Laban Branch, الرياض", "types": "restaurant,point_of_interest,food,establishment", "rating": 3.5}, {"place_id": "ChIJAXCu3tQeLz4RFUWSoP6-nZA", "name": "Maestro Pizza", "lat": 24.6268875, "lon": 46.55749, "address": "الشفا،, الرياض", "types": "meal_delivery,meal_takeaway,restaurant,point_of_interest,food,establishment", "rating": 3.9}, {"place_id": "ChIJSUWLjNQeLz4RKP26C0KWmC0", "name": "Al-Saudi Restaurant", "lat": 24.62841929999999, "lon": 46.5583919, "address": "3510 Najd, Riyadh", "types": "restaurant,point_of_interest,food,establishment", "rating": 3.8}, {"place_id": "ChIJ5UpGBNMeLz4RAtS8qmhlfQg", "name": "Burgerizzr B31", "lat": 24.62942, "lon": 46.56146299999999, "address": "الرياض", "types": "restaurant,point_of_interest,food,establishment", "rating": 4.1}, {"place_id": "ChIJAQ04hs0eLz4R_cOlaH9vkYI", "name": "McDonald's", "lat": 24.631477, "lon": 46.56466, "address": "Laban, Riyadh", "types": "restaurant,point_of_interest,food,establishment", "rating": 3.7}, {"place_id": "ChIJtx5o9M0eLz4RmvYobrVtiXI", "name": "Jan Burger - جان برجر‎", "lat": 24.632401, "lon": 46.56467000000001, "address": "Najd, Riyadh", "types": "restaurant,point_of_interest,food,establishment", "rating": 3.7}, {"place_id": "ChIJJy0z8s0eLz4RjnxvFPZScNs", "name": "Abu Jbara Restaurant ابوجبارة", "lat": 24.6325413, "lon": 46.5648429, "address": "JHJ7+XXJ, Riyadh", "types": "restaurant,point_of_interest,food,establishment", "rating": 3.9}, {"place_id": "ChIJtVnf98seLz4ReJs8rjHjVo8", "name": "Hamburgini هامبرغيني - Dhahrat Laban", "lat": 24.6323112, "lon": 46.5657878, "address": "4185 الشفا الرياض 13781", "types": "meal_delivery,restaurant,point_of_interest,food,establishment", "rating": 3.9}, {"place_id": "ChIJCzYquM0eLz4RRVFln1NjjqE", "name": "KFC", "lat": 24.6326132, "lon": 46.5663484, "address": "Shefa St Dahyat Labn District", "types": "restaurant,point_of_interest,food,establishment", "rating": 3.5}, {"place_id": "ChIJZSLjHcweLz4RGsLtpzb0dJw", "name": "Al Romansiah", "lat": 24.63484200000001, "lon": 46.568347, "address": "مخرج 33, Riyadh", "types": "restaurant,point_of_interest,food,establishment", "rating": 4.5}, {"place_id": "ChIJlY50D5UZLz4RtdfjtAiS_Ho", "name": "Herfy", "lat": 24.5774162, "lon": 46.5757367, "address": "عبد الرحمن الداخل، شارع بلال بن رباح، حي طويق, HHGG+X79, Riyadh", "types": "restaurant,point_of_interest,food,establishment", "rating": 3.7}, {"place_id": "ChIJLTvyOZMZLz4R4BTgEEXkHDo", "name": "Kudu - Tuwaiq - Riyadh", "lat": 24.5777535, "lon": 46.5803146, "address": "2448 Bilal Ibn Rabah, Riyadh", "types": "restaurant,meal_delivery,meal_takeaway,point_of_interest,food,establishment", "rating": 3.8}, {"place_id": "ChIJ49k3qlQZLz4Rm6V_x2O-0ok", "name": "Derati Restaurant", "lat": 24.6368753, "lon": 46.58854249999999, "address": "Prince Ahmed Bin Abdulaziz Road, Riyadh", "types": "restaurant,food,point_of_interest,establishment", "rating": 3.7}, {"place_id": "ChIJh4TR0OwaLz4Riy8YpZlhMQI", "name": "Hardee's", "lat": 24.6004174, "lon": 46.6442813, "address": "Aishah Bint Abi Bakr, Riyadh", "types": "restaurant,food,point_of_interest,establishment", "rating": 3.8}, {"place_id": "ChIJB-FQ1-waLz4RCdFPFyBEZyk", "name": "KFC", "lat": 24.6004069, "lon": 46.6441676, "address": "Aishah Bint Abi Bakr, Riyadh", "types": "restaurant,food,point_of_interest,establishment", "rating": 3.7}, {"place_id": "ChIJE8eGWQAQLz4RRagp_Xgqc8g", "name": "Derati Restaurants & Kitchens", "lat": 24.5881775, "lon": 46.66901430000001, "address": "Al Souweidi Al Aam, Riyadh", "types": "restaurant,food,point_of_interest,establishment", "rating": 3.8}, {"place_id": "ChIJDXkIKhkQLz4RcR3mX5C4JHw", "name": "Mama Noura", "lat": 24.5717473, "lon": 46.6653609, "address": "Aishah Bint Abi Bakr, Riyadh", "types": "restaurant,food,point_of_interest,establishment", "rating": 4.2}, {"place_id": "ChIJQYSKDX4aLz4RaaG5jLNQ5CU", "name": "!ليتل سيزرز بيتزا! بيتزا Little Caesars Pizza! Pizza!", "lat": 24.5805229, "lon": 46.6309718, "address": "Hamza Bin Abdulmutalab, Riyadh", "types": "meal_delivery,restaurant,food,point_of_interest,establishment", "rating": 3.9}, {"place_id": "ChIJ-VyozvIaLz4Ro42YEQnnZQA", "name": "McDonald's", "lat": 24.598766, "lon": 46.640038, "address": "Riyadh", "types": "restaurant,food,point_of_interest,establishment", "rating": 3.6}, {"place_id": "ChIJUy220-waLz4Rr4Eg_30WJD0", "name": "Al Tazaj", "lat": 24.6002206, "lon": 46.6443952, "address": "طريق عائشة بنت أبي بكر،, Riyadh", "types": "restaurant,food,point_of_interest,establishment", "rating": 3.6}, {"place_id": "ChIJ65IPLgsaLz4RhhweqgjBK8E", "name": "KFC", "lat": 24.5724179, "lon": 46.61225279999999, "address": "Makkah Road, Riyadh", "types": "restaurant,food,point_of_interest,establishment", "rating": 3.5}, {"place_id": "ChIJt4kxUsEaLz4RCOUKyxtc7mk", "name": "Subway", "lat": 24.626389, "lon": 46.658896, "address": "4776 Al Madinah Almunawaruh St, Riyadh", "types": "restaurant,food,point_of_interest,establishment", "rating": 3.8}, {"place_id": "ChIJZf7jbGYaLz4R3_N-S2zDrGY", "name": "McDonald's", "lat": 24.588635, "lon": 46.623655, "address": "Al Gharbiya, Riyadh", "types": "restaurant,food,point_of_interest,establishment", "rating": 3.8}, {"place_id": "ChIJjaz0zJIZLz4R_CMTVKt2r60", "name": "KFC", "lat": 24.5777937, "lon": 46.58212329999999, "address": "Bilal Ibn Rabah, Riyadh", "types": "restaurant,food,point_of_interest,establishment", "rating": 3.6}, {"place_id": "ChIJxdr1vHIaLz4R7wyVFK3oER8", "name": "Cheese Restaurant", "lat": 24.5787697, "lon": 46.6136806, "address": "السويدي شارع الشيخ محمد بن عبداللطيفAs", "types": "restaurant,food,point_of_interest,establishment", "rating": 4}, {"place_id": "ChIJo-ouTJwQLz4RsAMdeflWbGk", "name": "Herfy", "lat": 24.5692395, "lon": 46.61903469999999, "address": "Western Ring Road, HJ99+MJV, Riyadh", "types": "restaurant,food,point_of_interest,establishment", "rating": 3.6}, {"place_id": "ChIJwTpP3WwaLz4RQ3X6KwUWgTQ", "name": "Maestro Pizza", "lat": 24.5825227, "lon": 46.61384040000001, "address": "طريق المدينة المنورة، العريجاء الغربية، الرياض 6655", "types": "meal_delivery,meal_takeaway,restaurant,food,point_of_interest,establishment", "rating": 4.2}, {"place_id": "ChIJlQhM72waLz4RS7MPVyXjJE0", "name": "Jan Burger - جان برجر‎", "lat": 24.582688, "lon": 46.61426700000001, "address": "Al Madina Al Munawwarah Road, Riyadh", "types": "restaurant,food,point_of_interest,establishment", "rating": 3.8}, {"place_id": "ChIJiUR3-2caLz4RTANuKB0ylnQ", "name": "WokKong - ووك كونج", "lat": 24.5917799, "lon": 46.62260299999999, "address": "Riyadh", "types": "restaurant,food,point_of_interest,establishment", "rating": 4}, {"place_id": "ChIJJbjm-mcaLz4Rbx1JEifk1W4", "name": "Domino's Pizza دومينوز بيتزا", "lat": 24.591838, "lon": 46.62282099999999, "address": "6357-6405 Hamzah Ibn Abdul Muttalib St, الرياض", "types": "meal_delivery,meal_takeaway,restaurant,food,point_of_interest,establishment", "rating": 3.9}, {"place_id": "ChIJUYqgCjgPLz4RnpoB7YhRuOk", "name": "KFC", "lat": 24.59506409999999, "lon": 46.737091, "address": "Al Bathaa, Riyadh", "types": "restaurant,food,point_of_interest,establishment", "rating": 3.9}, {"place_id": "ChIJ1cVl5EEELz4R5OEzVhvNnmQ", "name": "Kudu - Al Malaz", "lat": 24.6663876, "lon": 46.72442909999999, "address": "Al Farazdaq Street, Riyadh", "types": "restaurant,meal_delivery,meal_takeaway,food,point_of_interest,establishment", "rating": 4}, {"place_id": "ChIJnZ5ZSz0FLz4RihrvYGp1PxY", "name": "KFC", "lat": 24.62540690000001, "lon": 46.6889225, "address": "Shemesi St, Riyadh", "types": "restaurant,food,point_of_interest,establishment", "rating": 3.9}, {"place_id": "ChIJq84YFOEELz4ROWiv-CYRGpI", "name": "Herfy", "lat": 24.6399265, "lon": 46.6931508, "address": "8905 الامام عبدالعزيز بن محمد بن سعود الرياض 12741", "types": "restaurant,food,point_of_interest,establishment", "rating": 3.8}, {"place_id": "ChIJyX4wTlgFLz4R3iObwDBk8DE", "name": "KFC", "lat": 24.5962469, "lon": 46.6817783, "address": "Al Souweidi Al Aam, Riyadh", "types": "restaurant,food,point_of_interest,establishment", "rating": 3.9}, {"place_id": "ChIJN3jihUcFLz4Rw8bNf1QI5pk", "name": "Herfy", "lat": 24.6131416, "lon": 46.6820341, "address": "JM7J+7R3, Riyadh", "types": "restaurant,food,point_of_interest,establishment", "rating": 3.8}, {"place_id": "ChIJXRidP34FLz4RnG3cNGpCmtg", "name": "Subway", "lat": 24.59907999999999, "lon": 46.698334, "address": "8043 Main Street, Block #3543 Al-Suwaidi, الرياض", "types": "restaurant,food,point_of_interest,establishment", "rating": 3.7}, {"place_id": "ChIJvSR3omIFLz4RzCu5Zyoj5lE", "name": "McDonald's", "lat": 24.601027, "lon": 46.69856499999999, "address": "Qaser Mall, Riyadh", "types": "restaurant,food,point_of_interest,establishment", "rating": 3.8}, {"place_id": "ChIJ223iDn4FLz4RixmJTjgG6L0", "name": "Domino's Pizza دومينوز بيتزا", "lat": 24.603647, "lon": 46.704694, "address": "3469 Al Aam St, Riyadh", "types": "meal_delivery,meal_takeaway,restaurant,food,point_of_interest,establishment", "rating": 4.1}, {"place_id": "ChIJC2VrFX4FLz4RdpXEjmGndfY", "name": "Maestro Pizza", "lat": 24.60386579999999, "lon": 46.7056246, "address": "السويدي، 3543 شارع السويدي العام،،, الرياض", "types": "meal_delivery,meal_takeaway,restaurant,food,point_of_interest,establishment", "rating": 4}, {"place_id": "ChIJlcGpyWEFLz4RWNf8RW8AAQs", "name": "Bahrya", "lat": 24.5993098, "lon": 46.69268950000001, "address": "Al Souweidi Al Aam, Riyadh", "types": "restaurant,food,point_of_interest,establishment", "rating": 3.9}, {"place_id": "ChIJySAGNeQILz4RgXfApHLBce8", "name": "DERATI Restaurants - Al Aziziah branch", "lat": 24.5957403, "lon": 46.772965, "address": "العزيزية الشارع العام -جوار العثيم, Riyadh", "types": "restaurant,point_of_interest,food,establishment", "rating": 4.2}, {"place_id": "ChIJfdPb194ILz4R458bBZVk2n0", "name": "KFC", "lat": 24.5874805, "lon": 46.76285169999999, "address": "Al-Nasr St.-Azizia, الرياض", "types": "restaurant,point_of_interest,food,establishment", "rating": 3.6}, {"place_id": "ChIJ106m1t4ILz4RXqg2_kfj8ec", "name": "Domino's Pizza دومينوز بيتزا", "lat": 24.587546, "lon": 46.76267199999999, "address": "3603 An Nasr Road, Riyadh", "types": "meal_delivery,meal_takeaway,restaurant,point_of_interest,food,establishment", "rating": 3.9}, {"place_id": "ChIJ9RZr1d4ILz4RF6J6YFlNshw", "name": "Maestro Pizza", "lat": 24.5871905, "lon": 46.7622902, "address": "An Nasr Road, Riyadh", "types": "meal_delivery,meal_takeaway,restaurant,point_of_interest,food,establishment", "rating": 3.8}, {"place_id": "ChIJp45CKtkILz4Rksx_qILNEkQ", "name": "Jan Burger - جان برجر‎", "lat": 24.587188, "lon": 46.762023, "address": "Al Aziya, Riyadh", "types": "restaurant,point_of_interest,food,establishment", "rating": 3.9}, {"place_id": "ChIJHTo75mwaLz4RTbO2dTGyHRA", "name": "Hamburgini هامبرغيني - Al Aziziyah", "lat": 24.587116, "lon": 46.7618526, "address": "3523 An Nasr Road, Riyadh", "types": "meal_delivery,restaurant,point_of_interest,food,establishment", "rating": 4}, {"place_id": "ChIJb5h3J9kILz4RKE38VThGcKo", "name": "Furn Al Dayaa", "lat": 24.5870813, "lon": 46.7615882, "address": "An Nasr Road, Riyadh", "types": "restaurant,point_of_interest,food,establishment", "rating": 4}, {"place_id": "ChIJq1cYJ9kILz4RxdJL04le1Rg", "name": "Subway", "lat": 24.5870621, "lon": 46.7614545, "address": "طريق العزيزية الفرعي, Al Nasr Rd, الرياض", "types": "restaurant,point_of_interest,food,establishment", "rating": 4}, {"place_id": "ChIJdW1ZH9kILz4R48xM9D1n-eQ", "name": "Herfy", "lat": 24.5871184, "lon": 46.7612623, "address": "HQP6+RGR, طريق النصر، العزيزية،, Riyadh", "types": "restaurant,point_of_interest,food,establishment", "rating": 3.4}, {"place_id": "ChIJDdPT3tgILz4RO27hq8v4A6Y", "name": "مطعم أطلال الرافدين للمشويات أفراد وعوائل الفرع الرئيسي", "lat": 24.5865501, "lon": 46.7613341, "address": "Al Shabab, Riyadh", "types": "restaurant,point_of_interest,food,establishment", "rating": 4.3}, {"place_id": "ChIJ80n9js8ILz4RdUi7twL1dtM", "name": "Burger Lab 01", "lat": 24.5941255, "lon": 46.7571175, "address": "Al Shabab, Riyadh", "types": "restaurant,point_of_interest,food,establishment", "rating": 4.1}, {"place_id": "ChIJOV0Tc6UILz4RyiANnbScpAc", "name": "برغرايززر | Burgerizzr", "lat": 24.614166, "lon": 46.758757, "address": "حي, Al Kharj Road, Riyadh", "types": "restaurant,point_of_interest,food,establishment", "rating": 4.4}, {"place_id": "ChIJ-4dEdKUILz4RZ2XlOaElamc", "name": "Indian Jungle Restaurant", "lat": 24.6141839, "lon": 46.7584589, "address": "Al Kharj Road, Riyadh", "types": "restaurant,point_of_interest,food,establishment", "rating": 4}, {"place_id": "ChIJuxyAHrcILz4RAVVp3JE_NKI", "name": "Jawa spicy food rest", "lat": 24.6046954, "lon": 46.75497099999999, "address": "3479 Southern Ring Branch Road, Riyadh", "types": "restaurant,point_of_interest,food,establishment", "rating": 3.6}, {"place_id": "ChIJs6q6pu-nLz4ROwQybMEgqmg", "name": "مؤسسة أفضل الطعام", "lat": 24.6385521, "lon": 46.8371288, "address": "JRQP+CVC, Riyadh", "types": "restaurant,food,point_of_interest,establishment", "rating": 4.1}, {"place_id": "ChIJt6arCgCnLz4R_J4UGup-bBk", "name": "مطعم ناصر سواتي للوجبات السريعة", "lat": 24.5929082, "lon": 46.8710955, "address": "HVVC+4FR, Riyadh", "types": "restaurant,food,point_of_interest,establishment", "rating": 4.5}, {"place_id": "ChIJ10q-OwCnLz4RouBeiMkXHCI", "name": "مطعم ليالى الذوق", "lat": 24.5966784, "lon": 46.8690532, "address": "2777 الأمير محمد بن عبدالرحمن بن عبدالعزيز, RNMB6817, 6817, الرياض", "types": "restaurant,food,point_of_interest,establishment", "rating": 4.6}, {"place_id": "ChIJDVQyfdmmLz4RQbnEBZdeIQI", "name": "Pakistani Bufia", "lat": 24.5970011, "lon": 46.8687998, "address": "HVW9+RG3, Riyadh", "types": "restaurant,food,point_of_interest,establishment", "rating": 4}, {"place_id": "ChIJjeZniAYDLz4ReHOV4vPL4j0", "name": "Lazeez Point Restaurant _ مطعم نقطة لزيز", "lat": 24.5970235, "lon": 46.86878650000001, "address": "Prince Mohammed Bin Abdulrahman, Riyadh", "types": "restaurant,food,point_of_interest,establishment", "rating": 4.4}, {"place_id": "ChIJ2Y1GagCnLz4RE7MZQspmzsE", "name": "مطاعم كرم اليمن", "lat": 24.5955968, "lon": 46.8687823, "address": "4733 Prince Mohammed Bin Abdulrahman Bin Abdulaziz, Riyadh", "types": "restaurant,food,point_of_interest,establishment", "rating": 4.4}, {"place_id": "ChIJo4K2fwCnLz4RMOIADcjeiwY", "name": "KPK PAKISTANI RESTAURANT", "lat": 24.6234459, "lon": 46.8809561, "address": "JVFJ+99G, Riyadh", "types": "restaurant,food,point_of_interest,establishment", "rating": ""}, {"place_id": "ChIJoz0NbACnLz4R68L_8nLDCEQ", "name": "مطعم كبسة الجزيرة البخاري", "lat": 24.62341020000001, "lon": 46.8808374, "address": "JVFJ+99P, Riyadh", "types": "restaurant,food,point_of_interest,establishment", "rating": 3.6}, {"place_id": "ChIJHSMmyq8DLz4Rfvtyp1U6T_0", "name": "NORTHEN TASTE RESTAURANT مطعم المذاق الشمالى", "lat": 24.62363380000001, "lon": 46.8808398, "address": "مغیب البر, Riyadh", "types": "restaurant,food,point_of_interest,establishment", "rating": 4.2}, {"place_id": "ChIJFfXp6o-nLz4RxuRogAzFyd8", "name": "مطعم عبق الشيف", "lat": 24.5997666, "lon": 46.8672563, "address": "Near 7168-7376 Prince Mohammed Bin Abdulrahman Bin Abdulaziz, Al Mashael Riyadh 14328, الرياض", "types": "restaurant,food,point_of_interest,establishment", "rating": 5}, {"place_id": "ChIJF94fegCnLz4RLVTFVeT8nbg", "name": "مطعم", "lat": 24.6240612, "lon": 46.8807006, "address": "JVFJ+J7G, Riyadh", "types": "restaurant,food,point_of_interest,establishment", "rating": 4.5}, {"place_id": "ChIJGSgzZwCnLz4RWVT2YM-2rUo", "name": "بوفيه عباير الباديه", "lat": 24.6001094, "lon": 46.8670334, "address": "JV28+2RV, Riyadh", "types": "restaurant,food,point_of_interest,establishment", "rating": 4.5}, {"place_id": "ChIJrTZaawCnLz4RHB7IqyzaXVA", "name": "فوال ماما علياء", "lat": 24.6242338, "lon": 46.880491, "address": "JVFJ+M5P, Riyadh", "types": "restaurant,food,point_of_interest,establishment", "rating": 4.9}, {"place_id": "ChIJ1y8EKACnLz4R1JpfWhG6ER4", "name": "BIRYANI HOUSE 2", "lat": 24.6005222, "lon": 46.8669691, "address": "RNMB7260، 7260 الاعوض، 2560, الرياض", "types": "restaurant,food,point_of_interest,establishment", "rating": 2.7}, {"place_id": "ChIJfeaXUgChLz4RggBLF6R8ggU", "name": "Bogura Restaurant 2", "lat": 24.5823563, "lon": 46.8732438, "address": "HVJF+W7X, Riyadh", "types": "restaurant,food,point_of_interest,establishment", "rating": ""}, {"place_id": "ChIJgfRGsZbgLj4RRjxZSMNS1Js", "name": "Herfy", "lat": 24.7449224, "lon": 46.52985, "address": "شارع الأمير عبد الله بن عبد الرحمن - حي ظهرة العودة, PGVH+XW9, Riyadh", "types": "restaurant,food,point_of_interest,establishment", "rating": 3.4}, {"place_id": "ChIJbYwkcm4eLz4Rx3-nsq_fgNM", "name": "FireGrill", "lat": 24.6866929, "lon": 46.5822539, "address": "2622 Prince Meshaal Ibn Abd Al Aziz, Riyadh", "types": "restaurant,food,point_of_interest,establishment", "rating": 4.2}, {"place_id": "ChIJh516nHEeLz4RQ9hKsSbdqR4", "name": "Herfy", "lat": 24.6877778, "lon": 46.5858333, "address": "Asir Street, MHQP+488, Al Amir Mashal Ibn Abdul Aziz, Irqah, Riyadh", "types": "restaurant,food,point_of_interest,establishment", "rating": 3.6}, {"place_id": "ChIJPZta8HMeLz4REnBRFVjfm3Q", "name": "برغرايززر | Burgerizzr", "lat": 24.6899693, "lon": 46.58776690000001, "address": "3151 Hasan Malki, 6315, Riyadh", "types": "restaurant,food,point_of_interest,establishment", "rating": 4.2}, {"place_id": "ChIJUVZYawvhLj4R1So7I819pwk", "name": "Shawaya House", "lat": 24.7489702, "lon": 46.57218750000001, "address": "King Abdulaziz Road, Diriyah", "types": "restaurant,food,point_of_interest,establishment", "rating": 3.8}, {"place_id": "ChIJ7x8JEJUeLz4RjeQa3Z0Avak", "name": "Domino's Pizza دومينوز بيتزا", "lat": 24.653464, "lon": 46.575765, "address": "2979-3001 Taif Street, Riyadh", "types": "meal_takeaway,meal_delivery,restaurant,food,point_of_interest,establishment", "rating": 3.9}, {"place_id": "ChIJYREbpwzhLj4Rs5gkDoqPuq0", "name": "Kudu - Al Diriyah", "lat": 24.7508013, "lon": 46.5732751, "address": "6916 King Abdulaziz Road, Diriyah", "types": "restaurant,meal_takeaway,meal_delivery,food,point_of_interest,establishment", "rating": 3.9}, {"place_id": "ChIJcyIgW3PhLj4RBqdmA5kLCiY", "name": "!ليتل سيزرز بيتزا! بيتزا Little Caesars Pizza! Pizza!", "lat": 24.7519775, "lon": 46.5722953, "address": "الملك عبدالله بن عبدالعزيز, King Abdullah Bin Abdulaziz, Al Khalidiya , Diriyah طريك, الدرعية", "types": "meal_delivery,restaurant,food,point_of_interest,establishment", "rating": 3.9}, {"place_id": "ChIJ4VI6cHPhLj4RNe0OBcUwEzI", "name": "Subway Diriyah", "lat": 24.7520656, "lon": 46.5722385, "address": "Ibn Abdulrahman Saud St, 5332 King Abdulaziz, الدرعية", "types": "restaurant,food,point_of_interest,establishment", "rating": 3.5}, {"place_id": "ChIJT_PRrwzhLj4RIAtkVPiprLM", "name": "Domino's Pizza دومينوز بيتزا", "lat": 24.750906, "lon": 46.57358199999999, "address": "King Abdulaziz Road, Diriyah", "types": "meal_takeaway,meal_delivery,restaurant,food,point_of_interest,establishment", "rating": 3.6}, {"place_id": "ChIJd06kVXPhLj4RNBfOzhuv5SI", "name": "Herfy", "lat": 24.751217, "lon": 46.57400409999999, "address": "طريق الملك عبد العزيز، الخالدية،, QH2F+FJJ, Diriyah", "types": "restaurant,food,point_of_interest,establishment", "rating": 3.6}, {"place_id": "ChIJY1II7XPhLj4Rcm7_55muenI", "name": "KFC", "lat": 24.7530371, "lon": 46.57780939999999, "address": "King Abdul Aziz street, New Driyaa", "types": "restaurant,food,point_of_interest,establishment", "rating": 3.9}, {"place_id": "ChIJ-YNwWLnjLj4RwcYrJZK8Gkw", "name": "My Noodles", "lat": 24.6847802, "lon": 46.5022326, "address": "شارع, Riyadh", "types": "restaurant,food,point_of_interest,establishment", "rating": 4.7}, {"place_id": "ChIJVTsjAADfLj4R5LcZZZ4ZCn4", "name": "Dagamsaah", "lat": 24.721094, "lon": 46.51090300000001, "address": "PGC6+C9, Diriyah", "types": "restaurant,food,point_of_interest,establishment", "rating": 3}, {"place_id": "ChIJJ0yeeK8fLz4RFny_FwSRR8A", "name": "ورقة البركة للخضار والفواكة", "lat": 24.66539380000001, "lon": 46.5163725, "address": "عمر, شارع عمير بن سنان بن عرفطة, Riyadh", "types": "restaurant,store,food,point_of_interest,establishment", "rating": 3.3}, {"place_id": "ChIJIYvHaL4dLz4R5mWmBetBjUU", "name": "Luthan Hotel and Spa", "lat": 24.7066487, "lon": 46.6417087, "address": "Building No.7358 Al Hanka, Riyadh", "types": "spa,lodging,restaurant,point_of_interest,food,establishment", "rating": 4}, {"place_id": "ChIJZQpKH4kdLz4RdzT04i1pD9s", "name": "Dining Hall", "lat": 24.7209893, "lon": 46.6196551, "address": "Building 30, Riyadh", "types": "restaurant,point_of_interest,food,establishment", "rating": 3.3}, {"place_id": "ChIJvQ-6F9McLz4RYaUxjrbxKnM", "name": "Najd Village", "lat": 24.6976883, "lon": 46.66923329999999, "address": "شارع التخصصي،, Riyadh", "types": "restaurant,point_of_interest,food,establishment", "rating": 3.9}, {"place_id": "ChIJ349eD8UdLz4RTrIFtTEZfSY", "name": "Domino's Pizza دومينوز بيتزا", "lat": 24.692357, "lon": 46.605016, "address": "Prince Mashaal Ibn Abdulaziz St, Riyadh", "types": "meal_delivery,meal_takeaway,restaurant,point_of_interest,food,establishment", "rating": 3.8}, {"place_id": "ChIJwe4XsUPiLj4RQ-c2QDWJ6nM", "name": "Burger King - Bin Turkey", "lat": 24.746302, "lon": 46.61918, "address": "Near to Black Gold Treasures Station, Prince Turki Ibn Abdulaziz Al Awwal Road, Riyadh", "types": "restaurant,point_of_interest,food,establishment", "rating": 4.1}, {"place_id": "ChIJa256NHQdLz4RgKf3T4bqQYA", "name": "برجر كاسل", "lat": 24.714561, "lon": 46.6345087, "address": "King Abdullah Road, Riyadh", "types": "restaurant,point_of_interest,food,establishment", "rating": 4.2}, {"place_id": "ChIJ5Satc0QdLz4RSAl1cwR7SYc", "name": "!ليتل سيزرز بيتزا! بيتزا Little Caesars Pizza! Pizza!", "lat": 24.7247857, "lon": 46.65586740000001, "address": "King Abdullah Road, Riyadh", "types": "meal_delivery,meal_takeaway,restaurant,point_of_interest,food,establishment", "rating": 3.9}, {"place_id": "ChIJIWNqqXUdLz4RJu2c5VEU8kE", "name": "Shawarmer | شاورمر", "lat": 24.7133267, "lon": 46.6338494, "address": "King Abdullah Road, Riyadh", "types": "meal_takeaway,restaurant,point_of_interest,food,establishment", "rating": 4}, {"place_id": "ChIJsxjZisEcLz4RrzLRwuwLY1U", "name": "McDonald's", "lat": 24.683756, "lon": 46.652378, "address": "Riyadh", "types": "restaurant,point_of_interest,food,establishment", "rating": 4}, {"place_id": "ChIJrTh6V8QdLz4RoWF1NFryaPc", "name": "Tim Hortons", "lat": 24.6939582, "lon": 46.6047546, "address": "Prince Mashal Ibn Abdulaziz, Riyadh", "types": "cafe,bakery,store,restaurant,point_of_interest,food,establishment", "rating": 4.2}, {"place_id": "ChIJkZ3gVcQdLz4R4u46R2Isebg", "name": "Zaatar W Zeit Irqa", "lat": 24.6934269, "lon": 46.60554919999999, "address": "Prince Meshaal Ibn Abd Al Aziz, Riyadh", "types": "restaurant,point_of_interest,food,establishment", "rating": 4.2}, {"place_id": "ChIJhYPLT8QdLz4RfAxzxPsRBps", "name": "Casapasta", "lat": 24.6939384, "lon": 46.6060474, "address": "شارع الأمير مشعل بن عبد العزيز،, Riyadh", "types": "restaurant,point_of_interest,food,establishment", "rating": 4}, {"place_id": "ChIJ263z0mseLz4RBmP9ikCDeXM", "name": "McDonald's", "lat": 24.693768, "lon": 46.60643499999999, "address": "Prince Meshaal Ibn Abd Al Aziz, Riyadh", "types": "restaurant,point_of_interest,food,establishment", "rating": 3.8}, {"place_id": "ChIJfdAP8pkdLz4RdF43mwsw_7g", "name": "Subway", "lat": 24.713034, "lon": 46.62135899999999, "address": "King Khalid University Hospital, Block #3289 Internal Path, KSU District 6772, الرياض", "types": "restaurant,point_of_interest,food,establishment", "rating": 3.4}, {"place_id": "ChIJlRTS0xEDLz4RZGQSvhoBMXs", "name": "Subway", "lat": 24.691925, "lon": 46.62699, "address": "Dist, Al Jazeera Building, 3333 Mousa Ibn Nasir St, Riyadh", "types": "restaurant,point_of_interest,food,establishment", "rating": 4.1}, {"place_id": "ChIJl4Bl3ogdLz4Rr_yWyYpFW8w", "name": "Student Restaurant", "lat": 24.7209933, "lon": 46.6200512, "address": "PJCC+92V, Riyadh", "types": "restaurant,point_of_interest,food,establishment", "rating": 3.5}, {"place_id": "ChIJ7YtwEAkDLz4RXjJSAj_PYvc", "name": "Sushi Yoshi", "lat": 24.7048211, "lon": 46.7061255, "address": "Dababt street, PP34+WFC, Al Hayat Newspaper Building, Riyadh", "types": "restaurant,food,point_of_interest,establishment", "rating": 4}, {"place_id": "ChIJY1-YF44DLz4RQZFZAGcnrog", "name": "Wooden Bakery", "lat": 24.6941192, "lon": 46.7226815, "address": "Salah Ad Din Al Ayyubi Road, Riyadh", "types": "bakery,restaurant,food,point_of_interest,store,establishment", "rating": 4.2}, {"place_id": "ChIJLcnbLYkCLz4RrYbh5eg7NHY", "name": "Najd Village", "lat": 24.7426129, "lon": 46.70469869999999, "address": "Abi Bakr As Siddiq Road, Riyadh", "types": "restaurant,food,point_of_interest,establishment", "rating": 3.9}, {"place_id": "ChIJz6fBg3EDLz4RYzStY6neLrU", "name": "Mama Noura", "lat": 24.6916263, "lon": 46.70188479999999, "address": "prince faisal, Riyadh", "types": "restaurant,food,point_of_interest,establishment", "rating": 4.3}, {"place_id": "ChIJkQmaIRsCLz4Rh0fT4hQso6E", "name": "Burger King - Al Quds", "lat": 24.75744600000001, "lon": 46.740876, "address": "Exit 10, الطريق الدائري الشرقي, Al Hashimi Rd, Before, الرياض", "types": "restaurant,food,point_of_interest,establishment", "rating": 3.9}, {"place_id": "ChIJVaBUhL4CLz4RZt_hFly_z4U", "name": "Al Jalab Restaurant", "lat": 24.733784, "lon": 46.6869968, "address": "King Abdulaziz Road, Riyadh", "types": "restaurant,food,point_of_interest,establishment", "rating": 4.5}, {"place_id": "ChIJGSYDr44DLz4RN8toPusksnY", "name": "Kudu - Al Seteen Palace", "lat": 24.6905735, "lon": 46.7231741, "address": "Al Othaim Mall, As Siteen St, Riyadh", "types": "restaurant,meal_delivery,meal_takeaway,food,point_of_interest,establishment", "rating": 3.9}, {"place_id": "ChIJuWlIE3MDLz4RsC-64x064s8", "name": "Al Saudi Restaurant", "lat": 24.6957429, "lon": 46.70311350000001, "address": "Al Amariyah, Riyadh", "types": "restaurant,food,point_of_interest,establishment", "rating": 3.9}, {"place_id": "ChIJdZEv6ecCLz4RgqQ02zKka6Y", "name": "TOKYO", "lat": 24.7181459, "lon": 46.68670509999999, "address": "Al Urubah Road, Riyadh", "types": "restaurant,food,point_of_interest,establishment", "rating": 4.4}, {"place_id": "ChIJx0mOTHIDLz4RcZSVbnUzG7U", "name": "Sheikh Al-Mandi Restaurant", "lat": 24.693749, "lon": 46.70186499999999, "address": "Prince Abdulaziz Ibn Musaid Ibn Jalawi Street, Riyadh", "types": "restaurant,food,point_of_interest,establishment", "rating": 3.6}, {"place_id": "ChIJkS9w-7ACLz4R5CsvilgzCLM", "name": "Kudu - Al Wurud", "lat": 24.7322926, "lon": 46.6758245, "address": "King Abdullah Road, Riyadh", "types": "restaurant,meal_delivery,meal_takeaway,food,point_of_interest,establishment", "rating": 4}, {"place_id": "ChIJm6hMaDkDLz4RqJTjJWwjyow", "name": "White Garden Olaya", "lat": 24.6943084, "lon": 46.6836945, "address": "Al Howaishel Tower, Wadi Al Artawi Street, Riyadh", "types": "restaurant,night_club,bar,food,point_of_interest,establishment", "rating": 4.2}, {"place_id": "ChIJvfNeKVIDLz4R1hfDaZlnMpk", "name": "Herfy", "lat": 24.6755556, "lon": 46.675, "address": "Makkah Al Mukarramah Branch Road, MMGG+62C, Riyadh", "types": "restaurant,food,point_of_interest,establishment", "rating": 3.7}, {"place_id": "ChIJXeM8mSkdLz4RCIFhPuYxocw", "name": "KFC", "lat": 24.7045778, "lon": 46.6647609, "address": "Tahkassose street, Euromarche market, الرياض", "types": "restaurant,food,point_of_interest,establishment", "rating": 3.9}, {"place_id": "ChIJ7RaKjecCLz4RxrwSHReHeh4", "name": "Herfy", "lat": 24.7200236, "lon": 46.6905001, "address": "Al Urubah Road, PMCR+262, Riyadh", "types": "restaurant,food,point_of_interest,establishment", "rating": 3.8}, {"place_id": "ChIJcXc8XNMALz4RPgfuyDKND4Y", "name": "Kudu - Al Rayyan", "lat": 24.7092575, "lon": 46.7889345, "address": "5006 Al-Imam Ahmad Bin Hanbal Street, Riyadh", "types": "restaurant,meal_takeaway,meal_delivery,food,point_of_interest,establishment", "rating": 4}, {"place_id": "ChIJhQuuVOIGLz4R3iqH5FHwu1E", "name": "Diet Center - دايت سنتر", "lat": 24.681048, "lon": 46.784153, "address": "Shop, Riyadh", "types": "grocery_or_supermarket,restaurant,store,food,health,point_of_interest,establishment", "rating": 4.1}, {"place_id": "ChIJVxMqnBsHLz4RpoAHh7g8yD4", "name": "KFC", "lat": 24.6840264, "lon": 46.7923858, "address": "Exit 15, Saad Ibn Abdalrahman Al awal St, الرياض", "types": "restaurant,food,point_of_interest,establishment", "rating": 3.6}, {"place_id": "ChIJx9eR7x4BLz4Ryd-QlHP5c3Y", "name": "Subway Rawdah, Khurais Road", "lat": 24.7301595, "lon": 46.78588999999999, "address": "4792 Khurais Road, District, Riyadh", "types": "restaurant,food,point_of_interest,establishment", "rating": 3.8}, {"place_id": "ChIJ2Q8U8tIALz4Rp_tTDjWMx1Y", "name": "McDonald's", "lat": 24.713222, "lon": 46.794646, "address": "Al Imam Al Shafei, Riyadh", "types": "restaurant,food,point_of_interest,establishment", "rating": 3.8}, {"place_id": "ChIJHdZEGWMALz4R5T5NnGCpRyI", "name": "Al Romansiah", "lat": 24.7585131, "lon": 46.8140823, "address": "سلمان الفارسي، النهضة 6901, Riyadh", "types": "restaurant,food,point_of_interest,establishment", "rating": 4.3}, {"place_id": "ChIJI7PTCyQHLz4R24t0UwVfWGI", "name": "Al Romansiah", "lat": 24.695907, "lon": 46.792434, "address": "Al Zoubair Ibn Al Awwam, Riyadh", "types": "restaurant,food,point_of_interest,establishment", "rating": 4.2}, {"place_id": "ChIJsyeVuLwALz4RgDmHQWAe0CE", "name": "Al Romansiah", "lat": 24.7336, "lon": 46.814671, "address": "Saad Ibn Abi Waqas, An Nasim Al Gharbi, Riyadh", "types": "restaurant,food,point_of_interest,establishment", "rating": 4.3}, {"place_id": "ChIJT5rN9VUGLz4R5C4zRMWoqK4", "name": "Herfy", "lat": 24.6680854, "lon": 46.7824895, "address": "Eastern Ring Branch Road, Riyadh", "types": "restaurant,food,point_of_interest,establishment", "rating": 3.5}, {"place_id": "ChIJcyYPm3MBLz4R51aIlmqGHdc", "name": "KFC", "lat": 24.7332176, "lon": 46.76443689999999, "address": "Al Hassan Ibn Ali Street, Riyadh", "types": "restaurant,food,point_of_interest,establishment", "rating": 3.6}, {"place_id": "ChIJVaWo55IALz4RetrCA1iOf0I", "name": "KFC", "lat": 24.7420704, "lon": 46.80721659999999, "address": "طريق خريص, Nassem, الرياض", "types": "restaurant,food,point_of_interest,establishment", "rating": 3.6}, {"place_id": "ChIJPYU0eHYBLz4RG0mbBny_-KM", "name": "Burger King - Rawdah", "lat": 24.735777, "lon": 46.76231, "address": "Opposite Al Rajhi Bank, Al Hasan Bin Ali St, Riyadh", "types": "restaurant,food,point_of_interest,establishment", "rating": 3.8}, {"place_id": "ChIJV6D9ROwGLz4RlL859sQOPdQ", "name": "Herfy", "lat": 24.67681020000001, "lon": 46.770263, "address": "8523 Prince Mouteeb Ibn Abd Al Aziz, Riyadh", "types": "restaurant,food,point_of_interest,establishment", "rating": 3.6}, {"place_id": "ChIJUcjed3MBLz4Rj1GllI6Omqo", "name": "Broast Line", "lat": 24.7329617, "lon": 46.7647911, "address": "Al Hasan Ibn Ali, Riyadh", "types": "restaurant,food,point_of_interest,establishment", "rating": 3.9}, {"place_id": "ChIJU67KXpIALz4RT5FNtJ6gxQQ", "name": "McDonald's", "lat": 24.743031, "lon": 46.808578, "address": "Khurais - 522, Riyadh", "types": "restaurant,food,point_of_interest,establishment", "rating": 3.8}, {"place_id": "ChIJndPg-fMBLz4R8-NCIp1KzAg", "name": "قصر الهند", "lat": 24.75744370000001, "lon": 46.75289959999999, "address": "Dist, Prince Saud bin Abdulaziz Al saud Al kabeer, Riyadh", "types": "restaurant,food,point_of_interest,establishment", "rating": 3.8}, {"place_id": "ChIJEyjAz-qpLz4RkNmZXOR-yqU", "name": "Herfy 157", "lat": 24.7111271, "lon": 46.84413639999999, "address": "عبدالله بن عمر, PR6V+FM2, Riyadh", "types": "restaurant,food,point_of_interest,establishment", "rating": 3.6}, {"place_id": "ChIJ85xT202oLz4RQCUvXyPw8uk", "name": "Herfy 1061 Sulai", "lat": 24.68924740000001, "lon": 46.8528493, "address": "شارع أبو عبيدة عامر بن الجراح، حي السلي, MVQ3+M4X, Riyadh", "types": "restaurant,food,point_of_interest,establishment", "rating": 3.6}, {"place_id": "ChIJR5j03E2oLz4R44_B-LxtSpA", "name": "Herfy 900", "lat": 24.68912809999999, "lon": 46.8529189, "address": "MVQ3+M53, Riyadh", "types": "restaurant,food,point_of_interest,establishment", "rating": 4}, {"place_id": "ChIJh-yl_UuoLz4RKrdtavcCqTM", "name": "Kudu - Khashm Al Aan", "lat": 24.6875049, "lon": 46.8490926, "address": "حي, 4225 طريق ابو عبيدة عامر بن الجراح،, Riyadh", "types": "restaurant,meal_delivery,meal_takeaway,food,point_of_interest,establishment", "rating": 3.7}, {"place_id": "ChIJuV4gRoypLz4RScySI6vNY_U", "name": "فوال وتميس", "lat": 24.7233495, "lon": 46.84815699999999, "address": "PRFX+87M, Riyadh", "types": "restaurant,food,point_of_interest,establishment", "rating": 4.3}, {"place_id": "ChIJdXmEDompLz4RvqpAUHiuSuM", "name": "Herfy 154", "lat": 24.7281426, "lon": 46.85096619999999, "address": "ابي الاسود الدؤلي, PVH2+794, Riyadh", "types": "restaurant,food,point_of_interest,establishment", "rating": 3.7}, {"place_id": "ChIJSZ7D5DWoLz4ROK2S4JK9qcc", "name": "AlBayt AlRomancy Restaurant - As-Saadah", "lat": 24.6860325, "lon": 46.8440331, "address": "Abu Oubaidah Ibn Al Jarrah, Riyadh", "types": "restaurant,meal_takeaway,food,point_of_interest,establishment", "rating": 4.1}, {"place_id": "ChIJW3WEpMKpLz4R8GieHY36nY0", "name": "Kudu - Al Nasim Al Gharbi", "lat": 24.7060216, "lon": 46.83585069999999, "address": "Saad Ibn Abi Waqqas, سعد بن عبدالرحمن, Riyadh", "types": "restaurant,meal_delivery,meal_takeaway,food,point_of_interest,establishment", "rating": 3.9}, {"place_id": "ChIJ0R3XOjeqLz4R8pkSquBpD_U", "name": "Subway", "lat": 24.752251, "lon": 46.860809, "address": "Dist, 2726 Prince Muteb Ibn Abdullah Ibn Abdulaziz St, National Guard Hospital, الرياض", "types": "restaurant,food,point_of_interest,establishment", "rating": 4}, {"place_id": "ChIJDez19ReqLz4RwA9fJFJDT5k", "name": "البيتزا الساخنة فرع 3", "lat": 24.7378894, "lon": 46.84370179999999, "address": "Abi Al Aswad Al Douli, Riyadh", "types": "restaurant,food,point_of_interest,establishment", "rating": 4}, {"place_id": "ChIJX7kfRC6oLz4R3pLtWt4U4C0", "name": "KFC", "lat": 24.6801875, "lon": 46.8334375, "address": "Abu Oubaidah Ibn Al Jarrah, MRJM+39, Riyadh", "types": "restaurant,food,point_of_interest,establishment", "rating": 3.5}, {"place_id": "ChIJPbVsLimoLz4RnDpAmmQHPAw", "name": "KFC", "lat": 24.6802253, "lon": 46.83339040000001, "address": "Exit 16, Obaida Ibn Al-Jarrah Street, الرياض", "types": "restaurant,food,point_of_interest,establishment", "rating": 3.7}, {"place_id": "ChIJSwLQ_hyqLz4RxQ6rTOAlpTA", "name": "McDonald's", "lat": 24.728913, "lon": 46.837199, "address": "Naseem area, Riyadh", "types": "restaurant,food,point_of_interest,establishment", "rating": 3.8}, {"place_id": "ChIJ51CBlByqLz4RokPZGUPuMzE", "name": "KFC", "lat": 24.7295328, "lon": 46.8364104, "address": "Hassan Ibn Thabet, Riyadh", "types": "restaurant,food,point_of_interest,establishment", "rating": 3.7}, {"place_id": "ChIJFUo5zASqLz4R5mlv3fP5Noo", "name": "Hot Pizza Branch 4", "lat": 24.7313523, "lon": 46.8342286, "address": "8031 Hassan Ibn Thabet, Riyadh", "types": "restaurant,food,point_of_interest,establishment", "rating": 4}, {"place_id": "ChIJoUXH6U8HLz4RGj6zSMcD4H4", "name": "Domino's Pizza دومينوز بيتزا", "lat": 24.709587, "lon": 46.81487000000001, "address": "4026 Al Zubair Ibn Al Awam St, Riyadh", "types": "meal_delivery,meal_takeaway,restaurant,food,point_of_interest,establishment", "rating": 3.9}, {"place_id": "ChIJr0IXzgqqLz4RYgl4_P0VLK4", "name": "Domino's Pizza دومينوز بيتزا", "lat": 24.7411934, "lon": 46.8270303, "address": "St, 7768 Hassan Ibn Thabet, Riyadh", "types": "meal_delivery,meal_takeaway,restaurant,food,point_of_interest,establishment", "rating": 4}, {"place_id": "ChIJEws46U8HLz4RI459BU6nVBs", "name": "KFC", "lat": 24.7094289, "lon": 46.814683, "address": "Al-Zubeer In Alawam St, SALAM District, Riyadh", "types": "restaurant,food,point_of_interest,establishment", "rating": 3.7}, {"place_id": "ChIJ23gmR3WqLz4RU-JJlr18Jsk", "name": "Herfy", "lat": 24.7421129, "lon": 46.8263617, "address": "Al Suweidawi, Riyadh", "types": "meal_takeaway,restaurant,food,point_of_interest,establishment", "rating": 3.7}, {"place_id": "ChIJg6Ttl3cHLz4RseAyPaAdJog", "name": "Domino's Pizza دومينوز بيتزا", "lat": 24.682901, "lon": 46.814819, "address": "7637 Al Imam Al Shafie St, Riyadh", "types": "meal_delivery,meal_takeaway,restaurant,food,point_of_interest,establishment", "rating": 3.9}, {"place_id": "ChIJd3J0SczmLj4RY-CJGp7UWec", "name": "KFC", "lat": 24.78519, "lon": 46.5673049, "address": "طريق الملك خالد الفرعي، حي, Diriyah", "types": "restaurant,food,point_of_interest,establishment", "rating": 3.8}, {"place_id": "ChIJswnjqCfkLj4ROooDC6F1xL0", "name": "Give Me Five", "lat": 24.8184613, "lon": 46.59595179999999, "address": "King Salman Bin Abdulaziz Road, Riyadh", "types": "restaurant,food,point_of_interest,establishment", "rating": 4.2}, {"place_id": "ChIJU78n4HnhLj4RDxOlZNeP0hc", "name": "McDonald's", "lat": 24.753613, "lon": 46.584149, "address": "طريق الملك عبدالعزيز, Thager Plaza, Prince Mohammed Bin Salman Bin, الرياض", "types": "restaurant,food,point_of_interest,establishment", "rating": 3.8}, {"place_id": "ChIJrc6uw3nhLj4R2YY_JX3iwoY", "name": "كاريبو كوفي - Caribou Coffee", "lat": 24.753453, "lon": 46.584375, "address": "3322 Prince Mohammed Ibn Salman Ibn Abdulaziz Road, Riyadh", "types": "cafe,bakery,restaurant,store,food,point_of_interest,establishment", "rating": 4.1}, {"place_id": "ChIJd6LS2nnhLj4Ra-LJHTxKBbs", "name": "Shrimp Shack", "lat": 24.7529452, "lon": 46.5840969, "address": "الثغر بلازا طريق الملك خالد الفرعي، حي, الرياض", "types": "restaurant,food,point_of_interest,establishment", "rating": 4.5}, {"place_id": "ChIJEy3-LBDnLj4R5pieT9CoVLY", "name": "رفاه الدرة", "lat": 24.8085074, "lon": 46.5189502, "address": "Waseel Road, تقاطع الملك سلمان بن عبدالعزيز, Riyadh", "types": "restaurant,food,point_of_interest,establishment", "rating": 3.5}, {"place_id": "ChIJAQloOqfdLj4RoQOE50_2fJc", "name": "سان بابلو | San Pablo", "lat": 24.814192, "lon": 46.470931, "address": "Al Amaaria", "types": "restaurant,food,point_of_interest,establishment", "rating": 4}, {"place_id": "ChIJ1SRQe67dLj4RMQyaHUKPl14", "name": "ستين كوب", "lat": 24.8143611, "lon": 46.4705739, "address": "الرياض العماريه, Riyadh", "types": "restaurant,food,point_of_interest,establishment", "rating": 4.6}, {"place_id": "ChIJrXHqukLdLj4R9wiN0jW-sKg", "name": "White Garden العمارية", "lat": 24.8136384, "lon": 46.4700595, "address": "العمارية", "types": "restaurant,food,point_of_interest,establishment", "rating": 5}, {"place_id": "ChIJP6AmbXXdLj4RiLnblp-vWv4", "name": "Also “on Fire “ مطعم اولسو", "lat": 24.8136381, "lon": 46.469952, "address": "العمارية", "types": "restaurant,food,point_of_interest,establishment", "rating": 4.8}, {"place_id": "ChIJ6R46NQDdLj4RNhLk4nX3g1s", "name": "ببلز بيتزا", "lat": 24.8145792, "lon": 46.4702735, "address": "العمارية", "types": "restaurant,food,point_of_interest,establishment", "rating": 4.9}, {"place_id": "ChIJIUGmAwDdLj4REwfZTPYjYRA", "name": "PIZZA BAR OASIS", "lat": 24.8132876, "lon": 46.4692316, "address": "AL AMARIYAH ROAD, Riyadh", "types": "restaurant,food,point_of_interest,establishment", "rating": 4}, {"place_id": "ChIJ33vjwXrkLj4RVWE14aXZ6z8", "name": "Dominos", "lat": 24.81069399999999, "lon": 46.62414099999999, "address": "Rd, Anas Ibn Malik Road, Al Sadhan Hypermarket, Riyadh", "types": "meal_delivery,meal_takeaway,restaurant,food,point_of_interest,establishment", "rating": 3.8}, {"place_id": "ChIJt2vSwAvjLj4RRr9fu90S_pE", "name": "Al Romansiah", "lat": 24.7836905, "lon": 46.6353002, "address": "Raval Tower, 7546 King Fahad Branch Road, Riyadh", "types": "restaurant,food,point_of_interest,establishment", "rating": 4.2}, {"place_id": "ChIJmdOTO5DkLj4RB6imwZ-EUyI", "name": "Pizza Era", "lat": 24.8200347, "lon": 46.6423155, "address": "King Abdulaziz Road, Riyadh", "types": "restaurant,food,point_of_interest,establishment", "rating": 4}, {"place_id": "ChIJydj4ug_kLj4RE9Dm3ksK5qM", "name": "Herfy", "lat": 24.8030721, "lon": 46.6046329, "address": "Anas Ibn Malik Road, RJ33+6VC, Riyadh", "types": "restaurant,food,point_of_interest,establishment", "rating": 3.6}, {"place_id": "ChIJ-R0P2HTjLj4RL23-5Ucak0g", "name": "Almakki Restaurant", "lat": 24.7872584, "lon": 46.634606, "address": "حي الصحافة - طريق الملك فهد, بالقرب من برج هيتال, الرياض", "types": "restaurant,food,point_of_interest,establishment", "rating": 4}, {"place_id": "ChIJxbhwcA_kLj4RZ1aaFzgiPwQ", "name": "Domino's Pizza دومينوز بيتزا", "lat": 24.801601, "lon": 46.60358000000001, "address": "Anas Ibn Malik Road, Riyadh", "types": "meal_delivery,meal_takeaway,restaurant,food,point_of_interest,establishment", "rating": 3.9}, {"place_id": "ChIJl630cA_kLj4RrD64_zNrhhM", "name": "Maestro Pizza", "lat": 24.8017186, "lon": 46.6041354, "address": "طريق أنس ابن مالك،, Riyadh", "types": "meal_delivery,meal_takeaway,restaurant,food,point_of_interest,establishment", "rating": 4.1}, {"place_id": "ChIJeS9YDA_kLj4R0n0ToqAwI1g", "name": "McDonald's", "lat": 24.801954, "lon": 46.60438, "address": "Prince Muhammad Ibn Saad Ibn Abdulaziz Road, Al Malqa, Anas Ibno Malik Road, Riyadh", "types": "restaurant,food,point_of_interest,establishment", "rating": 3.4}, {"place_id": "ChIJ9Y8dsw_kLj4RFrGtSqqGETo", "name": "!ليتل سيزرز بيتزا! بيتزا Little Caesars Pizza! Pizza!", "lat": 24.8034218, "lon": 46.6044176, "address": "الخير بلازا, Anas Ibn Malik Road, Riyadh", "types": "meal_delivery,meal_takeaway,restaurant,food,point_of_interest,establishment", "rating": 3.7}, {"place_id": "ChIJDyEyww3kLj4ROg_lqLFIn-s", "name": "Finzione", "lat": 24.8048248, "lon": 46.6083641, "address": "Anas Ibn Malik Road, Riyadh", "types": "restaurant,food,point_of_interest,establishment", "rating": 4.2}, {"place_id": "ChIJL4XaBHLkLj4RMC3sAsZBeFc", "name": "Burgerizzr", "lat": 24.808721, "lon": 46.617226, "address": "Anas Ibn Malik Road, Riyadh", "types": "restaurant,food,point_of_interest,establishment", "rating": 4.2}, {"place_id": "ChIJJ5xhQZPjLj4R56IolHEcaZE", "name": "KFC", "lat": 24.7852813, "lon": 46.6136486, "address": "7463 Prince Turki Ibn Abdulaziz Al Awwal Road, QJP7+3F, Riyadh", "types": "restaurant,food,point_of_interest,establishment", "rating": 3.9}, {"place_id": "ChIJ04XwTo7jLj4R_hppZL_5tb4", "name": "Herfy", "lat": 24.7893166, "lon": 46.6210064, "address": "حي, Al Imam Saud Ibn Faysal Road, Riyadh", "types": "restaurant,food,point_of_interest,establishment", "rating": 3.7}, {"place_id": "ChIJebdGXpDjLj4RK9IHWLoJFMc", "name": "Pastaria Pasta Bar", "lat": 24.78946970000001, "lon": 46.6213048, "address": "Abdullah Ibn Shahwin, Riyadh", "types": "restaurant,food,point_of_interest,establishment", "rating": 4.2}, {"place_id": "ChIJc0XZhM7lLj4R3rLZpuaWX78", "name": "Mandy Station", "lat": 24.7898423, "lon": 46.62200729999999, "address": "Riyadh", "types": "restaurant,food,point_of_interest,establishment", "rating": 4.1}, {"place_id": "ChIJ5ZMsInvkLj4R7o6TCcKGWZM", "name": "Fit House", "lat": 24.811023, "lon": 46.6251085, "address": "Anas Ibn Malik Road, Riyadh", "types": "health,restaurant,food,point_of_interest,store,establishment", "rating": 3.5}, {"place_id": "ChIJBzOcGYPjLj4RCP8Wk9lQQyg", "name": "Maestro Pizza", "lat": 24.7960335, "lon": 46.6290172, "address": "طريق الملك فهد، الملقا, الرياض", "types": "meal_delivery,meal_takeaway,restaurant,food,point_of_interest,establishment", "rating": 4.1}, {"place_id": "ChIJrR_bT0r9Lj4RzxorTWLlVNc", "name": "Herfy", "lat": 24.7609124, "lon": 46.6736126, "address": "Ibn Sina, QM6F+9C9, Riyadh", "types": "restaurant,food,point_of_interest,establishment", "rating": 3.8}, {"place_id": "ChIJO05ZxrfiLj4RTXg8jY2FuWA", "name": "!ليتل سيزرز بيتزا! بيتزا Little Caesars Pizza! Pizza!", "lat": 24.75797799999999, "lon": 46.6624315, "address": "Prince Turki Bin Abdulaziz Althani St, Riyadh", "types": "meal_delivery,meal_takeaway,restaurant,food,point_of_interest,establishment", "rating": 3.8}, {"place_id": "ChIJZXC8ulr8Lj4RGtOxKFhLS70", "name": "Fairmont Riyadh", "lat": 24.8082207, "lon": 46.7182893, "address": "Area, Business Gate, Riyadh", "types": "lodging,restaurant,food,point_of_interest,establishment", "rating": 4.7}, {"place_id": "ChIJ77it7LjiLj4R4yoH6jXzLYw", "name": "هرفي", "lat": 24.7559561, "lon": 46.6575254, "address": "7084 شارع الأمير تركي بن عبدالعزيز الثاني، حي, Riyadh", "types": "restaurant,food,point_of_interest,establishment", "rating": 3.6}, {"place_id": "ChIJD2oxy9b9Lj4RaYt-IhpCx-I", "name": "Burger King - Exit 8 Dammam Rd", "lat": 24.800738, "lon": 46.743283, "address": "Next to Al-Dawaa Pharmacy, Exit 8, Dammam Branch Road, Riyadh", "types": "restaurant,food,point_of_interest,establishment", "rating": 4}, {"place_id": "ChIJk-5XtQf-Lj4R2d103ECkH20", "name": "Herfy", "lat": 24.7795459, "lon": 46.750084, "address": "شارع خالد بن الوليد، حي, QQH2+R28, Riyadh", "types": "restaurant,food,point_of_interest,establishment", "rating": 3.6}, {"place_id": "ChIJZ-W-yGpXfxURdWHVTHPI13U", "name": "KFC", "lat": 24.7826875, "lon": 46.6615625, "address": "QMM6+3J4, Riyadh", "types": "restaurant,food,point_of_interest,establishment", "rating": 3.6}, {"place_id": "ChIJ8cuhCFLjLj4REs0GKlHrPAc", "name": "KFC", "lat": 24.8083744, "lon": 46.6662244, "address": "Thomama Road, Behind Kingdom hospital, الرياض", "types": "restaurant,food,point_of_interest,establishment", "rating": 3.7}, {"place_id": "ChIJe_KDBUz9Lj4R1AVRhaQE__Q", "name": "777 Burger", "lat": 24.7582818, "lon": 46.6747223, "address": "King Abdul Aziz Branch Road, Riyadh", "types": "restaurant,food,point_of_interest,establishment", "rating": 4.3}, {"place_id": "ChIJkTSXeuX8Lj4RWqPJ5s5v1oE", "name": "Quiznos كويزنوز", "lat": 24.7991285, "lon": 46.6977535, "address": "Uthman Ibn Affan Road, طريق عثمان بن عفان, Riyadh", "types": "restaurant,food,point_of_interest,establishment", "rating": 3.5}, {"place_id": "ChIJhcW6VOP8Lj4RfMjMIVUDXwI", "name": "مطعم رز وبهار", "lat": 24.79605639999999, "lon": 46.6993423, "address": "Uthman Ibn Affan Branch Road, QMWX+CPG, Riyadh", "types": "restaurant,food,point_of_interest,establishment", "rating": 3.6}, {"place_id": "ChIJK5rPqvz8Lj4RxDVBy_alxD0", "name": "Maestro Pizza", "lat": 24.7958716, "lon": 46.699576, "address": "7203 Uthman Ibn Affan Road, Riyadh", "types": "meal_delivery,meal_takeaway,restaurant,food,point_of_interest,establishment", "rating": 4}, {"place_id": "ChIJlQrp4Oj8Lj4R4AXPE_zCp8I", "name": "Burger King - Nada", "lat": 24.80099, "lon": 46.693184, "address": "Opposite Nada Park, Prince Saud Ibn Muhammad Ibn Muqrin Rd, Riyadh", "types": "restaurant,food,point_of_interest,establishment", "rating": 4}, {"place_id": "ChIJUyju7-v8Lj4RWxf807BzhPA", "name": "Roast Cuisine Restaurant", "lat": 24.8043632, "lon": 46.693937, "address": "Uthman Ibn Affan Road, Riyadh", "types": "restaurant,food,point_of_interest,establishment", "rating": 4.5}, {"place_id": "ChIJKaIHNf38Lj4R06iOWlNyF30", "name": "Domino's Pizza دومينوز بيتزا", "lat": 24.7927311, "lon": 46.69983649999999, "address": "7708 Uthman Ibn Affan Branch Road, Riyadh", "types": "meal_delivery,meal_takeaway,restaurant,food,point_of_interest,establishment", "rating": 3.9}, {"place_id": "ChIJKZHECiUALz4R0OHp1bV3QK4", "name": "Herfy", "lat": 24.7809607, "lon": 46.7975115, "address": "Salman Al Farsi, QQJX+92J, Riyadh", "types": "restaurant,food,point_of_interest,establishment", "rating": 3.8}, {"place_id": "ChIJyWpPFhb-Lj4R1cHYN5lvDn4", "name": "kudu - Hamra", "lat": 24.79028, "lon": 46.76635469999999, "address": "طريق الشيخ حسن بن حسين بن علي، الحمراء, Riyadh", "types": "restaurant,meal_delivery,meal_takeaway,food,point_of_interest,establishment", "rating": 4.1}, {"place_id": "ChIJQdmReGQALz4Rr35hb4H4Tqs", "name": "Kudu - Salman Al Farsi St", "lat": 24.760348, "lon": 46.812763, "address": "Opposite Al Rahma Medical Clinic, Salman Al Farsi St, الرياض", "types": "restaurant,meal_delivery,meal_takeaway,food,point_of_interest,establishment", "rating": 3.7}, {"place_id": "ChIJ3QJ9Asf_Lj4RnA2mUBvpYx8", "name": "Kudu - Al Yarmuk", "lat": 24.8055741, "lon": 46.7991467, "address": "Imam Abdullah Ibn Saud Ibn Abdulaziz Branch Road, Riyadh", "types": "restaurant,meal_delivery,meal_takeaway,food,point_of_interest,establishment", "rating": 4}, {"place_id": "ChIJDZnyGsH_Lj4RttmjCov6AKQ", "name": "KFC", "lat": 24.8062418, "lon": 46.80280310000001, "address": "Imam Saud Street, Riyadh", "types": "restaurant,food,point_of_interest,establishment", "rating": 3.8}, {"place_id": "ChIJO3-iUMr_Lj4Rj8fM6bA4p2Y", "name": "Haneefa Restaurant", "lat": 24.8024723, "lon": 46.78931780000001, "address": "6398 Al Muqdah, Riyadh", "types": "restaurant,food,point_of_interest,establishment", "rating": 4}, {"place_id": "ChIJUQAEher_Lj4R45XomS10zqs", "name": "برغرايززر | Burgerizzr", "lat": 24.808596, "lon": 46.806506, "address": "Imam Abdullah Ibn Abdulaziz Rd, Riyadh", "types": "restaurant,food,point_of_interest,establishment", "rating": 4.2}, {"place_id": "ChIJaxG0Wh4ALz4Rj4lISQCUJ5w", "name": "Subway AL-khaleej ( SILVER)", "lat": 24.790465, "lon": 46.808841, "address": "3313 King Abdullah Ibn Abdulaziz Saud St., Al Khaleej, الرياض", "types": "restaurant,food,point_of_interest,establishment", "rating": 4}, {"place_id": "ChIJbXJy7eT_Lj4R0wlNZInmrQs", "name": "Maestro Pizza", "lat": 24.7995225, "lon": 46.8142878, "address": "قلعة الفسطاط، اشبيلية, الرياض", "types": "meal_delivery,meal_takeaway,restaurant,food,point_of_interest,establishment", "rating": 4}, {"place_id": "ChIJz8am5SYALz4RX3yh1qDCxws", "name": "Domino's Pizza دومينوز بيتزا", "lat": 24.78614, "lon": 46.799678, "address": "King Abdullah Road, Riyadh", "types": "meal_delivery,meal_takeaway,restaurant,food,point_of_interest,establishment", "rating": 3.8}, {"place_id": "ChIJkROxkuz_Lj4RniqEo5JhEqk", "name": "مطاعم ومطابخ الجاهز", "lat": 24.8109326, "lon": 46.81193040000001, "address": "الإمام محمد بن سعود, Riyadh", "types": "restaurant,food,point_of_interest,establishment", "rating": 3.7}, {"place_id": "ChIJ9S1f-2kALz4R-3gMYkK06Sw", "name": "KFC", "lat": 24.7670341, "lon": 46.8061705, "address": "Prince Bandar Ibn Abd Al Aziz, Riyadh", "types": "restaurant,food,point_of_interest,establishment", "rating": 3.7}, {"place_id": "ChIJB0LXUa__Lj4RKzrUjnzKwhs", "name": "Toasted Central Kitchen", "lat": 24.82054100000001, "lon": 46.795641, "address": "حي, Hail, Riyadh", "types": "restaurant,food,point_of_interest,establishment", "rating": 3.9}, {"place_id": "ChIJWwxEdqT_Lj4Rj1WoY6WZ5Ik", "name": "Domino's Pizza دومينوز بيتزا", "lat": 24.82189099999999, "lon": 46.800265, "address": "7635 Al Shaikh Jaber Al Ahmed Al Sabah St, الرياض", "types": "meal_delivery,meal_takeaway,restaurant,food,point_of_interest,establishment", "rating": 4}, {"place_id": "ChIJr7NstBYALz4RtUrl99RZfeU", "name": "مطعم الأسطول", "lat": 24.7799087, "lon": 46.81039149999999, "address": "Bahr Al Arab Street, Riyadh", "types": "restaurant,bar,food,point_of_interest,establishment", "rating": 3.6}, {"place_id": "ChIJ2SAe5N-qLz4RLrzXTtgnv9U", "name": "KFC", "lat": 24.7930658, "lon": 46.8630347, "address": "Khores Road, District", "types": "restaurant,point_of_interest,food,establishment", "rating": 3.7}, {"place_id": "ChIJbbSicuCqLz4Rqb9FKfoqiHc", "name": "Burgerizzr", "lat": 24.79207100000001, "lon": 46.862938, "address": "2120 Khurais Road, Riyadh", "types": "restaurant,point_of_interest,food,establishment", "rating": 4.4}, {"place_id": "ChIJy-ORdOCqLz4Ri8UHHJvEoh4", "name": "Domino's Pizza دومينوز بيتزا", "lat": 24.79206079999999, "lon": 46.8628616, "address": "7144 Khurais Road, Riyadh", "types": "meal_delivery,meal_takeaway,restaurant,point_of_interest,food,establishment", "rating": 3.8}, {"place_id": "ChIJ-WRucOCqLz4RPoeMQO6aXjc", "name": "Al Romansiah", "lat": 24.792016, "lon": 46.86200700000001, "address": "14813 Al Anwar, Riyadh", "types": "restaurant,point_of_interest,food,establishment", "rating": 4.4}, {"place_id": "ChIJl8q9LaCqLz4Rqq8OCswKqBs", "name": "Domino's Pizza دومينوز بيتزا", "lat": 24.7804513, "lon": 46.8271099, "address": "St, 5208 Prince Bandar Ibn Abd Al Aziz, Riyadh", "types": "meal_delivery,meal_takeaway,restaurant,point_of_interest,food,establishment", "rating": 3.8}, {"place_id": "ChIJLRb4MHUALz4Rh3Xe15dJG6w", "name": "Subway", "lat": 24.778137, "lon": 46.82384200000001, "address": "St, 7216 الامير بندر بن عبدالعزيز, District, Block #4878, الرياض", "types": "restaurant,point_of_interest,food,establishment", "rating": 3.8}, {"place_id": "ChIJkxAU8EADLz4R93Yv1ZlI8Bo", "name": "Subway", "lat": 24.841728, "lon": 46.828671, "address": "Dist, Qadissiyah Remal Branch 6801, Ali Al Bjadi St, الرياض", "types": "restaurant,point_of_interest,food,establishment", "rating": 3.7}, {"place_id": "ChIJEZmiIoIALz4RsymeaJ4pkSw", "name": "Domino's Pizza دومينوز بيتزا", "lat": 24.754334, "lon": 46.82413400000001, "address": "6505 Khurais - 522, Riyadh", "types": "meal_delivery,meal_takeaway,restaurant,point_of_interest,food,establishment", "rating": 3.8}, {"place_id": "ChIJt0CWG4IALz4R3hY0Qq8XzdU", "name": "Maestro Pizza", "lat": 24.7543854, "lon": 46.823958, "address": "طريق خريص الفرعي، النهضة, الرياض", "types": "meal_delivery,meal_takeaway,restaurant,point_of_interest,food,establishment", "rating": 4}, {"place_id": "ChIJNWwUI4IALz4R4PXcroAn8vc", "name": "Canton | كانتون", "lat": 24.754195, "lon": 46.8240152, "address": "Ibrahim Al Bakri, Riyadh", "types": "restaurant,point_of_interest,food,establishment", "rating": 4.1}, {"place_id": "ChIJ8x93PYIALz4RG8k9CLuH6x8", "name": "Casa Pasta", "lat": 24.7541144, "lon": 46.8238494, "address": "Ibrahim Al Bakri, النهضة بلازا 6505 13222 3618, Riyadh", "types": "restaurant,point_of_interest,food,establishment", "rating": 4.1}, {"place_id": "ChIJc5t-4IIALz4RelU7YLaYGsg", "name": "KFC", "lat": 24.7508206, "lon": 46.8230012, "address": "Othim Mall Khures, Khores Road, Exite 30, الرياض", "types": "restaurant,point_of_interest,food,establishment", "rating": 4}, {"place_id": "ChIJAxD2Fh7BLj4RS93-_yve-1I", "name": "7F COFFEE", "lat": 24.9063174, "lon": 46.46629629999999, "address": "ممشى الجبيلة، 5762، الجبيلة, Riyadh", "types": "cafe,meal_takeaway,restaurant,point_of_interest,food,establishment", "rating": 5}, {"place_id": "ChIJe1QwcwDBLj4RREugSZmiL5E", "name": "SANDWICH CAFE 🥪 مقهى ساندويتش", "lat": 24.90566830000001, "lon": 46.46563330000001, "address": "ممشى, Al Jubaylah", "types": "restaurant,point_of_interest,food,establishment", "rating": 5}, {"place_id": "ChIJJWme-LDBLj4RVV9-PNiaTCc", "name": "Lady burger", "lat": 24.9059721, "lon": 46.4654176, "address": "ممشى, Al Jubaylah", "types": "restaurant,point_of_interest,food,establishment", "rating": 4.6}, {"place_id": "ChIJdXrPEADBLj4RG5k_qDAXhyU", "name": "مطعم بيت مغربي", "lat": 24.9033795, "lon": 46.4639822, "address": "طريق الملك عبدالعزيز, Al Jubaylah", "types": "meal_takeaway,restaurant,point_of_interest,food,establishment", "rating": 4.8}, {"place_id": "ChIJ80VyJgDBLj4Rgak6NATg9NQ", "name": "نايت شفت", "lat": 24.8997238, "lon": 46.4592474, "address": "VFX5+VM, Al Jubaylah", "types": "restaurant,point_of_interest,food,establishment", "rating": ""}, {"place_id": "ChIJt43r2lb9Lj4RmesiJNpYZlg", "name": "سم سام باستا ونودلز", "lat": 24.8989497, "lon": 46.4591708, "address": "PJPW+MJG, Riyadh", "types": "restaurant,point_of_interest,food,establishment", "rating": 4.8}, {"place_id": "ChIJ5RPBOADBLj4RYMam3vdilNo", "name": "تشوروفينجرز", "lat": 24.8967611, "lon": 46.4526536, "address": "VFW3+P32, Al Jubaylah", "types": "restaurant,point_of_interest,food,establishment", "rating": 5}, {"place_id": "ChIJ-ZEpEwDjLj4R7Ig_o_ZBdWY", "name": "Subway", "lat": 24.875806, "lon": 46.541139, "address": "STC Bank Branch, 7252 King Khalid Road, Riyadh", "types": "restaurant,point_of_interest,food,establishment", "rating": 3.3}, {"place_id": "ChIJ6xGUTQDBLj4Ruy5u0AZj2EE", "name": "ترك ابو سهم", "lat": 24.8967246, "lon": 46.450141, "address": "طريق الملك عبدالعزيز, VFW2+M3J, Riyadh", "types": "restaurant,point_of_interest,food,establishment", "rating": 5}, {"place_id": "ChIJkT9ZNE3BLj4RSPgTYLCbWds", "name": "مطعم وليمه", "lat": 24.9007226, "lon": 46.4489184, "address": "WC2X+7HM, Al Jubaylah", "types": "restaurant,point_of_interest,food,establishment", "rating": 3}, {"place_id": "ChIJrT2LAL3BLj4R2MzXR4RpiFo", "name": "بوفيه للوجبات السريعة", "lat": 24.8945854, "lon": 46.44297209999999, "address": "RJJA4602، 4602 عبدالعزيز ال سعود، 6183, Al Uyaynah", "types": "restaurant,point_of_interest,food,establishment", "rating": 3.8}, {"place_id": "ChIJG3Gik1PBLj4Rp0yV27Ll2lY", "name": "Tilda Resturant", "lat": 24.8945528, "lon": 46.4427321, "address": "King Abdulaziz Road, Al Jubaylah", "types": "restaurant,point_of_interest,food,establishment", "rating": 3.4}, {"place_id": "ChIJRaIROADBLj4RjJh6es7V76s", "name": "شارع مقبره اليمامه", "lat": 24.894778, "lon": 46.4425713, "address": "6178 عقرباء 86, Al Uyaynah", "types": "restaurant,point_of_interest,food,establishment", "rating": ""}, {"place_id": "ChIJxX6UkFPBLj4RKWFIYfrEOLU", "name": "فوال و شعبيات منيرة فوال النخيل", "lat": 24.8944101, "lon": 46.44236830000001, "address": "Al Jubaylah", "types": "restaurant,point_of_interest,food,establishment", "rating": 3.1}, {"place_id": "ChIJa2QxV_rHLj4RdDobZ2QYKyM", "name": "طباخ متنقل مع الموعين", "lat": 24.89426229999999, "lon": 46.442343, "address": "Al Uyaynah", "types": "restaurant,point_of_interest,food,establishment", "rating": 5}, {"place_id": "ChIJcyA5chXBLj4R828uDhvA2Qo", "name": "مطعم شريفة عبدالرحمن الغامدي", "lat": 24.89439459999999, "lon": 46.4423144, "address": "RJJA4518، 4518 عبدالعزيز ال سعود، 6136،, Al Uyaynah", "types": "restaurant,point_of_interest,food,establishment", "rating": 3.3}, {"place_id": "ChIJW7eMIIHBLj4R8TiFAv6LFQk", "name": "Asayel pizza and pasta", "lat": 24.8944215, "lon": 46.44224260000001, "address": "طريق الملك عبدالعزيز, Al Jubaylah", "types": "restaurant,point_of_interest,food,establishment", "rating": 3.3}, {"place_id": "ChIJGYXwZgDBLj4RpZkUKgBpnxw", "name": "مطعم بريق الزمرد البخاري", "lat": 24.8943619, "lon": 46.4422018, "address": "VCVR+PVW, Al Jubaylah", "types": "restaurant,point_of_interest,food,establishment", "rating": 2.8}, {"place_id": "ChIJGQw-nFPBLj4RLGmDEW4HhmE", "name": "زهرة الجبيلة", "lat": 24.89431639999999, "lon": 46.4420185, "address": "VCVR+PRC, Al Jubaylah", "types": "restaurant,point_of_interest,food,establishment", "rating": 3.5}, {"place_id": "ChIJ39afow3BLj4RKFuI0zx2Q-k", "name": "Syed", "lat": 24.8941959, "lon": 46.4415754, "address": "5762, العيينة", "types": "restaurant,point_of_interest,food,establishment", "rating": 3.8}, {"place_id": "ChIJG6zGm5rjLj4RqPtslG8-29I", "name": "Boodis Burger", "lat": 24.8875652, "lon": 46.6077282, "address": "حي, 4998 7412 شارع عبدالله الخزرجي، الرياض", "types": "restaurant,food,point_of_interest,establishment", "rating": 3.8}, {"place_id": "ChIJ3-1IkKLlLj4RqsHSTaS_rkw", "name": "!ليتل سيزرز بيتزا! بيتزا Little Caesars Pizza! Pizza!", "lat": 24.858682, "lon": 46.6240911, "address": "Riyadh", "types": "meal_takeaway,meal_delivery,restaurant,food,point_of_interest,establishment", "rating": 3.7}, {"place_id": "ChIJ33-HUxflLj4RuH2I2wF8Rww", "name": "Domino's Pizza دومينوز بيتزا", "lat": 24.858353, "lon": 46.646644, "address": "2209 Abi Bakr As Siddiq Road, Riyadh", "types": "meal_takeaway,meal_delivery,restaurant,food,point_of_interest,establishment", "rating": 3.5}, {"place_id": "ChIJ4wlb2wDlLj4REMXaiqA0xMw", "name": "Subway", "lat": 24.848011, "lon": 46.63380600000001, "address": "7482 Al-Aredh, Riyadh", "types": "restaurant,food,point_of_interest,establishment", "rating": 3.6}, {"place_id": "ChIJ0Yi-lcvlLj4RzmkkyDOuzrc", "name": "Herfy", "lat": 24.8382814, "lon": 46.6089814, "address": "King Fahd Branch Road, RJQ5+8H9, Riyadh", "types": "restaurant,food,point_of_interest,establishment", "rating": 3.7}, {"place_id": "ChIJd2mpU5L6Lj4R2V1toKrlPeU", "name": "Subway Sasco 2", "lat": 24.8886269, "lon": 46.69638979999999, "address": "King Salman Ibn Abdulaziz Rd, King Khalid International Airport, الرياض", "types": "restaurant,food,point_of_interest,establishment", "rating": 3.4}, {"place_id": "ChIJMaK-P5DkLj4R_XpqYp90iqs", "name": "Domino's Pizza دومينوز بيتزا", "lat": 24.81939000000001, "lon": 46.642748, "address": "King Abdul Aziz Branch Road, Riyadh", "types": "meal_takeaway,meal_delivery,restaurant,food,point_of_interest,establishment", "rating": 4}, {"place_id": "ChIJR2upFZDkLj4ReHbZuN0wT6E", "name": "Subway", "lat": 24.819823, "lon": 46.644198, "address": "Riviera Anas Bin Malik Branch, Riviera Range Complex, Anas Bin Malik Branch Rd, Al Yasmeen, الرياض", "types": "restaurant,food,point_of_interest,establishment", "rating": 3.7}, {"place_id": "ChIJ77Ln2brkLj4Rzve_Cu7xook", "name": "Popeyes Louisiana kitchen", "lat": 24.8191507, "lon": 46.64274810000001, "address": "طريق أنس ابن مالك, King Abdul Aziz Branch road, الرياض", "types": "restaurant,food,point_of_interest,establishment", "rating": 4.4}, {"place_id": "ChIJn0Ulv5fkLj4RyihMKBFVYz8", "name": "Pizzaratti", "lat": 24.8225166, "lon": 46.64992549999999, "address": "RJFX+2X, طريق أنس ابن مالك، الياسمين،،, الرياض", "types": "restaurant,food,point_of_interest,establishment", "rating": 4.1}, {"place_id": "ChIJdXdVMS_vLj4RR1WGJMjjaUo", "name": "شواطيء اليمن", "lat": 24.9033125, "lon": 46.60156250000001, "address": "Riyadh", "types": "restaurant,food,point_of_interest,establishment", "rating": 4.1}, {"place_id": "ChIJU5otEgDvLj4Rv9aBZwGQ4nE", "name": "مطعم", "lat": 24.8980056, "lon": 46.60332269999999, "address": "VJX3+58X, Riyadh", "types": "restaurant,food,point_of_interest,establishment", "rating": 1}, {"place_id": "ChIJ51aTzkLvLj4Rxcn5YMJpeAw", "name": "مطعم بيت العرب البخاري", "lat": 24.8975041, "lon": 46.6036086, "address": "حي, King Abdul Aziz Branch Road, Riyadh", "types": "restaurant,food,point_of_interest,establishment", "rating": 3.5}, {"place_id": "ChIJw29kxKbvLj4RJ5CYHVqOcHo", "name": "مطعم اللمعة المميزة (مطعم باكستانى)", "lat": 24.9054414, "lon": 46.5995992, "address": "Tareeq malik, King Abdulaziz Road, Riyadh", "types": "restaurant,food,point_of_interest,establishment", "rating": 4.6}, {"place_id": "ChIJ8xGxcE3vLj4RJckDdxDOH9M", "name": "مطعم البخاري Albukhari Restaurant", "lat": 24.9059281, "lon": 46.5993563, "address": "7626 طريق الملك عبدالعزيز، 4776, الرياض", "types": "restaurant,food,point_of_interest,establishment", "rating": 3.9}, {"place_id": "ChIJa1uiTADvLj4RtKrca8mFOn0", "name": "Matam najam al wahaj مطعم نجم الوهاج باكستاني", "lat": 24.9062617, "lon": 46.6003417, "address": "Malik, King Abdulaziz Road, Riyadh", "types": "restaurant,food,point_of_interest,establishment", "rating": 4}, {"place_id": "ChIJ27ZqRADvLj4R4N5AJBNxNE4", "name": "Sialkot pakistani Restaurant 804", "lat": 24.9063303, "lon": 46.6002488, "address": "2475 طريق الملك عبدالعزيز الفرعي, RRRA6631, 6631, الرياض", "types": "restaurant,food,point_of_interest,establishment", "rating": 5}, {"place_id": "ChIJBcXNl1fvLj4RguG5-IFoHng", "name": "مطعم الرويلي البخاري", "lat": 24.8941834, "lon": 46.6052914, "address": "King Abdulaziz Road, VJV4+M4F, Riyadh", "types": "restaurant,food,point_of_interest,establishment", "rating": 2.4}, {"place_id": "ChIJDREsBZj7Lj4RlpjVv7CeMQ4", "name": "Subway", "lat": 24.854136, "lon": 46.71296, "address": "Princess Noura Bint Abdulrahman University Branch, 3446 Tuwaiq Academy Building, King Khalid International Airport, الرياض", "types": "restaurant,food,point_of_interest,establishment", "rating": 3.5}, {"place_id": "ChIJjTVgQ_H7Lj4RyvviPg-tHm4", "name": "Burger King - Sasco Airport", "lat": 24.847467, "lon": 46.73389299999999, "address": "Sasco Petrol Station, Airport Branch Rd, Riyadh", "types": "restaurant,food,point_of_interest,establishment", "rating": 4.2}, {"place_id": "ChIJiUmMQ_H7Lj4RTcge2tR3pNM", "name": "Domino's Pizza دومينوز بيتزا", "lat": 24.847572, "lon": 46.73441400000001, "address": "Rd, Airport Road, Riyadh", "types": "meal_delivery,meal_takeaway,restaurant,food,point_of_interest,establishment", "rating": 3.5}, {"place_id": "ChIJ_9GodKTxLj4RKNeUMyR9RgQ", "name": "Kudu - King Khaled Int'l Airport", "lat": 24.9613526, "lon": 46.7025161, "address": "Airport Road, Riyadh", "types": "restaurant,meal_delivery,meal_takeaway,food,point_of_interest,establishment", "rating": 3.8}, {"place_id": "ChIJYb_WC0X7Lj4R_x-oFa5o8hY", "name": "KFC", "lat": 24.8356612, "lon": 46.6798165, "address": "طريق أنس ابن مالك, Intersection of Othman Bin Afan with, الرياض", "types": "restaurant,food,point_of_interest,establishment", "rating": 3.6}, {"place_id": "ChIJoehtLxGgLz4R_Fvv8GBXbzY", "name": "Maestro Pizza", "lat": 24.8406281, "lon": 46.74916099999999, "address": "حي, 2553 Al Thoumamah Road, Riyadh", "types": "meal_delivery,meal_takeaway,restaurant,food,point_of_interest,establishment", "rating": 4}, {"place_id": "ChIJRU4cxqn-Lj4RacNvW-Vjk-w", "name": "Domino's Pizza دومينوز بيتزا", "lat": 24.842117, "lon": 46.75145, "address": "Al Thoumamah Road, Riyadh", "types": "restaurant,food,point_of_interest,establishment", "rating": 3.7}, {"place_id": "ChIJcRgIF6n-Lj4Re0IjnfX_ogU", "name": "Kudu - Thumamah Rd", "lat": 24.8416767, "lon": 46.75107190000001, "address": "Opposite Fuel Gas station, طريق الثمامة, Al, الرياض", "types": "restaurant,meal_delivery,meal_takeaway,food,point_of_interest,establishment", "rating": 3.9}, {"place_id": "ChIJj9GwOan-Lj4R_JScaBJwkAg", "name": "Alromansiah", "lat": 24.8421014, "lon": 46.7519851, "address": "Ath Thumamah Road, Al Munsiyah, Riyadh", "types": "restaurant,food,point_of_interest,establishment", "rating": 4.3}, {"place_id": "ChIJsWRkQK7kST4RXn7Hxxx__Fg", "name": "McDonald's", "lat": 24.845676, "lon": 46.75889, "address": "Al Thoumamah Road, Riyadh", "types": "restaurant,food,point_of_interest,establishment", "rating": 3.7}, {"place_id": "ChIJ2_tbTx78Lj4Rsv7hsjWQr0Y", "name": "KFC", "lat": 24.8300374, "lon": 46.7461973, "address": "الثمام, Alhasan bin Hussein St, الرياض", "types": "restaurant,food,point_of_interest,establishment", "rating": 3.6}, {"place_id": "ChIJ8d48uKP8Lj4RuZmEFrz-1LU", "name": "Domino's Pizza دومينوز بيتزا", "lat": 24.818819, "lon": 46.6866889, "address": "6968 Uthman Ibn Affan Road, Riyadh", "types": "meal_delivery,meal_takeaway,restaurant,food,point_of_interest,establishment", "rating": 3.6}, {"place_id": "ChIJQ_Tz9dL-Lj4R36quOjcMzbg", "name": "Herfy", "lat": 24.8553352, "lon": 46.77832410000001, "address": "فرع, 7739 Al Thoumamah Road, Riyadh", "types": "restaurant,food,point_of_interest,establishment", "rating": 3.6}, {"place_id": "ChIJ1WJVRrvkLj4Rzs_sxNr5S_4", "name": "Steak House", "lat": 24.8244018, "lon": 46.6571693, "address": "Anas Ibn Malik Road, Riyadh", "types": "restaurant,food,point_of_interest,establishment", "rating": 4.2}, {"place_id": "ChIJZTE-NrvkLj4Rx-prY7OvVn8", "name": "Piatto Restaurant", "lat": 24.8242455, "lon": 46.6574317, "address": "3606 street no. 86 - Al Yasmeen Dist. RIYADH 13322 - 8490, الرياض", "types": "restaurant,food,point_of_interest,establishment", "rating": 4.4}, {"place_id": "ChIJr3xMqHf_Lj4Rz8h2EeTzrVU", "name": "Sheikh mandi Restaurant", "lat": 24.8345625, "lon": 46.8135625, "address": "RRM7+RC, Riyadh", "types": "restaurant,food,point_of_interest,establishment", "rating": 3.6}, {"place_id": "ChIJ01iuaPz-Lj4RIL5kPByEHXA", "name": "Burgerizzr", "lat": 24.827496, "lon": 46.78293900000001, "address": "Al Qiyas, Riyadh", "types": "restaurant,food,point_of_interest,establishment", "rating": 4.2}, {"place_id": "ChIJFc685Pr-Lj4RZxdgkjLjXI0", "name": "KFC", "lat": 24.82762480000001, "lon": 46.778889, "address": "طريق الدمام, Mo\"nsia District", "types": "restaurant,food,point_of_interest,establishment", "rating": 3.7}, {"place_id": "ChIJR6hL7fr-Lj4RzH3Oz7natEo", "name": "Furn Aldayaa", "lat": 24.8273007, "lon": 46.7780688, "address": "Mohammed Al Barqi, Riyadh", "types": "restaurant,food,point_of_interest,establishment", "rating": 4}, {"place_id": "ChIJ6XPo8_r-Lj4RDfF68Qqd72A", "name": "مشويات روائع الرافدين", "lat": 24.8272302, "lon": 46.778172, "address": "Mohammed Al Barqi, Riyadh", "types": "restaurant,food,point_of_interest,establishment", "rating": 3.8}, {"place_id": "ChIJbZbcnqb_Lj4RH7dtulKNnOY", "name": "CHEF ALSHAM | شيف الشام", "lat": 24.8228387, "lon": 46.79953200000001, "address": "Al Sheikh Jaber Al Ahmad Al Sabah, Riyadh", "types": "restaurant,food,point_of_interest,establishment", "rating": 3.7}, {"place_id": "ChIJQ8kXY1b-Lj4RZENL9INfSdY", "name": "Maestro Pizza", "lat": 24.8185295, "lon": 46.7813949, "address": "طريق الدمام الفرعي،, الرياض", "types": "meal_delivery,meal_takeaway,restaurant,food,point_of_interest,establishment", "rating": 4.2}, {"place_id": "ChIJn9Zwhlb-Lj4RT08IT48JB_8", "name": "Herfy", "lat": 24.8181125, "lon": 46.7811333, "address": "حي, 6319 طريق الدمام الفرعي, RUMC3378، 3378, الرياض", "types": "meal_takeaway,meal_delivery,restaurant,food,point_of_interest,establishment", "rating": 3.5}, {"place_id": "ChIJk3NEy_f-Lj4RaF1IfJCLJn4", "name": "Herfy", "lat": 24.8190618, "lon": 46.77446930000001, "address": "Al Sahaba Road, RQ9F+JQH, Riyadh", "types": "restaurant,food,point_of_interest,establishment", "rating": 3.5}, {"place_id": "ChIJVbdvai4fLz4RGjup4BFD8ws", "name": "Karak Jadi", "lat": 24.8968554, "lon": 46.9078338, "address": "Riyadh", "types": "cafe,restaurant,food,point_of_interest,establishment", "rating": 3.6}, {"place_id": "ChIJi87teflTLj4Rdf5WcDgTOWo", "name": "Alromansiah", "lat": 24.896559, "lon": 46.908341, "address": "Riyadh", "types": "restaurant,food,point_of_interest,establishment", "rating": 4.1}, {"place_id": "ChIJP1_yuC9TLj4R0KhXIVx0AzI", "name": "Barn's | بارنز", "lat": 24.8962315, "lon": 46.9068237, "address": "طريق الدمام, Adnok Gas Station, الرياض", "types": "cafe,bakery,restaurant,store,food,point_of_interest,establishment", "rating": 2.8}, {"place_id": "ChIJ42OEhAxTLj4RpUEp5LZEMwQ", "name": "Shawarmer | شاورمر", "lat": 24.8960694, "lon": 46.9068125, "address": "Adnoc, Dammam Road, Riyadh", "types": "meal_takeaway,restaurant,food,point_of_interest,establishment", "rating": 3.7}, {"place_id": "ChIJ02vagc1TLj4R-snbtFUab-E", "name": "McDonald's", "lat": 24.896684, "lon": 46.90727700000001, "address": "Adnoc gas station, Riyadh", "types": "restaurant,food,point_of_interest,establishment", "rating": 3.6}, {"place_id": "ChIJXeznwlpTLj4RxhV8vs0K9Yw", "name": "فوال الشيوخ", "lat": 24.8959249, "lon": 46.90691160000001, "address": "Dammam Road, VWW4+9Q7, Riyadh", "types": "restaurant,food,point_of_interest,establishment", "rating": 3}, {"place_id": "ChIJXw0rivlTLj4RngwaI69IPkA", "name": "ADNOC", "lat": 24.896467, "lon": 46.90763570000001, "address": "السريع, Dammam Road, Riyadh", "types": "gas_station,convenience_store,grocery_or_supermarket,restaurant,store,food,point_of_interest,establishment", "rating": 4.2}, {"place_id": "ChIJ7Z2uYqZTLj4RwRX36uioBkA", "name": "صب واي subway", "lat": 24.8967356, "lon": 46.9079113, "address": "Dammam Road, VWW5+M5V, Riyadh", "types": "restaurant,food,point_of_interest,establishment", "rating": 3.5}, {"place_id": "ChIJnRg5NABTLj4Rorh8r2urlIA", "name": "فلافل مارينا", "lat": 24.8966824, "lon": 46.9079475, "address": "VWW5+M5G, Riyadh", "types": "restaurant,food,point_of_interest,establishment", "rating": 3.5}, {"place_id": "ChIJpcKfsbNTLj4ROFDb33lhX8A", "name": "PIZZA EXPRESS", "lat": 24.8959681, "lon": 46.90792940000001, "address": "محطة ادموك, طريق الدمام السريع, Riyadh", "types": "restaurant,food,point_of_interest,establishment", "rating": 4.5}, {"place_id": "ChIJax1GRHBTLj4RX7g_Kk0OPKo", "name": "برغرايززر | Burgerizzr", "lat": 24.895874, "lon": 46.907875, "address": "Dammam Road, Riyadh", "types": "restaurant,food,point_of_interest,establishment", "rating": 4}, {"place_id": "ChIJ2Z_Dpf1TLj4RjUzEVltTDM8", "name": "بوفية افضل وجبه", "lat": 24.8960492, "lon": 46.90798899999999, "address": "VWW5+C59, Riyadh", "types": "restaurant,food,point_of_interest,establishment", "rating": 2.7}, {"place_id": "ChIJVaES-2BTLj4RrVXygckPnZ8", "name": "فطيرة هلا", "lat": 24.8962398, "lon": 46.9082175, "address": "VWW5+F7W, Riyadh", "types": "restaurant,food,point_of_interest,establishment", "rating": 4}, {"place_id": "ChIJQ9j65XdTLj4R1Qe82YapSFk", "name": "Bukhari Restaurant", "lat": 24.8962967, "lon": 46.9084024, "address": "VWW5+G96, Riyadh", "types": "restaurant,food,point_of_interest,establishment", "rating": 3.3}, {"place_id": "ChIJm3JKzKRTLj4RB14bO450pFw", "name": "al fahd camp", "lat": 24.8967618, "lon": 46.9128362, "address": "VWW7+P44, Riyadh", "types": "restaurant,food,point_of_interest,establishment", "rating": 4.2}, {"place_id": "ChIJUZSYROVTLj4R4FN1Bme31UU", "name": "Al Jandria", "lat": 24.89715559999999, "lon": 46.913391, "address": "VWW7+V96, Riyadh", "types": "restaurant,food,point_of_interest,establishment", "rating": 4.2}, {"place_id": "ChIJYzZ_bEVVLj4RnCB3IO9X2SY", "name": "Farah restaurant Pakistani", "lat": 24.8887221, "lon": 46.8756375, "address": "Al biyan, Riyadh", "types": "restaurant,food,point_of_interest,establishment", "rating": 4.6}, {"place_id": "ChIJDV4afkJXLj4RCfq3Z1LRfLw", "name": "تسالي جاز لتقديم الوجبات", "lat": 24.8963598, "lon": 46.8719641, "address": "الرياض", "types": "restaurant,food,point_of_interest,establishment", "rating": 4.8}, {"place_id": "ChIJ7QReEGdXLj4R5x8ZZ0QNZbU", "name": "Hakaya Tul Madina Restaurant", "lat": 24.8923435, "lon": 46.8721156, "address": "Al Bayan, Riyadh", "types": "restaurant,food,point_of_interest,establishment", "rating": 4.1}, {"place_id": "ChIJ6QR9W-S_Lj4R_hRAdQRdYRo", "name": "Le Palmiers", "lat": 25.0010493, "lon": 46.5102607, "address": "2G26+C46, الرياض", "types": "restaurant,point_of_interest,food,establishment", "rating": 3.3}, {"place_id": "ChIJ99uqi-S_Lj4RRKw0G3IaYbo", "name": "Voyage", "lat": 25.0013349, "lon": 46.51040390000001, "address": "2G26+G5J, Riyadh", "types": "restaurant,point_of_interest,food,establishment", "rating": 3.4}, {"place_id": "ChIJN-tBTQDBLj4RJBFelZxNlbQ", "name": "مطعم ومطبخ", "lat": 24.980852, "lon": 46.4911183, "address": "XFJR+8CX, Riyadh", "types": "restaurant,point_of_interest,food,establishment", "rating": ""}, {"place_id": "ChIJb2T8eADrLj4RfnxcJV95dhA", "name": "مطعم Cafeteria", "lat": 24.9885752, "lon": 46.52591509999999, "address": "RVBA4330، 4330 بنبان، 6207, Riyadh", "types": "restaurant,point_of_interest,food,establishment", "rating": 3.6}, {"place_id": "ChIJha_zhcCRLj4RgeSqs-GB_us", "name": "مطعم مطبخ الابراج", "lat": 24.9738626, "lon": 46.49139539999999, "address": "Riyadh", "types": "restaurant,point_of_interest,food,establishment", "rating": 4.8}, {"place_id": "ChIJ3yZ4zI-_Lj4RhlCyARbNCps", "name": "بوفيه وبروستد اشهى وجبه", "lat": 25.00761630000001, "lon": 46.4673533, "address": "Salbukh Road, Riyadh", "types": "meal_takeaway,restaurant,point_of_interest,food,establishment", "rating": 3.9}, {"place_id": "ChIJn7OEJCq_Lj4Rijtdyb_2bDI", "name": "فوال معصوب وعسل للأكلات الشعبية", "lat": 25.0082134, "lon": 46.4662626, "address": "شارع التضامن, Riyadh", "types": "restaurant,point_of_interest,food,establishment", "rating": 4.6}, {"place_id": "ChIJkXmQMgC_Lj4R9YH2pWcg2p8", "name": "بوفية فلافل البلاد", "lat": 25.0084477, "lon": 46.4660336, "address": "شارع التضامن, Riyadh", "types": "restaurant,point_of_interest,food,establishment", "rating": 4.3}, {"place_id": "ChIJSbuBKgC_Lj4R3cmhXX5dxE8", "name": "Chai spot", "lat": 25.0089058, "lon": 46.4655147, "address": "2F58+H63, Riyadh", "types": "restaurant,point_of_interest,food,establishment", "rating": ""}, {"place_id": "ChIJV6At2ta_Lj4RXgvPQDYX3k0", "name": "مطعم البخاری Pakistani Restaurant", "lat": 25.0089706, "lon": 46.46549280000001, "address": "شارع التضامن, Riyadh", "types": "restaurant,point_of_interest,food,establishment", "rating": 3.8}, {"place_id": "ChIJiW3B--K-Lj4Ro2u0E4xMMSs", "name": "ساندويشات وبرجر", "lat": 25.0135125, "lon": 46.46607599999999, "address": "شارع الربيع الجرمي, 2F78+CC4, Riyadh", "types": "restaurant,point_of_interest,food,establishment", "rating": 3.8}, {"place_id": "ChIJf8TKtE2_Lj4RHFY5X1WwJtY", "name": "مطاعم ومطابخ المذاق للمثلوثة", "lat": 25.0103267, "lon": 46.464177, "address": "Salbukh Road, حريملاء", "types": "restaurant,point_of_interest,food,establishment", "rating": 3.3}, {"place_id": "ChIJTWOKQIC_Lj4RvGgMZ80AwpI", "name": "مطعم شباب البخاري", "lat": 25.0105625, "lon": 46.4638125, "address": "2F67+6GF, 2F67+6H7, Riyadh", "types": "restaurant,point_of_interest,food,establishment", "rating": 4.3}, {"place_id": "ChIJD69MAgC_Lj4RPWFGu0nT1bQ", "name": "مطعم شوايه العروبه البخا رى", "lat": 25.0105547, "lon": 46.4637094, "address": "شارع التضامن, 2F67+6FG, Riyadh", "types": "restaurant,point_of_interest,food,establishment", "rating": 5}, {"place_id": "ChIJI4f8YTW_Lj4RaHz632YFU6c", "name": "شاورما وبيتزا بدايه مشواري", "lat": 25.010575, "lon": 46.4636851, "address": "Salbukh Road, Riyadh", "types": "meal_takeaway,restaurant,point_of_interest,food,establishment", "rating": 4.1}, {"place_id": "ChIJsZXCy3K_Lj4RgbDE0QDREoQ", "name": "Fast Food Buffet", "lat": 25.0132314, "lon": 46.46123799999999, "address": "2F76+7FX, سلطانة،, Riyadh", "types": "restaurant,point_of_interest,food,establishment", "rating": 2.8}, {"place_id": "ChIJ9R-nGQC_Lj4RWB3xG-z7Hng", "name": "فول وفلافل ماما عليا", "lat": 25.0256817, "lon": 46.4606657, "address": "2FG6+76X, الرياض", "types": "restaurant,point_of_interest,food,establishment", "rating": 3.8}, {"place_id": "ChIJacntcwC_Lj4RII8ZitAVxuU", "name": "H4B Broast and Burgers", "lat": 25.035385, "lon": 46.4649059, "address": "7609 جبل بني غنيمة, RVKA4686، 4686, الرياض", "types": "restaurant,point_of_interest,food,establishment", "rating": ""}, {"place_id": "ChIJ8TwDfQC_Lj4RZX51s9h5-JE", "name": "فوال محمد", "lat": 25.0353851, "lon": 46.4625266, "address": "4648 إبراهيم الصحراوي, RVKB8127، 8127, Riyadh", "types": "restaurant,point_of_interest,food,establishment", "rating": 5}, {"place_id": "ChIJLVvQ37m_Lj4RtN4eVRU1rJs", "name": "مطعم رادف الخير البخاري", "lat": 25.0366364, "lon": 46.4627452, "address": "شارع جبل بني غنيمة, Riyadh", "types": "restaurant,point_of_interest,food,establishment", "rating": 4.9},