name,lat,lon,address,category,types,rating
Kudu - Al Malaz,24.6663876,46.72442909999999,"Al Farazdaq Street, Riyadh",Restaurants,"restaurant,meal_delivery,meal_takeaway,food,point_of_interest,establishment",4
Domino's Pizza دومينوز بيتزا,24.654983,46.712067,"Prince Abdulaziz Ibn Musaid Ibn Jalawi Street, Riyadh",Restaurants,"meal_delivery,meal_takeaway,restaurant,food,point_of_interest,establishment",4
Amo Hamza,24.651917,46.708341,"Al Washm Street, Riyadh",Restaurants,"restaurant,food,point_of_interest,establishment",3.5
KFC,24.6518213,46.7078897,"Al Washm Street, Riyadh",Restaurants,"restaurant,food,point_of_interest,establishment",3.8
Aquarium Boutique Hotel,24.6564725,46.7108184,"Prince Abdulaziz Ibn Musaid Ibn Jalawi Street, Riyadh",Restaurants,"night_club,lodging,cafe,bar,restaurant,food,point_of_interest,establishment",4
Downtown Cairo Cafe,24.64595030000001,46.7023641,"King Fahad Branch Road, Riyadh",Restaurants,"cafe,store,restaurant,food,point_of_interest,establishment",4.1
Falafel Arafah,24.6553162,46.7440301,"Zeid Ibn Al Khattab, Riyadh",Restaurants,"restaurant,food,point_of_interest,establishment",4
Grill And Rice,24.6286034,46.7395277,"Al Kharj Road, Riyadh",Restaurants,"restaurant,food,point_of_interest,establishment",4.2
Kabab House-Malaz بيت الكباب-الملز,24.6661736,46.73092189999999,"7402 Ibn Shaddad, Riyadh",Restaurants,"restaurant,food,point_of_interest,establishment",3.5
Maestro Pizza,24.6662143,46.7308871,"Salah Ad Din Al Ayyubi Road, Riyadh",Restaurants,"meal_delivery,meal_takeaway,restaurant,food,point_of_interest,establishment",4
مطاعم ركن هاشم الملز - Hashem Rest Malaz,24.6676701,46.73319249999999,"Abdullah Al Hamathani Street, MP9M+378, Riyadh",Restaurants,"restaurant,food,point_of_interest,establishment",3.8
KFC,24.6638132,46.706475,"Amer fisal Street Wazarat, الرياض",Restaurants,"restaurant,food,point_of_interest,establishment",3.7
Maestro Pizza,24.6611855,46.70123419999999,"King Fahd Road, Riyadh",Restaurants,"meal_delivery,meal_takeaway,restaurant,food,point_of_interest,establishment",4.1
Subway Murraba,24.661197,46.70113989999999,"King, King Fahad Branch Road, Riyadh",Restaurants,"restaurant,food,point_of_interest,establishment",3.9
Al Tazaj,24.6660905,46.71172159999999,"شازع الأمير فيصل بن تركي بن عبدالعزيز ،, Riyadh",Restaurants,"restaurant,food,point_of_interest,establishment",3.9
Buffet - Reasturant - بوفيه,24.6473487,46.7238142,Riyadh,Restaurants,"restaurant,food,point_of_interest,establishment",3.6
گجرات مطعم,24.6472117,46.7247065,"Al Farazdaq Street, JPWF+VVP, Riyadh",Restaurants,"restaurant,food,point_of_interest,establishment",
Sahil,24.6472117,46.7247065,"Al Farazdaq Street, Riyadh",Restaurants,"restaurant,food,point_of_interest,establishment",
Chef Al Shawya Restaurant,24.6472117,46.7247065,"Al Farazdaq Street, Riyadh",Restaurants,"restaurant,food,point_of_interest,establishment",4
Restaurant of Shaabiyat Al - Sadda,24.6457156,46.7205971,"حي 2549, 2549 عبدالحكيم الجمحي, Riyadh",Restaurants,"restaurant,food,point_of_interest,establishment",3.9
dr.CAFE COFFEE‎,24.66068750000001,46.7251875,"Al Jamiah Street, MP6G+73, Riyadh",Restaurants,"cafe,store,food,point_of_interest,establishment",4
Dunkin' Donuts - 10244,24.6288015,46.7101671,"Al Muqaybirah Street, Riyadh",Restaurants,"cafe,bakery,store,food,point_of_interest,establishment",4
Dunkin' - دانكن,24.668699,46.719099,"King Abdulaziz Road, Riyadh",Restaurants,"cafe,store,food,point_of_interest,establishment",3.8
Café Mr. Dainty,24.6637153,46.70360469999999,"Prince Faisal Bin Turki Bin Abdulaziz St Prince Faisal Bin Turki Bin Abdulaziz Street, Riyadh",Restaurants,"cafe,food,point_of_interest,establishment",4.5
Dunkin' - دانكن,24.661731,46.70107600000001,"طريق الملك فهد الفرعي, Riyadh",Restaurants,"cafe,store,food,point_of_interest,establishment",4.3
..,24.6448201,46.7259579,"Al Farazdaq Street, زيد بن سهل, Riyadh",Restaurants,"cafe,food,point_of_interest,establishment",4
ميعاد للمأكولات,24.6425838,46.72311209999999,"شارع أبي جعفر المنصور, JPVF+26Q, Riyadh",Restaurants,"cafe,store,food,point_of_interest,establishment",
الشا,24.6424043,46.7228861,"JPVC+J2Q, Riyadh",Restaurants,"cafe,food,point_of_interest,establishment",5
قهوة الجوز,24.6479647,46.7227243,"2762 Ibn Al Anbari, Riyadh",Restaurants,"cafe,store,food,point_of_interest,establishment",
OTHAYI. BOOFIYA (ALIYANS),24.6450121,46.719927,Riyadh,Restaurants,"cafe,store,food,point_of_interest,establishment",4.7
Hayah Coffee & Juice,24.6461432,46.7187874,"Al Garabbi Street, JPW9+9GV, Riyadh",Restaurants,"cafe,food,point_of_interest,establishment",5
MK Tea Time,24.640987,46.7211343,"ثابت بن النعمان، العمل،،, JPRC+9FR, Riyadh",Restaurants,"cafe,store,food,point_of_interest,establishment",3.3
شاي احمر للمشروبات,24.643265,46.7185195,"العمل،, Riyadh",Restaurants,"cafe,store,food,point_of_interest,establishment",4.4
خيط الصبح,24.642327,46.7189121,"Al Bathaa, JPR9+WHM, Riyadh",Restaurants,"cafe,store,food,point_of_interest,establishment",5
Team Cafe,24.6445433,46.71793779999999,Riyadh,Restaurants,"cafe,store,food,point_of_interest,establishment",5
مقهى المجالس,24.64310129999999,46.7181929,"حي, شارع اسد بن الفرات, Riyadh",Restaurants,"cafe,store,food,point_of_interest,establishment",5
"SIPP COFFEE HOUSE, Riyadh",24.6457157,46.71775660000001,"Filipino market, Al Bathaa, Riyadh",Restaurants,"cafe,food,point_of_interest,establishment",5
Dunkin’ Donuts,24.6486104,46.72853729999999,"3403 Prince Fahad Ibn Ibrahim Al Saud Street, 8091, Riyadh",Restaurants,"cafe,food,point_of_interest,establishment",4.1
EMAD UNIFORMS,24.6509602,46.71591189999999,"8228 King Abdulaziz Road, Riyadh",Fashion Stores,"clothing_store,store,point_of_interest,establishment",4
Systems Center for Studies and Research Services,24.65205570000001,46.7093565,"Al Washm Street, Riyadh",Other Stores,"store,point_of_interest,establishment",4.7
Digital platform for Information Technology,24.6579133,46.72981859999999,"الشيخ محمد بن ابراهيم, الملز - شارع الامير فهد, Riyadh",Electronics,"bank,electronics_store,store,point_of_interest,finance,establishment",3.8
Al Shuraa Trading Est,24.6474623,46.7222071,"حي, Al Garabbi Street, Riyadh",Other Stores,"store,point_of_interest,establishment",4.1
Basic Systems Co. LTD,24.643394,46.728141,"Omar Al Moukhtar, Riyadh",Electronics,"electronics_store,store,point_of_interest,establishment",4.1
راكان الالكترونيات صيانة Rakan Electronics repair (Circuit City مدينة الدوائر),24.6300492,46.7131826,"Thamiri St, Electronic Market, Near Of Masmak Fortress, Al Imam Turki Muhammad, الرياض",Electronics,"electronics_store,store,point_of_interest,establishment",4.2
Tetra Tech Co.,24.6457637,46.7245556,"Al Farazdaq Street, Tetra Tech Building, Riyadh",Restaurants,"store,food,point_of_interest,establishment",4.2
Al Qarni Trading Co. QTE شركة محمد صالح القرني للتجارة,24.6443384,46.7328126,"3789 Omar Al Moukhtar, طريق الخرج, Riyadh",Other Stores,"hardware_store,store,point_of_interest,establishment",4.4
Rubber Corner ركن المطاط,24.6454297,46.72780650000001,"Asad Ibn Al Fourat, Riyadh",Other Stores,"store,point_of_interest,establishment",4.9
Roadmaster Riyadh - رودماستر الرياض,24.6615493,46.72609109999999,"Al Farazdaq Street, Riyadh",Electronics,"electronics_store,store,point_of_interest,establishment",4.3
مؤسسة احمد الحرقان للتجارة,24.630782,46.713437,"3158 Al Thumairi Street, Riyadh",Other Stores,"store,jewelry_store,point_of_interest,establishment",4.9
The lights of the power EST,24.644606,46.72389,"2893 اسد بن الفرات، العمل، الرياض 12643 7612, Riyadh",Other Stores,"store,point_of_interest,establishment",4
ZAHRAT AL YAMAMAH TRADING EST.,24.6447209,46.7248919,"2988 Asad Ibn Al Fourat, Riyadh",Other Stores,"store,point_of_interest,establishment",4.1
Rowad Cables Trading Co. شركة رواد الكابلات للتجارة,24.6433533,46.7223435,"Asad Ibn Al Fourat, Riyadh",Other Stores,"store,point_of_interest,establishment",4.2
ALRIFI FOR CABLES,24.6433889,46.7216157,"7491 Shaiban Bin Muhraz, Riyadh",Other Stores,"store,point_of_interest,establishment",4.2
Albawardi tools and hardware البواردي للعدد والأدوات,24.6427782,46.7246692,"شارع عمر المختار, Riyadh",Other Stores,"home_goods_store,store,point_of_interest,establishment",4.2
Michelin Tyres - World Project EST For Trading,24.6474,46.72320999999999,"Ibn Al Anbari, Riyadh",Other Stores,"car_repair,store,point_of_interest,establishment",4.5
Mayaseem Holding Co - Rail Street Branch,24.643385,46.7261158,"Ar Rail Omar Al Moukhtar, Riyadh",Other Stores,"hardware_store,store,point_of_interest,establishment",4.6
AEG SERVICE CENTER,24.6476598,46.7244626,"Al Farazdaq Road Al Farazdaq Street, Riyadh",Electronics,"electronics_store,store,point_of_interest,establishment",3.3
Anwar Al Wessam for Trading,24.6428772,46.72134619999999,"7451 Asad Ibn Al Fourat, 2614, Riyadh",Other Stores,"store,point_of_interest,establishment",4.4
NestO Hypermarket Villagio Mall,24.6469764,46.7167205,"2170 سليمان بن مالك, Riyadh",Restaurants,"supermarket,grocery_or_supermarket,bakery,clothing_store,furniture_store,home_goods_store,store,point_of_interest,food,establishment",4.3
LuLu Hypermarket - Al Batha,24.6337003,46.7156861,"Commercial Center, Al Batha St, Ibn Sulaiman, Riyadh",Restaurants,"supermarket,grocery_or_supermarket,clothing_store,furniture_store,home_goods_store,store,point_of_interest,food,establishment",4.2
Meed - ميد‎,24.6608045,46.7347452,"2313 Salah Ad Din Al Ayyubi Road, Riyadh",Restaurants,"convenience_store,supermarket,grocery_or_supermarket,store,point_of_interest,food,establishment",3.6
Nesto Hypermarket Batha,24.6355755,46.7188212,"Al Bathaa, Riyadh",Restaurants,"supermarket,grocery_or_supermarket,clothing_store,home_goods_store,store,point_of_interest,food,establishment",4
تموينات صالح حميداني,24.6459836,46.7222577,"شارع عبدالحكيم الجمحي، حي العمل, JPWC+9WR, Riyadh",Restaurants,"supermarket,grocery_or_supermarket,store,point_of_interest,food,establishment",3.9
Gurabi Bakkala بقالة اسماعيل,24.6459045,46.7220576,"Abdulhakeem Al Jamhi, JPWC+9R7, Riyadh",Restaurants,"supermarket,grocery_or_supermarket,store,point_of_interest,food,establishment",4.4
الأصداف للتجارة | ALASDAF Trading Est,24.6437763,46.72491449999999,"Unnamed Road, Riyadh",Restaurants,"hardware_store,supermarket,grocery_or_supermarket,store,point_of_interest,food,establishment",5
تموينات القوز,24.6472117,46.7247065,"Al Farazdaq Street, JPWF+VVP, Riyadh",Restaurants,"supermarket,grocery_or_supermarket,store,point_of_interest,food,establishment",
المهندالتنجيدالسيارت إشراف السلال,24.6457604,46.7203239,"2536 ابن سلامة, 7711, Riyadh",Restaurants,"supermarket,grocery_or_supermarket,store,point_of_interest,food,establishment",5
Al Hogail Trading Co,24.6428686,46.72082559999999,"2552 Asad Ibn Al Fourat, Riyadh",Restaurants,"supermarket,grocery_or_supermarket,store,point_of_interest,food,establishment",4.4
Office Supplies Trading Company,24.6418509,46.7220007,"Omar Al Moukhtar, Riyadh",Restaurants,"supermarket,grocery_or_supermarket,store,point_of_interest,food,establishment",5
شركة عددكم التجارية Edadcom Trading Co,24.6415977,46.72208750000001,"Omar Ibn Al Khattab Road, Riyadh",Restaurants,"supermarket,grocery_or_supermarket,store,point_of_interest,food,establishment",4.4
مؤسسة الشرق التاسع للتجارة NINE EAST,24.6438509,46.7273789,"Omar Al Moukhtar, حي ثليم تقاطع, Riyadh",Restaurants,"electronics_store,supermarket,grocery_or_supermarket,store,point_of_interest,food,establishment",4.8
Makkah Hypermarket مكه هايبرماركت,24.644689,46.7179894,"2323 ابن طلحة, Riyadh",Restaurants,"supermarket,grocery_or_supermarket,store,point_of_interest,food,establishment",4.2
Sun City Supermarket,24.6402495,46.72120029999999,"Batha Thanit Ibn An Numan, P.B #42343Behind Riyadh Bank ,Batha, Riyadh",Restaurants,"supermarket,grocery_or_supermarket,store,point_of_interest,food,establishment",3.9
QASAR HYPERMARKET,24.6439613,46.71792109999999,"Al Bathaa, Riyadh",Restaurants,"supermarket,grocery_or_supermarket,store,point_of_interest,food,establishment",4.3
تموينات ومخابز ركائز الرسام,24.6472801,46.7184108,"Al Garabbi Street, JPW9+W97, Riyadh",Restaurants,"supermarket,grocery_or_supermarket,store,point_of_interest,food,establishment",
SAJ HYPER MARKET- Shamokh Al Jazeerah Trading Est.,24.6451239,46.7178043,"Al Bathaa, Riyadh",Restaurants,"supermarket,grocery_or_supermarket,store,point_of_interest,food,establishment",4.5
Elite10 Hypermarket,24.645665,46.71785269999999,"Elite10 Hypermarket, Filipino Market Batha, الرياض",Restaurants,"supermarket,grocery_or_supermarket,store,point_of_interest,food,establishment",4.2
تموينات ومخابز ركائز الوسام,24.64725229999999,46.7183786,"Al Garabbi Street, Riyadh",Restaurants,"supermarket,grocery_or_supermarket,store,point_of_interest,food,establishment",4.7
MyOwn,24.6401702,46.7166194,"Khalf Ibn Saad, Riyadh",Shopping Malls,"shopping_mall,point_of_interest,establishment",4
Ingenious Riyadh,24.6339124,46.7182245,"حي, 2493، الإمام عبدالرحمن بن فبصل,6429, RCSB2493, Riyadh",Shopping Malls,"shopping_mall,point_of_interest,establishment",4.2
shop alshriqi for safety tools,24.6569563,46.7350334,"محطة وقود ساسكو, Dhahran Street, معرض رقم 1 ، عمارة السلامة ، مقابل, Riyadh",Shopping Malls,"shopping_mall,point_of_interest,establishment",4.3
شركة الاعلان المتقدم للدعاية والاعلان (فرع رقم 1 ) ADVANCED AD FOR ADVERTISING,24.6314026,46.7350982,"مجمع الوسط النجاري, Riyadh",Shopping Malls,"shopping_mall,point_of_interest,establishment",4.4
Popular Hilla market,24.6274795,46.72115139999999,"7821 Al Ras Street, Riyadh",Shopping Malls,"shopping_mall,point_of_interest,establishment",3.8
Elegant Centre,24.6619769,46.7295842,"3429-3467 Al Jamiah Street, Riyadh",Shopping Malls,"shopping_mall,point_of_interest,establishment",4.2
Bisht Souq,24.629195,46.71237730000001,"3047, Riyadh",Shopping Malls,"shopping_mall,point_of_interest,establishment",4.4
Al Batha Commercial Center,24.639678,46.71722419999999,"Al Bathaa, Riyadh",Shopping Malls,"shopping_mall,point_of_interest,establishment",4
Al-Taamir Market For Meat and Vegetables,24.6298008,46.71901319999999,"طارق بن زياد, JPH9+WJC, Riyadh",Restaurants,"shopping_mall,grocery_or_supermarket,food,point_of_interest,store,establishment",4
معرض شركة العبدالكريم (موادومعدات كهربائية),24.64436989999999,46.72353589999999,"شارع Asad Ibn Al Fourat, Riyadh",Shopping Malls,"shopping_mall,point_of_interest,establishment",3.4
مؤسسة أوتاد المتقدمة للتجارة,24.6453216,46.7246537,"2963 Ahmad Taymour, Riyadh",Shopping Malls,"shopping_mall,point_of_interest,establishment",
AKB شركة ابناء عبدالكريم اباحسين,24.6458101,46.7227773,"7753 Al Adl Al Waez, 2760, Riyadh",Shopping Malls,"shopping_mall,point_of_interest,establishment",4.8
شركة الذوق المميز لبيع محامص ومطاحن القهوة وعدد الحلويات,24.6457933,46.7246667,"7751 Al Farazdaq Street, Riyadh",Shopping Malls,"shopping_mall,point_of_interest,establishment",4.1
توفير المنتجات المخفضه,24.64722039999999,46.724454,"Al Farazdaq Street, JPWF+VQP, Riyadh",Shopping Malls,"shopping_mall,point_of_interest,establishment",5
مؤسسة العدد,24.642629,46.7253464,"عمر المختار، العمل،, Riyadh",Shopping Malls,"shopping_mall,point_of_interest,establishment",3.8
Al Fares Trading,24.6426953,46.7255808,"JPVG+36G, Riyadh",Shopping Malls,"shopping_mall,point_of_interest,establishment",4.5
SANAFA CAR ACCESSORIES / (الصنافة) السنافة لزينة السيارات,24.6475157,46.72204299999999,"2683 Ibn Al Anbari, Riyadh",Shopping Malls,"shopping_mall,point_of_interest,store,establishment",4.9
مؤسسة سعيد محمد باسليمان للتجارة Saeed Mohammed Basuliman Est,24.6432025,46.72620550000001,"Omar Al Moukhtar, Riyadh",Shopping Malls,"shopping_mall,point_of_interest,establishment",4.7
عملاق الغرابي لزينة السيارات,24.6442696,46.72039969999999,"7737 Ibn Salamah, Street الرياض SA",Shopping Malls,"shopping_mall,point_of_interest,establishment",5
Abdullah Hashim Co.- Honda Power Products Showroom شركة عبدالله هاشم المحدودة - معرض هوندا,24.6422376,46.7249173,"Ar Rail, JPRF+XX8 عمر المختار،, Riyadh",Shopping Malls,"shopping_mall,point_of_interest,establishment",3.4
Herfy,24.6399265,46.6931508,8905 الامام عبدالعزيز بن محمد بن سعود الرياض 12741,Restaurants,"restaurant,point_of_interest,food,establishment",3.8
Anardana,24.6669554,46.6963365,"King Fahad Branch Road, Riyadh",Restaurants,"restaurant,point_of_interest,food,establishment",3.9
Canton,24.6638237,46.683067,المعذر ، شارع التخصصي،،,Restaurants,"restaurant,point_of_interest,food,establishment",3.9
Casa Pasta,24.663725,46.6827321,"التخصصي،, Riyadh",Restaurants,"restaurant,point_of_interest,food,establishment",4.2
Domino's Pizza دومينوز بيتزا,24.664531,46.68249999999999,"Al Takhassousi, Riyadh",Restaurants,"meal_delivery,meal_takeaway,restaurant,point_of_interest,food,establishment",4
Wow burger,24.6659377,46.6819459,3361 6922,Restaurants,"restaurant,point_of_interest,food,establishment",3.3
McDonald's,24.66497099999999,46.67766200000001,"Al Faisal University (Food Court, Riyadh",Restaurants,"restaurant,point_of_interest,food,establishment",4
Holiday Inn Meydan,24.6782811,46.6915016,"at the Crossing With, طريق الملك فهد, Khurais Rd, الرياض",Restaurants,"lodging,restaurant,point_of_interest,food,establishment",4.1
Finding Sushi,24.6430833,46.67441119999999,"Prince Talal Road Prince Talal Ibn Abd Al Aziz, Riyadh",Restaurants,"restaurant,point_of_interest,food,establishment",4.3
Fraser Suites Riyadh,24.6792087,46.6918415,"Olaya Street, Riyadh",Restaurants,"lodging,restaurant,point_of_interest,food,establishment",4.3
Maestro Pizza,24.6542458,46.6691844,"حي, 6478 وادي الليسن, شارع لأميرهشام بن عبد العزيز, الرياض",Restaurants,"meal_delivery,meal_takeaway,restaurant,point_of_interest,food,establishment",4
Dunkin' - دانكن,24.680744,46.69455699999999,"Makkah Al Mukarramah Road, Riyadh",Restaurants,"cafe,bakery,store,restaurant,point_of_interest,food,establishment",4.2
Golden Tulip Al-Nasiriah hotel,24.6595734,46.683504,"King Saud Road, MM5M+RCC, Riyadh",Restaurants,"cafe,lodging,store,food,point_of_interest,establishment",3.6
Blue Rose Garden Hotel Olaya,24.6739384,46.6938199,"Abdulmalik Ibn Marwan, Riyadh",Restaurants,"cafe,lodging,store,food,point_of_interest,establishment",3.6
Dunkin' - دانكن,24.6551358,46.68800469999999,"Prince Fahd Bin Salman Road, Riyadh",Restaurants,"cafe,store,food,point_of_interest,establishment",4.1
Continent Al Waha Hotel,24.680947,46.68927799999999,"Wadi AlDawasir Street, Riyadh",Restaurants,"cafe,lodging,restaurant,food,point_of_interest,establishment",4.1
مقهى أماسي الخليج,24.65592669999999,46.70112659999999,"5060 حي, RBJA8952، 8952 الملك فهد الفرعي, Riyadh",Restaurants,"cafe,store,food,point_of_interest,establishment",4.3
No Brand,24.6583151,46.7006727,"King Fahad Branch Road, MP52+87F, Riyadh",Restaurants,"cafe,store,food,point_of_interest,establishment",5
RIYADH COFFEE,24.6583445,46.69178180000001,"Al Amir Fahad Ibn Salman Ibn Abdulaziz, MM5R+8PM, Riyadh",Restaurants,"cafe,store,food,point_of_interest,establishment",4.6
جوارسته كافيه,24.6605239,46.6923207,"MM6R+6W4, Riyadh",Restaurants,"cafe,store,food,point_of_interest,establishment",5
Dunkin' - دانكن,24.6618125,46.7001875,Riyadh,Restaurants,"cafe,store,food,point_of_interest,establishment",4
مقهى مجلس المضياف,24.6530117,46.68907939999999,Riyadh,Restaurants,"cafe,store,food,point_of_interest,establishment",3.9
تيلر | teller - النموذجية,24.6515658,46.68979270000001,"MM2Q+HWR, Riyadh",Restaurants,"cafe,store,food,point_of_interest,establishment",4.1
القحطاني للحفلات والمناسبات,24.6515336,46.6897864,"MM2Q+JW7, Riyadh",Restaurants,"cafe,store,food,point_of_interest,establishment",5
villagio mall,24.6515431,46.689746,"Nasseriyah Street, MM2Q+JWF, Riyadh",Restaurants,"cafe,store,food,point_of_interest,establishment",
Budget Rent A Car | بدجت لتاجير السيارات,24.6643062,46.7077153,Riyadh,Other Stores,"car_rental,car_dealer,store,point_of_interest,establishment",3.9
Garden Lights - Riyadh Branch,24.6509189,46.7048375,"Al Washm Street, Riyadh",Other Stores,"home_goods_store,store,point_of_interest,establishment",3.3
AlHarthi for Cameras,24.65131700000001,46.70609770000001,"Prince Abdallah Ibn Jalawi Ibn Turki, Riyadh",Electronics,"home_goods_store,electronics_store,store,point_of_interest,establishment",4.1
AL-Dakheel Oud Company,24.6654395,46.6978512,"طريق الملك فهد الفرعي, Riyadh",Fashion Stores,"clothing_store,store,point_of_interest,establishment",4.1
Al Rasheed Pastries & Sweets,24.651391,46.7063977,"Al Washm Street, MP24+HH2, Riyadh",Restaurants,"store,food,point_of_interest,establishment",4
Hasoub Company,24.6655856,46.6998688,"6075 الامير عبدالعزيز بن مساعد بن جلوي, 2904, Riyadh",Electronics,"electronics_store,store,point_of_interest,establishment",3.8
Malabar Gold and Diamonds - Avenue Mall - Riyadh,24.664412,46.703309,"Lulu Hyper Market, Riyadh Avenue Mall, Murabbah, Riyadh",Other Stores,"jewelry_store,store,point_of_interest,establishment",4.9
Kawader For Commercial Kitchen & Café Equipment,24.6613754,46.7091691,"حي, 7206 Prince Abdulaziz Ibn Musaid Ibn Jalawi Street, Riyadh",Other Stores,"furniture_store,home_goods_store,store,point_of_interest,establishment",4.5
شركة المصادر الخامسه للمستلزمات الطبيه MSCO5,24.6674475,46.70310860000001,"Prince Abdulaziz Ibn Musaid Ibn Jalawi Street, MP83+X6H, Riyadh",Other Stores,"store,health,point_of_interest,establishment",2.1
Noufasera,24.6661491,46.6875655,"Umm Salmah Al Ansari Street, MM8Q+F24, Riyadh",Other Stores,"furniture_store,home_goods_store,store,point_of_interest,establishment",3.7
Sid Boutiques Riyadh,24.6666378,46.68778409999999,"Umm Salmah Al Ansari Street, MM8Q+M43, Riyadh",Fashion Stores,"clothing_store,store,point_of_interest,establishment",4.1
لو 66 LE 66,24.6667764,46.68748459999999,"7116 شارع جابر بن عبدالله، المؤتمرات الرياض 12712 3859 Jabir Ibn Abdullah Street, Riyadh",Fashion Stores,"clothing_store,store,point_of_interest,establishment",3.7
Manar Hayatak Medical Company,24.6661338,46.7069383,"Prince Abdulaziz Ibn Musaid Ibn Jalawi Street, MP84+FQ4, Riyadh",Other Stores,"store,health,point_of_interest,establishment",
Panda Super 26 | بنده سوبر,24.6395041,46.6932205,"Near TV station, Olysha, Riyadh",Restaurants,"supermarket,grocery_or_supermarket,store,point_of_interest,food,establishment",3.9
Meed - ميد,24.6760625,46.71543750000001,"Prince Mansour Bin Abdulaziz Street, MPG8+C5, Riyadh",Restaurants,"convenience_store,supermarket,grocery_or_supermarket,store,point_of_interest,food,establishment",3.4
تاج فايف ماركت,24.6546889,46.6882774,"حي, 8131 شارع الأمير سعود بن فيصل بن عبدالعزيز، النموذجية، الرياض 12734 3943،",Restaurants,"supermarket,grocery_or_supermarket,store,point_of_interest,food,establishment",4.4
اسواق خيرات الحزم للمواد الغذائيه,24.6569102,46.6865026,Riyadh,Restaurants,"supermarket,grocery_or_supermarket,store,point_of_interest,food,establishment",3.8
تموينات كيفان,24.6563051,46.6862929,"Al Washm Street, Riyadh",Restaurants,"supermarket,grocery_or_supermarket,store,point_of_interest,food,establishment",3.7
LuLu Hypermarket - Riyadh Avenue Mall - Murabba,24.6637609,46.70368729999999,"طريق الملك عبدالعزيز, Riyadh Avenue Mall, Level 1, Prince Faisal Bin Turki Bin, الرياض",Restaurants,"supermarket,grocery_or_supermarket,clothing_store,furniture_store,home_goods_store,store,point_of_interest,food,establishment",4.3
اسواق العثيم (سيتي) | Othaim Markets (city)‏,24.650008,46.706274,"متفرع من, شارع الوشم, شارع الأمير عبدالله بن جلوي, الرياض",Restaurants,"supermarket,grocery_or_supermarket,store,point_of_interest,food,establishment",4
دوامي,24.6639154,46.7040692,7511 أم رومان، حي الضباط، الرياض 12625 3977،,Restaurants,"supermarket,grocery_or_supermarket,store,point_of_interest,food,establishment",4.6
تموينات السهام الذهبي,24.646302,46.7025114,"7412 Muafa Al Sedeed, RBGA5282، 5282, Riyadh",Restaurants,"supermarket,grocery_or_supermarket,store,point_of_interest,food,establishment",
Meed - ميد,24.6666875,46.6988125,"King Fahd Road, MM8X+MG3, Riyadh",Restaurants,"convenience_store,supermarket,grocery_or_supermarket,store,point_of_interest,food,establishment",3.8
Al Annas Supermarket,24.6640753,46.7060854,"Prince Faisal Bin Turki Bin Abdulaziz Street, MP74+JCP, Riyadh",Restaurants,"supermarket,grocery_or_supermarket,store,point_of_interest,food,establishment",2.5
Rawad Supermarket,24.6436794,46.6933563,"7117 الإمام عبد العزيز بن محمد بن سعود،, Riyadh",Restaurants,"supermarket,grocery_or_supermarket,store,point_of_interest,food,establishment",4.4
مركت,24.6531814,46.7099695,"RCRA6327، 4168, MP35+7XH, Riyadh",Restaurants,"supermarket,grocery_or_supermarket,store,point_of_interest,food,establishment",
اطياف البياض,24.6420585,46.6940976,"JMRV+RJH, Riyadh",Restaurants,"supermarket,grocery_or_supermarket,store,point_of_interest,food,establishment",5
تموينات طارق احمد طويل التجارية,24.6457224,46.7073645,"Al Amir Abdullah Ibn Jalawi Ibn Turki, JPW4+7WC, Riyadh",Restaurants,"supermarket,grocery_or_supermarket,store,point_of_interest,food,establishment",4.7
تموينات عليشة,24.6413045,46.69308789999999,"3832 حي, RBGA9153، 9153 الإمام عبدالعزيز بن محمد بن سعود الفرعي, Riyadh",Restaurants,"supermarket,grocery_or_supermarket,store,point_of_interest,food,establishment",3.7
Mawred Trading Company,24.6668978,46.7071135,"MP84+QR5, Riyadh",Restaurants,"supermarket,grocery_or_supermarket,store,point_of_interest,food,establishment",5
Panda Hyper 10026 | بنده هايبر,24.6647236,46.6823775,"Al Takhassousi, Riyadh",Restaurants,"supermarket,grocery_or_supermarket,store,point_of_interest,food,establishment",4.2
اسواق ربيع الخزان المركزية,24.6415422,46.7048194,Riyadh,Restaurants,"supermarket,grocery_or_supermarket,store,point_of_interest,food,establishment",4.7
AlMaather Square,24.6644158,46.68267039999999,"Al Takhassousi, MM7M+Q37, Riyadh",Shopping Malls,"shopping_mall,point_of_interest,establishment",4.3
مؤسسة مورا للاتصالات,24.65681530000001,46.7012206,"حي, King Fahd Road, Riyadh",Shopping Malls,"shopping_mall,point_of_interest,establishment",3
مدن الإنجاز للخدمات العامة,24.6567548,46.6865923,8544، الناصرية، الرياض 12732 3660،,Shopping Malls,"shopping_mall,point_of_interest,establishment",1.7
Riyadh Avenue Mall,24.6629868,46.7035022,"Prince Faisal Bin Turki Bin Abdulaziz Street, Riyadh",Shopping Malls,"shopping_mall,department_store,store,point_of_interest,establishment",4.3
Lulu head office,24.663183,46.7032651,"MP73+78, Riyadh",Shopping Malls,"shopping_mall,point_of_interest,establishment",4.1
مكتبة حكاية أيام,24.6501537,46.7061428,"MP24+3F6, Unnamed Road, Riyadh",Shopping Malls,"shopping_mall,point_of_interest,establishment",2.9
سوق المربع سكوير,24.650729,46.7065229,9091 2418 الامير عبدالله بن جلوي بن تركي الرياض 12631,Shopping Malls,"shopping_mall,point_of_interest,establishment",3.8
الحلم السامي للعطور,24.66380389999999,46.70382960000001,7501 طريق الملك فيصل، المربع، الرياض 12612 3520،,Shopping Malls,"shopping_mall,point_of_interest,establishment",4
شركة اناء الجزيرة التجارية,24.6517368,46.707629,"2727 Al Washm Street, Riyadh",Shopping Malls,"shopping_mall,point_of_interest,establishment",4.5
ORO SQUARE By Alsaedan,24.6668994,46.6951133,"MM8W+Q25, Riyadh",Shopping Malls,"shopping_mall,point_of_interest,establishment",4.6
شركة الثنيان الدولية,24.6662325,46.7020243,"King Faisal Road, Riyadh",Shopping Malls,"shopping_mall,point_of_interest,establishment",5
مؤسسة دقة التحكم الطبية,24.6532981,46.7092233,"MP35+8M9, Riyadh",Shopping Malls,"shopping_mall,point_of_interest,establishment",4.7
E-commerce,24.654317,46.7107299,Riyadh,Shopping Malls,"shopping_mall,point_of_interest,establishment",
Nojoud Mall,24.6667819,46.6874759,"شارع جابر بن عبدالله،, Riyadh",Shopping Malls,"shopping_mall,point_of_interest,establishment",3.6
FashFlare,24.6667365,46.6873375,"Jabir Ibn Abdullah, MM8P+MWW, Riyadh",Shopping Malls,"shopping_mall,point_of_interest,establishment",5
Oro_lamy,24.6663968,46.6867796,"MM8P+HP2, Riyadh",Shopping Malls,"shopping_mall,point_of_interest,establishment",4.6
Marketing Yarmouk factory Modern Center,24.6662271,46.70709219999999,"مقابل الغرفة التجارية الرئيسية, Prince Abdulaziz Ibn Musaid Ibn Jalawi Street, الأمير, Riyadh",Shopping Malls,"shopping_mall,point_of_interest,establishment",4.2
مجمع الرصيص,24.6675246,46.70725059999999,"6327 Prince Abdulaziz Ibn Musaid Ibn Jalawi Street, Riyadh",Shopping Malls,"shopping_mall,point_of_interest,establishment",4.2
السوق الطبي,24.6688024,46.70642600000001,"Al Bariz, MP94+GMR, Riyadh",Shopping Malls,"shopping_mall,hospital,point_of_interest,health,establishment",
KFC,24.62540690000001,46.6889225,"Shemesi St, Riyadh",Restaurants,"restaurant,point_of_interest,food,establishment",3.9
مطعم مشويات المزيد,24.616196,46.68937679999999,"Al Madina Al Munawwarah Road, Riyadh",Restaurants,"restaurant,point_of_interest,food,establishment",4.1
Herfy,24.6131416,46.6820341,"JM7J+7R3, Riyadh",Restaurants,"restaurant,point_of_interest,food,establishment",3.8
Lapaz Batchoy Shumaisi,24.6299614,46.6913507,"Al Imam Turki Ibn Abd Allah Ibn Muhammad, Riyadh",Restaurants,"restaurant,point_of_interest,food,establishment",4.3
Al Tazaj,24.6057825,46.7061672,"طريق الملك فهد الفرعي عتيقة،, Riyadh",Restaurants,"restaurant,point_of_interest,food,establishment",3.9
KFC,24.6096844,46.71070839999999,"Manfouhah, الرياض",Restaurants,"restaurant,point_of_interest,food,establishment",3.9
Domino's Pizza دومينوز بيتزا,24.603647,46.704694,"3469 Al Aam St, Riyadh",Restaurants,"meal_delivery,meal_takeaway,restaurant,point_of_interest,food,establishment",4.1
Maestro Pizza,24.60386579999999,46.7056246,"السويدي، 3543 شارع السويدي العام،،, الرياض",Restaurants,"meal_delivery,meal_takeaway,restaurant,point_of_interest,food,establishment",4
McDonald's,24.601027,46.69856499999999,"Qaser Mall, Riyadh",Restaurants,"restaurant,point_of_interest,food,establishment",3.8
Bahrya,24.5993098,46.69268950000001,"Al Souweidi Al Aam, Riyadh",Restaurants,"restaurant,point_of_interest,food,establishment",3.9
Subway,24.59907999999999,46.698334,"8043 Main Street, Block #3543 Al-Suwaidi, الرياض",Restaurants,"restaurant,point_of_interest,food,establishment",3.7
Domino's Pizza دومينوز بيتزا,24.634129,46.67618299999999,"2115 Amr Ibn Al Aas St, Riyadh",Restaurants,"meal_delivery,meal_takeaway,restaurant,point_of_interest,food,establishment",4
KFC,24.5962469,46.6817783,"Al Souweidi Al Aam, Riyadh",Restaurants,"restaurant,point_of_interest,food,establishment",3.9
McDonald's,24.595997,46.681119,"Al Souweidi, Riyadh",Restaurants,"restaurant,point_of_interest,food,establishment",3.8
Al-Jarradiyah,24.617923,46.69658809999999,"JMHV+R3J, Riyadh",Restaurants,"restaurant,point_of_interest,food,establishment",
مطعم نصيل التاج ( اتراك ),24.6177236,46.6962444,RBGB4643، 4643 طريق المدينة المنورة، 8135، حي الجرادية، الرياض 12771،,Restaurants,"restaurant,point_of_interest,food,establishment",4.1
Sultan Restaurant,24.617891,46.6951779,"Al Madina Al Munawwarah Road, JM9W+533, Riyadh",Restaurants,"restaurant,point_of_interest,food,establishment",4.7
Restaurant,24.6178856,46.69517929999999,"Al Madina Al Munawwarah Road, Riyadh",Restaurants,"restaurant,point_of_interest,food,establishment",4.6
Restaurant Awais Khalid,24.6178734,46.69518189999999,"Al Madina Al Munawwarah Road, Riyadh",Restaurants,"restaurant,point_of_interest,food,establishment",5
Krispy Kreme,24.6254375,46.68893749999999,"F, Samahat Al Shaikh Abdulaziz, Samahat Ash Shaikh Abdulaziz Ibn Baz St, Front of Shemicy Hospital, Riyadh",Restaurants,"cafe,bakery,store,point_of_interest,food,establishment",4
Starbucks,24.600466,46.697815,"Al Qasr Mall, Riyadh",Restaurants,"cafe,store,point_of_interest,food,establishment",4.1
ماما بنز كافيه | MammaBunz Cafe‏,24.6002656,46.6963474,"Al-Qasr Mall, Riyadh",Restaurants,"cafe,point_of_interest,food,establishment",4.4
Ko Coffee,24.6310861,46.6763501,"الامير سطام بن عبدالعزيز، حي عليشة, JMJG+CGQ, Riyadh",Restaurants,"cafe,store,point_of_interest,food,establishment",4.1
كافيه آصل الحلا 24 Origin of Sweetness Cafe,24.6181137,46.6976288,Riyadh,Restaurants,"cafe,store,point_of_interest,food,establishment",4.3
عصاير السفياني,24.61913789999999,46.692442,"JM9R+MX4, Riyadh",Restaurants,"cafe,store,point_of_interest,food,establishment",4.3
مقهي شرق القاش,24.6173042,46.69237869999999,"RBBA3778، 3778 المدينه المنوره، 6509، حي البديعة, Riyadh 12747, الرياض",Restaurants,"cafe,store,point_of_interest,food,establishment",5
جنبة الحبش,24.6168854,46.692099,"Abdul Aziz Al Qahimi, JM8R+QR5, Riyadh",Restaurants,"cafe,store,point_of_interest,food,establishment",3.5
عصيرات مذهلة,24.6153148,46.7006921,"JP82+47G, Riyadh",Restaurants,"cafe,store,point_of_interest,food,establishment",4.3
Assa Cafe,24.6150961,46.6877225,"Al Madina Al Munawwarah Road, Riyadh",Restaurants,"cafe,store,point_of_interest,food,establishment",4.6
MOHAMED MURTADA MUDAWI ALI,24.6125869,46.7024893,"JP72+2XQ, Riyadh",Restaurants,"cafe,store,point_of_interest,food,establishment",
الخلطة الخاصة للعصائر و المشروبات,24.6150493,46.68752799999999,"RBBA3755، 3755 ابن السني، 7236, Riyadh",Restaurants,"cafe,store,point_of_interest,food,establishment",5
Sari,24.6211185,46.70551210000001,"King Fahd Road, JPC4+C7R, Riyadh",Restaurants,"cafe,store,point_of_interest,food,establishment",3.8
Mezaj Najdi Cafe مزاج نجدي,24.6243769,46.68718440000001,Riyadh,Restaurants,"cafe,point_of_interest,food,establishment",4.5
كشك(جافا تايم) داخل برج النساءوالولادة,24.6274486,46.69034219999999,"3551 Al Imam Abd Al Aziz Ibn Muhammad Ibn Saoud, 7614, Riyadh",Restaurants,"cafe,store,point_of_interest,food,establishment",3.7
dr.CAFE COFFEE | د.كيف كافيه,24.6270614,46.6896369,"Pediatric Clinic, Riyadh",Restaurants,"cafe,store,point_of_interest,food,establishment",4.5
CEFETARIA,24.6286476,46.6924578,"3725 Al Imam Abd Al Aziz Ibn Muhammad Ibn Saoud, 7774, Riyadh",Restaurants,"cafe,store,point_of_interest,food,establishment",
Java Cafe,24.6281743,46.6910667,"Samahat Ash Shaikh Abdulaziz Ibn Baz Street, JMHR+7C8, Riyadh",Restaurants,"cafe,store,point_of_interest,food,establishment",3.9
La Caverna Cafe,24.6206018,46.70764889999999,"7808 سلام, Al Salam, 7808 سلام، 2369, Riyadh",Restaurants,"cafe,store,point_of_interest,food,establishment",1
Rathath Es,24.616188,46.70996499999999,"11531 Prince Abdullah Ibn Abdulrahman Ibn Faisal, Riyadh",Other Stores,"park,general_contractor,home_goods_store,point_of_interest,store,establishment",4
Al-Sannat for Luggage,24.6277022,46.7075747,"شارع العطايف، الديرة،, Riyadh",Other Stores,"point_of_interest,store,establishment",4.1
مؤسسة أطياف العروسة,24.6191953,46.69974619999999,"Al Madina Al Munawwarah Road, JM9X+MVH, Riyadh",Fashion Stores,"clothing_store,point_of_interest,store,establishment",4
Asbalh household utensils,24.6238451,46.69754620000001,"2534 As Sibalah, Riyadh",Other Stores,"point_of_interest,store,establishment",4
Yazidi Foundation Christalat,24.6243846,46.7000454,"4537 السبالة، الشميسي، الرياض 12745 7301 As Sibalah, Riyadh",Other Stores,"home_goods_store,point_of_interest,store,establishment",5
محمد عبدالرحمن المنيعي لتجارة الأواني المنزلية,24.6246327,46.7009798,"As Sibalah, Riyadh",Other Stores,"furniture_store,home_goods_store,point_of_interest,store,establishment",3.9
AL MOUBTAKER CENTER,24.6251304,46.70209209999999,"4746 السبالة - حي, Riyadh",Other Stores,"home_goods_store,point_of_interest,store,establishment",4.1
شركة باصرة للاواني المنزلية Basurrah Campany,24.6252151,46.7030819,"4837 As Sibalah, Riyadh",Other Stores,"home_goods_store,point_of_interest,store,establishment",3.8
معرض العالمي للاثاث اسواق بن دايل,24.6147135,46.7059484,"5621 Khalid Ibn Uday, Riyadh",Other Stores,"furniture_store,home_goods_store,point_of_interest,store,establishment",3.7
مفرشات مكيت ثيل,24.6147612,46.7061314,"5645 Khalid Ibn Uday, Riyadh",Other Stores,"furniture_store,home_goods_store,point_of_interest,store,establishment",3.8
Petromin Express,24.62387,46.685447,"Riyadh Samahat Al Sheikh Abd Al Aziz Bin Baz Street, الرياض",Other Stores,"car_wash,car_repair,point_of_interest,store,establishment",4.1
Cone Zone,24.6208206,46.7082379,"7808 سلام, Riyadh",Restaurants,"food,point_of_interest,store,establishment",4
المتجر السعودي ، مؤسسة نوران الشرق للتجارة,24.6137677,46.7077499,"King Fahd Road, Riyadh",Other Stores,"point_of_interest,store,establishment",3.6
عبداللطيف للمعلومات,24.6136175,46.7078188,"2216 6995, Saudi, الرياض",Electronics,"electronics_store,point_of_interest,store,establishment",4.8
كاميرات مراقبة,24.6135722,46.7078681,"King Fahd Road, Riyadh",Electronics,"electronics_store,point_of_interest,store,establishment",4.1
Himalayan Salt,24.62696099999999,46.706062,"مركز التعمير للجملة, King Fahad Branch Road, Riyadh",Other Stores,"store,point_of_interest,establishment",4
حلويات بازهير,24.6266762,46.70812490000001,"As Sibalah, Riyadh",Restaurants,"food,point_of_interest,store,establishment",4
Kitchen Iteams market riyadh,24.6093333,46.707504,"King Fahd Road, طريق مركز اتحاد السباله الرياض, Riyadh",Other Stores,"home_goods_store,point_of_interest,store,establishment",4.5
شركة محمد سعيد بالبيد التجارية للمواد الغذائية بالجملة,24.5993933,46.707459,"Abi Zakariya Ibn Al Awwam, Riyadh",Restaurants,"supermarket,grocery_or_supermarket,store,point_of_interest,food,establishment",4.1
اسواق العثيم | Othaim Markets,24.616112,46.689918,"حي, Al Madina Al Munawwarah Road, Riyadh",Restaurants,"supermarket,grocery_or_supermarket,store,point_of_interest,food,establishment",4.2
Carrefour,24.6007715,46.69906469999999,"Al Qasr Mall, As Suwaidi Al Am, Riyadh",Restaurants,"supermarket,grocery_or_supermarket,store,point_of_interest,food,establishment",4.1
تموينات عائشه,24.6175255,46.6953133,"4549 Al Madina Al Munawwarah Road, Riyadh",Restaurants,"supermarket,grocery_or_supermarket,store,point_of_interest,food,establishment",
بقاله عسير,24.6210902,46.6973754,"Assir Street, JMCW+CXJ, Riyadh",Restaurants,"supermarket,grocery_or_supermarket,store,point_of_interest,food,establishment",
بقاله 24 ساعه.,24.6204294,46.69871269999999,"RBGD6845, 4416 Al Oumraniah, حي الشميسي, الرياض",Restaurants,"supermarket,grocery_or_supermarket,store,point_of_interest,food,establishment",4.6
SUPERMARKET 805,24.6173984,46.6929483,"Al Madina Al Munawwarah Road, Riyadh",Restaurants,"supermarket,grocery_or_supermarket,store,point_of_interest,food,establishment",5
تموينات وبقالة اريج مرعي,24.6218719,46.6982125,"حي, Assir Street, Riyadh",Restaurants,"supermarket,grocery_or_supermarket,store,point_of_interest,food,establishment",5
تمونات وادي الإنجاز,24.6146303,46.6933745,JM7V+V85,Restaurants,"supermarket,grocery_or_supermarket,store,point_of_interest,food,establishment",
تموينات,24.6244976,46.6950156,"Assir Street, JMFW+Q2R, Riyadh",Restaurants,"supermarket,grocery_or_supermarket,store,point_of_interest,food,establishment",4.8
Al Maha Groceries,24.6178626,46.7032044,"Assir Street, JP93+47W, Riyadh",Restaurants,"supermarket,grocery_or_supermarket,store,point_of_interest,food,establishment",3.9
تموينات,24.6185112,46.68597659999999,"3121 ال مرشد, 6622, الرياض",Restaurants,"supermarket,grocery_or_supermarket,store,point_of_interest,food,establishment",3.9
تموينات شركة السبيعي للمواد الغذائية,24.62430780000001,46.687088,"7257 Samahat Ash Shaikh Abdulaziz Ibn Baz Street, Riyadh",Restaurants,"supermarket,grocery_or_supermarket,store,point_of_interest,food,establishment",
السيارة,24.62863480000001,46.6932452,"حي, RBGA7755, 7755 العمادي، 3850, Riyadh",Restaurants,"supermarket,grocery_or_supermarket,store,point_of_interest,food,establishment",
تموينات فلاح نايف الشمري للمواد الغذائية,24.6286777,46.6932759,"حي, شارع العمادي, Riyadh",Restaurants,"grocery_or_supermarket,supermarket,store,point_of_interest,food,establishment",3.6
تموينات هذال سليمان عبدالله الشرادين,24.62021550000001,46.6847984,"6812 Mousa Al Mousali, 2991, Riyadh",Restaurants,"supermarket,grocery_or_supermarket,store,point_of_interest,food,establishment",4.1
تموينات منوه الجزيره,24.6234778,46.6858139,"RBBA3091، 3091 سماحة الشيخ عبدالعزيز بن باز، 7161, Riyadh",Restaurants,"supermarket,grocery_or_supermarket,store,point_of_interest,food,establishment",3.9
Asian Supermarket,24.6294266,46.6934767,"3856 العمادي, 7840, الرياض",Restaurants,"supermarket,grocery_or_supermarket,store,point_of_interest,food,establishment",4.3
Jonquil,24.6067599,46.70585469999999,"طريق الملك فهد الفرعي, JP44+P85, Riyadh",Shopping Malls,"clothing_store,shopping_mall,store,point_of_interest,establishment",3.7
MARYNA SOCKS,24.61838400000001,46.6965396,"Abdul Aziz Ibn Zaid, JM9W+9J3, Riyadh",Shopping Malls,"shopping_mall,point_of_interest,establishment",5
خمسة عالم الاسعار فرع الجراديه,24.6183403,46.69680760000001,"Al Madina Al Munawwarah Road, JM9W+8J9, Riyadh",Shopping Malls,"shopping_mall,point_of_interest,establishment",5
مكتبة مسطرة القلم للقرطاسية,24.6178535,46.6968667,"Al Madina Al Munawwarah Road, Riyadh",Shopping Malls,"shopping_mall,point_of_interest,establishment",5
مؤسسة هياء شديد للملابس والاكسسوارات,24.6179488,46.6972338,"حي, Riyadh",Shopping Malls,"shopping_mall,point_of_interest,establishment",5
ملامح الخليج للكماليات والملابس فرع الجرادية,24.6180197,46.69734320000001,"حي, Al Madina Al Munawwarah Road, Riyadh",Shopping Malls,"shopping_mall,point_of_interest,establishment",4.5
صالح بن جبر للغازات والاجهزة الالكترونيه,24.6209691,46.69724220000001,صالح بن جبر للغازات والاجهزة الالكترونيه، الرياض شارع عسير، الشميسي، الرياض 12652,Shopping Malls,"shopping_mall,point_of_interest,establishment",3.7
مؤسسة الخنبشي لأدوات المطابخ والمطاعم والفنادق,24.6237083,46.6975946,"7214-7192 Al Oumraniah, Riyadh",Shopping Malls,"shopping_mall,store,point_of_interest,establishment",4.3
Al koobris,24.6144341,46.69928040000001,"شارع الشباب, Riyadh",Shopping Malls,"shopping_mall,point_of_interest,establishment",4.4
حفر الباطن,24.624221,46.6982103,"حي, RBGD4352 7278, 4352 الجندله, Riyadh",Shopping Malls,"shopping_mall,point_of_interest,establishment",
مؤسسة ملتقى الاسعار للكماليات,24.6178239,46.7034502,"Assir Street, JP93+49G, Riyadh",Shopping Malls,"shopping_mall,point_of_interest,establishment",5
مؤسسة روائع سفرتي,24.624698,46.7004328,"شارع السبالة، الشميسي،, JPF2+V5F, Riyadh",Shopping Malls,"shopping_mall,point_of_interest,establishment",5
المدنيه المنوره,24.62434,46.70154910000001,"7295 ممر101 RBGA7295 4689, Riyadh",Shopping Malls,"shopping_mall,point_of_interest,establishment",3.5
ركن الخزائن المبتكرة,24.61487649999999,46.7038755,"اسواق بن دايل, Riyadh",Shopping Malls,"shopping_mall,store,point_of_interest,establishment",3.4
شركة الصحاح العالمية للتجارة المحدودة,24.6250613,46.7024165,"4663, 4959 السبالة، الشميسي،, Riyadh",Shopping Malls,"shopping_mall,point_of_interest,establishment",4.1
رنسي للحفلات والمناسبات,24.6199965,46.7055081,"JP94+X6R, Riyadh",Shopping Malls,"shopping_mall,point_of_interest,establishment",
محل زملة حسن الدوسري اللافراح والمناسبات,24.619848,46.7056271,"King Fahd Road, Riyadh",Shopping Malls,"shopping_mall,point_of_interest,establishment",4
Restaurant,24.6298261,46.7514577,"7912 12873 3512 الخليفة المأمون, الخالدية, Riyadh",Restaurants,"restaurant,food,point_of_interest,establishment",4.1
KFC,24.669468,46.75143689999999,"intersection of Salah al-Din Street with Fatima Zahra, الرياض",Restaurants,"restaurant,food,point_of_interest,establishment",4
pizza ram,24.6717843,46.7374406,"Jarir Street, Riyadh",Restaurants,"restaurant,food,point_of_interest,establishment",4.1
Domino's Pizza دومينوز بيتزا,24.671222,46.732333,"Jarir Street, Riyadh",Restaurants,"meal_takeaway,meal_delivery,restaurant,food,point_of_interest,establishment",3.9
Daily Break,24.6500852,46.74043820000001,"2742 الأمير عبدالعزيز بن عبدالله بن تركي, Riyadh",Restaurants,"restaurant,food,point_of_interest,establishment",4.3
حراج بن قاسم,24.6417511,46.73815469999999,"6209 أبي بن كعب, RENA2489، 2489, الرياض",Restaurants,"restaurant,food,point_of_interest,establishment",
بوفية بفاريا بنجلاديشية,24.6407191,46.7401573,"2707 Ibn Tarkhan, Riyadh",Restaurants,"restaurant,food,point_of_interest,establishment",
بوفية,24.63992619999999,46.74286420000001,"6065 Al Madina Al Munawwarah Road, 2986, Riyadh",Restaurants,"restaurant,food,point_of_interest,establishment",5
بوفية اروع المذاق,24.6400033,46.7434865,"6079 Al Madina Al Munawwarah Road, RENA3046، 3046, Riyadh",Restaurants,"restaurant,food,point_of_interest,establishment",
Emad Restaurant BBQ kebab Rowoah,24.6398493,46.74008039999999,"شارع المدينة المنورة،, JPQR+W2P, Riyadh",Restaurants,"restaurant,food,point_of_interest,establishment",4.1
بوفيه اكلات شاميه صناعيه العويضه,24.6397974,46.74011050000001,"3094-2986 Al Madina Al Munawwarah Road, Riyadh",Restaurants,"restaurant,food,point_of_interest,establishment",4.4
بوفية للأكلات الشامية ( بإدارة أبو عامر ),24.6397974,46.7401087,"Al Saman, Riyadh",Restaurants,"restaurant,food,point_of_interest,establishment",4.4
Noakhali Food Restaurant,24.6413564,46.74702769999999,"3410 ابراهيم الجيلي, 6231, الرياض",Restaurants,"restaurant,food,point_of_interest,establishment",5
مطعم مشزيات,24.639406,46.7411339,"Al Madina Al Munawwarah Road, JPQR+QF6, Riyadh",Restaurants,"restaurant,food,point_of_interest,establishment",
Dunkin' - دانكن,24.6697093,46.75214159999999,"7705 Fatimah Al Zahraa, Riyadh",Restaurants,"cafe,store,point_of_interest,food,establishment",4.1
Lounge Cafe,24.6503067,46.74040499999999,"MP2R+45C, Riyadh",Restaurants,"cafe,point_of_interest,food,establishment",3.8
Dunkin' - دانكن,24.6505625,46.7405625,Riyadh,Restaurants,"cafe,store,point_of_interest,food,establishment",3.8
بوفیہ روابی,24.64089019999999,46.74017560000001,"JPRR+933, Riyadh",Restaurants,"cafe,point_of_interest,food,establishment",3.7
كافيه,24.6529013,46.7452275,"3205-3263 طريق عمر بن الخطاب الفرعي, Riyadh",Restaurants,"cafe,store,point_of_interest,food,establishment",4
مقهى اصداء الراحة Echoes of Comfort Cafe,24.652899,46.7457925,"7488 طريق عمر بن الخطاب الفرعي, 3263 Umar Ibn, الرياض",Restaurants,"cafe,store,point_of_interest,food,establishment",3.9
Amraiz Bofia,24.649383,46.7333276,"JPXM+Q86, Riyadh",Restaurants,"cafe,store,point_of_interest,food,establishment",
خيمة ابو براك للتقديم الشاي 7/24,24.6552666,46.75091889999999,"REMC3780، 3780 أبي حفص السعدي، 7773, Riyadh",Restaurants,"cafe,store,point_of_interest,food,establishment",4.6
شارع العنوز,24.6342631,46.7449646,"Al Sobeih Street, JPMV+PX4, Riyadh",Restaurants,"cafe,store,point_of_interest,food,establishment",5
Fast Coffee,24.6579711,46.7357205,"حي, Dhahran Street, Riyadh",Restaurants,"cafe,store,point_of_interest,food,establishment",3.6
kyan,24.6401875,46.7551875,"JQR4+339, Riyadh",Restaurants,"cafe,point_of_interest,food,establishment",4.2
alahamd,24.6598514,46.7378862,"REMC2440, 8250 Abi Al-Khair, 2440, Riyadh",Restaurants,"cafe,store,point_of_interest,food,establishment",
Buolivard Cafe,24.6553495,46.7535163,"Al Imam Ali Ibn Abi Taleb, Riyadh",Restaurants,"cafe,point_of_interest,food,establishment",5
مقهى ركن النوافير,24.6607594,46.74216920000001,"Salah Ad Din Al Ayyubi Road, Riyadh",Restaurants,"cafe,store,point_of_interest,food,establishment",4
بومبو,24.6382203,46.72877880000001,"6917 ابي ثابت الخطيب،, 3388, Riyadh",Restaurants,"cafe,store,point_of_interest,food,establishment",4.5
Dunkin' - دانكن,24.6589355,46.7504516,"3727 طريق علي بن أبي طالب, 8152, الرياض",Restaurants,"cafe,store,point_of_interest,food,establishment",4.1
Bean Cove بين كوو,24.6615385,46.744265,"Salah Ad Din Al Ayyubi Road, MP6V+JP3, Riyadh",Restaurants,"cafe,point_of_interest,food,establishment",5
PTC Co. JOTUN Paints,24.6588125,46.735695,"Dhahran Street, Riyadh",Other Stores,"home_goods_store,point_of_interest,store,establishment",4.3
ASM TRADING EST,24.6401996,46.73907190000001,"6188 Al Saman, Riyadh",Other Stores,"car_repair,point_of_interest,store,establishment",4.8
Adeeb Signage Co. Ltd.,24.6468941,46.7355441,"2263 Street رقم 2, Riyadh",Other Stores,"point_of_interest,store,establishment",4.6
MOBCO KSA Hyundai Spare Parts العوبثاني موبكو هونداي,24.6402095,46.7390717,"Al Saman, Riyadh",Other Stores,"car_repair,point_of_interest,store,establishment",3.6
بن نعيمان _ مازدا طريق الخرج,24.6417443,46.736444,الصناعية القديمة،,Other Stores,"car_repair,point_of_interest,store,establishment",3.6
Jawad Al Adham Foundation Auto Parts,24.6403289,46.7386905,"Al Madina Al Munawwarah Road, JPRQ+4FP, Riyadh",Other Stores,"car_repair,point_of_interest,store,establishment",3.9
Doha Paper Trading Est,24.6534102,46.7417407,"Omar Ibn Al Khattab Road, Riyadh",Other Stores,"point_of_interest,store,establishment",4.5
AL- Fares Trading Co.,24.6394818,46.7413231,"Al Madina Al Munawwarah Road, JPQR+QGW, Riyadh",Other Stores,"finance,point_of_interest,store,establishment",3.4
Nissan Spear Part / Wajiht Shapeap Company L.L.C,24.6407835,46.73713159999999,"Al Kharj Road, Riyadh",Other Stores,"car_repair,point_of_interest,store,establishment",4.7
البواردي للعدد والأدوات,24.6419201,46.735751,"2327 Al Kharj Road, 6357, Riyadh",Other Stores,"furniture_store,home_goods_store,point_of_interest,store,establishment",4
Saleh Alhamad Co. Ltd.,24.6403946,46.7370086,"2425 Al Qutadiyah, Riyadh",Other Stores,"car_repair,point_of_interest,store,establishment",4.4
ALGICOM,24.6395918,46.74487750000001,"Al Madina Al Munawwarah Road, Riyadh",Other Stores,"furniture_store,home_goods_store,point_of_interest,store,establishment",4.1
Isuzu Spare Parts (Al Yemni Motors Co.),24.6392304,46.7388815,"Ismail Al Basri, JPQQ+MHR, Riyadh",Other Stores,"car_repair,point_of_interest,store,establishment",3.6
Meed - ميد,24.6504375,46.7404375,"Rail Station, طريق الثمامة, Riyadh",Restaurants,"convenience_store,supermarket,grocery_or_supermarket,store,point_of_interest,food,establishment",3.9
سوبر ماركت ريحان subar markit rihan,24.6412303,46.746686,"3363 ابراهيم الجيلي, RENA6208، 6208, الرياض",Restaurants,"supermarket,grocery_or_supermarket,store,point_of_interest,food,establishment",4.5
Omar Mohammed Balhmr Sons Co.,24.639406,46.7411339,"طريق المدينة المنورة Al Madina Al Munawwarah Road, Riyadh",Restaurants,"supermarket,grocery_or_supermarket,store,point_of_interest,food,establishment",4
خير الفيوم للمنتجات المصرية فرع الملز,24.6535838,46.745069,"Nafi Ibn Salim, Riyadh",Restaurants,"supermarket,grocery_or_supermarket,store,point_of_interest,food,establishment",4.6
Farsa Super Market,24.65504540000001,46.7444767,"7731 Zeid Ibn Al Khattab, Riyadh",Restaurants,"supermarket,grocery_or_supermarket,store,point_of_interest,food,establishment",5
الملز,24.655365,46.7443394,"MP4V+4PW, Riyadh",Restaurants,"supermarket,grocery_or_supermarket,store,point_of_interest,food,establishment",
بقاله اليمنى,24.6424813,46.7318631,"3700 الرحاب، 7406, Riyadh",Restaurants,"supermarket,grocery_or_supermarket,store,point_of_interest,food,establishment",4
اسواق ومخابز الصيعري للمواد الغذائية,24.6560993,46.7441668,"Zeid Ibn Al Khattab, MP4V+CMM, Riyadh",Restaurants,"supermarket,grocery_or_supermarket,store,point_of_interest,food,establishment",4
ورشه صناعيه القير,24.638058,46.7487249,"3222 Al Jameyya, Riyadh",Restaurants,"supermarket,grocery_or_supermarket,store,point_of_interest,food,establishment",2.8
تموينات,24.6354583,46.7422803,"8533 Balqis, 2526, Riyadh",Restaurants,"supermarket,grocery_or_supermarket,store,point_of_interest,food,establishment",
تموينات,24.6570192,46.7356665,"طريق الأمير عبدالمحسن بن عبدالعزيز، حي الملز, MP4P+R73, Riyadh",Restaurants,"supermarket,grocery_or_supermarket,store,point_of_interest,food,establishment",3.2
Shalimar Store (Pakistani Shop),24.639065,46.7303292,"JPQJ+J4W, Riyadh",Restaurants,"supermarket,grocery_or_supermarket,store,point_of_interest,food,establishment",
شركة المعلومات العربية,24.6400229,46.75382349999999,"JQR3+2G4, Riyadh",Restaurants,"supermarket,grocery_or_supermarket,store,point_of_interest,food,establishment",4.1
بقالة روائع السلام,24.6403125,46.7293125,"حي, شارع أحمد بن فارس, Riyadh",Restaurants,"supermarket,grocery_or_supermarket,store,point_of_interest,food,establishment",5
تموينات أطلالة الغذاء للمواد الغذائية,24.6591668,46.7447582,"MP5V+MVQ, Riyadh",Restaurants,"supermarket,grocery_or_supermarket,store,point_of_interest,food,establishment",2
Skrrit,24.6531881,46.7540001,"Al Imam Ali Ibn Abi Taleb, Riyadh",Restaurants,"supermarket,grocery_or_supermarket,store,point_of_interest,food,establishment",5
Nashmi Iron Industrial Branch,24.6433915,46.7538835,"Abd Al Malek Al Issami, JQV3+9H2, Riyadh",Shopping Malls,"shopping_mall,point_of_interest,establishment",3.9
Saptex,24.6421878,46.7411865,"2766 Abi Ibn Kaab, As Sinaiyah, Riyadh 12843 6313 Abi Ibn Kaab, Riyadh",Shopping Malls,"shopping_mall,point_of_interest,establishment",4
التوريدات المتطورة للتجارة _ TMT,24.6418793,46.7440393,"شارع أبي بن كعب, Riyadh",Shopping Malls,"shopping_mall,point_of_interest,establishment",5
شركة نسيم الوطن للتكييف,24.640813,46.7426681,"Al Nouayriah, JPRV+83F, Riyadh",Shopping Malls,"shopping_mall,point_of_interest,establishment",4.4
Waheeb Factory - مصنع وهيب,24.6398098,46.741186,"Al Madina Al Munawwarah Road, Riyadh",Shopping Malls,"shopping_mall,point_of_interest,establishment",4.2
مؤسسة اطياف الريم للتجارة,24.6398554,46.7432779,"Al Madina Al Munawwarah Road, Riyadh",Shopping Malls,"shopping_mall,point_of_interest,establishment",5
مؤسسه رمز الأندلس للأبواب,24.6399464,46.7439383,"الأمير سلمان سابقا, مخرج ١٧ طريق المدينة المنورة, Riyadh",Shopping Malls,"shopping_mall,point_of_interest,establishment",4.4
موسسة الهلب,24.6398192,46.739599,2638 طريق المدينة المنورة، الصناعية القديمة، الرياض 12843 6042،,Shopping Malls,"shopping_mall,point_of_interest,establishment",
مؤسسة مسامير الشرق التجارية,24.6418616,46.74733759999999,3439 أبي بن كعب، الصناعية القديمة، الرياض 12844 6266,Shopping Malls,"shopping_mall,point_of_interest,establishment",4.3
مؤسسة توب المقابض التجارية,24.6395658,46.7430038,"Al Madina Al Munawwarah Road, Riyadh",Shopping Malls,"shopping_mall,point_of_interest,establishment",4.7
Al Andalus Trading Co. - Mandina Munawara Road 1,24.6399347,46.7446904,"Al Madina Al Munawwarah Road, Riyadh",Shopping Malls,"shopping_mall,point_of_interest,establishment",4.3
قمة الهفوف للرفوف,24.6400393,46.7450324,"Al Madina Al Munawwarah Road, Riyadh",Shopping Malls,"shopping_mall,point_of_interest,establishment",4.4
مودينست الصناعيه,24.6438455,46.7341547,7556 طريق الخرج الفرعي، ثليم، الرياض 12646 3914،,Shopping Malls,"shopping_mall,point_of_interest,establishment",4.2
مطابع ارنو,24.6529182,46.74549750000001,3225 طريق عمر بن الخطاب الفرعي، الصناعية القديمة، الرياض 12844 7485،,Shopping Malls,"shopping_mall,point_of_interest,establishment",3.3
KFC,24.59506409999999,46.737091,"Al Bathaa, Riyadh",Restaurants,"restaurant,food,point_of_interest,establishment",3.9
McDonald's,24.60479699999999,46.73180500000001,"Al Bathaa, Riyadh",Restaurants,"restaurant,food,point_of_interest,establishment",3.9
Domino's Pizza دومينوز بيتزا,24.6048588,46.7322938,"St, 7835 Al Bathaa, Riyadh",Restaurants,"meal_delivery,meal_takeaway,restaurant,food,point_of_interest,establishment",3.9
Tim Hortons,24.6042231,46.7326246,"Al Bathaa, Riyadh",Restaurants,"bakery,cafe,restaurant,food,point_of_interest,store,establishment",4.3
توم توم,24.6183092,46.74538529999999,"8182 Majd Al Dine Al Masri, Riyadh",Restaurants,"restaurant,food,point_of_interest,establishment",3.7
Maestro Pizza,24.6146747,46.7460768,"شارع معن بن زائدة،, Riyadh",Restaurants,"meal_delivery,meal_takeaway,restaurant,food,point_of_interest,establishment",3.9
Restaurant Hasa مطاعم حصة محمد,24.6126516,46.71614839999999,"Al Farian, Riyadh",Restaurants,"restaurant,food,point_of_interest,establishment",4.8
مطعم قصر خطاب للأكلات المصرية,24.612904,46.7174399,"6926 Manfuhah, Riyadh",Restaurants,"restaurant,food,point_of_interest,establishment",4.5
‏مشويات أبو سمره,24.6129708,46.7175214,"Manfuhah, Riyadh",Restaurants,"restaurant,food,point_of_interest,establishment",5
ألذ فلفلة,24.6135575,46.7179576,"حي, RCCC3232, 3232 Manfuhah, 6997, الرياض",Restaurants,"restaurant,food,point_of_interest,establishment",3.8
مطعم هرم المنفوحه,24.6133407,46.7179818,"6963 Al Jafr, 3244, Riyadh",Restaurants,"restaurant,food,point_of_interest,establishment",2
Dunkin' - دانكن,24.60483409999999,46.7321763,"7949 Al Bathaa, Riyadh",Restaurants,"cafe,store,food,point_of_interest,establishment",4.1
مقهى واسطة القاهرة,24.61272679999999,46.7171009,"Manfuhah, Riyadh",Restaurants,"cafe,store,food,point_of_interest,establishment",4.4
حق عرب كافيه,24.613064,46.717401,"JP78+6XC, Riyadh",Restaurants,"cafe,store,food,point_of_interest,establishment",5
كافيه موكا,24.6132041,46.7175273,"JP79+72J, Riyadh",Restaurants,"cafe,store,food,point_of_interest,establishment",4.3
كافيه سهرة زمان لتقديم المشروبات,24.6122221,46.7164434,"Al Farian, JP68+VHP, منفوحة, Riyadh",Restaurants,"cafe,store,food,point_of_interest,establishment",4.1
كافيه البيت بيتك,24.6109333,46.7186019,"Halimah Al Saadiah, Riyadh",Restaurants,"cafe,store,food,point_of_interest,establishment",
مقهى افندينا,24.6139858,46.7198271,"3420 Thabit Ibn Mari, حي, RCCA7044, 7044, Riyadh",Restaurants,"cafe,store,food,point_of_interest,establishment",5
Manfoha,24.61073919999999,46.7145962,"6667 Manfuhah, 2897, Riyadh",Restaurants,"cafe,store,food,point_of_interest,establishment",5
كيان أوزان,24.61522850000001,46.7193027,"7223 Thabit Ibn Mari, Riyadh",Restaurants,"cafe,store,food,point_of_interest,establishment",4.9
مقهى الصعيدة الاخير,24.6135579,46.72008109999999,"3446 Thabit Ibn Mari, RCCC6996، 6996, Riyadh",Restaurants,"cafe,store,food,point_of_interest,establishment",4
كافيه ليالي الوحده,24.6157301,46.7190018,"Thabit Ibn Mari, Riyadh",Restaurants,"cafe,store,food,point_of_interest,establishment",4.1
اقنعة angelinamask التنكرية,24.6136637,46.7127563,"شارع المعارض, Riyadh",Restaurants,"cafe,food,point_of_interest,establishment",
مقهي قعدت زمان,24.612658,46.72015429999999,"3461 شارع حليمة السعدية, RCCA6904, 6904, الرياض",Restaurants,"cafe,store,food,point_of_interest,establishment",4.3
مقهي ليال مغربيه 2,24.6099876,46.71784890000001,"JP59+X4X, Riyadh",Restaurants,"cafe,store,food,point_of_interest,establishment",1
Monaghan my building,24.610079,46.71422560000001,"JP67+2MQ, Riyadh",Restaurants,"cafe,store,food,point_of_interest,establishment",5
كافيه الياسمين,24.6124561,46.7211748,"3556 Thabit Ibn Mari, حي, 6870, Riyadh",Restaurants,"cafe,store,food,point_of_interest,establishment",4.2
Petromin Express,24.6058547,46.7173353,"Prince Mohamed Ibn Abd Al Rahman Road, Riyadh",Other Stores,"car_wash,car_repair,store,point_of_interest,establishment",4.2
Al-Saif Company,24.6092756,46.7075103,"السبالة بلس Spalah Plus by NAWAT, King Fahd Road, Riyadh",Other Stores,"home_goods_store,furniture_store,store,point_of_interest,establishment",4.2
SHALASCO,24.6063763,46.7060536,"6858, Riyadh",Restaurants,"store,point_of_interest,food,establishment",4.4
Nice Store,24.6052847,46.70578570000001,"King Fahd Road, Riyadh",Other Stores,"home_goods_store,store,point_of_interest,establishment",4
eXtra,24.6051246,46.7054485,"Beside Edtaga Marke, King Fahd Road, Riyadh",Electronics,"electronics_store,home_goods_store,store,point_of_interest,establishment",3.9
صيدلية شبه الجزيرة,24.6190181,46.7298576,"عمار بن ياسر -رضي الله عنهما Ammar Bin Yasir Street, 3275- -رضي, Riyadh",Pharmacies,"pharmacy,store,health,point_of_interest,establishment",3.6
الذييب للكرتون Theeb Cartons,24.6022127,46.7077039,"2466 Baday Ibn Mudyan, 7866, Riyadh",Other Stores,"store,point_of_interest,establishment",4
معرض شركة مصنع تمور الرياض فرع عتيقة,24.6017027,46.708497,Riyadh,Restaurants,"grocery_or_supermarket,store,point_of_interest,food,establishment",4.3
مصنع تمور عنيزة,24.60068309999999,46.71014259999999,"JP26+73C, Riyadh",Restaurants,"grocery_or_supermarket,store,point_of_interest,food,establishment",5
Al Madina Hypermarket,24.6055868,46.73169249999999,"Al Bathaa, JP4J+6MP, Riyadh",Restaurants,"supermarket,grocery_or_supermarket,food,point_of_interest,store,establishment",4.1
Panda Super 158 | بنده سوبر,24.615219,46.745972,"Maan Bin Zaida Street, JP8W+39, Riyadh",Restaurants,"supermarket,grocery_or_supermarket,food,point_of_interest,store,establishment",4.1
Jibran ganral store,24.61352979999999,46.7162593,"Shara e aam, Riyadh",Restaurants,"supermarket,grocery_or_supermarket,food,point_of_interest,store,establishment",
تموينات جابر يحيى جابر سلامي,24.6124339,46.716137,"Al Farian, JP68+XFC, Riyadh",Restaurants,"supermarket,grocery_or_supermarket,food,point_of_interest,store,establishment",5
تموينات يعمل اعمال,24.6137798,46.7185512,Riyadh,Restaurants,"supermarket,grocery_or_supermarket,food,point_of_interest,store,establishment",
البتاتس سخنه خااااااالس,24.6142601,46.71977889999999,"Thabit Ibn Mari, JP79+PW2, Riyadh",Restaurants,"supermarket,grocery_or_supermarket,food,point_of_interest,store,establishment",5
بقالة بذول للمواد الغذائية,24.6104749,46.7138924,"6656 Manfuhah, 2834, Riyadh",Restaurants,"supermarket,grocery_or_supermarket,food,point_of_interest,store,establishment",
بقالة,24.6168065,46.7183307,"JP89+P8G, Riyadh",Restaurants,"supermarket,grocery_or_supermarket,food,point_of_interest,store,establishment",5
سوبر ماركت افنان,24.609276,46.7152968,حي، 2974 ابن يوسف الاملي، 6522، منفوحة الجديدة، الرياض 12655،,Restaurants,"supermarket,grocery_or_supermarket,food,point_of_interest,store,establishment",3.4
أسواق درة الامتياز الغذائية,24.6101553,46.71342800000001,"ممر الرفادة، حي, JP67+397, Riyadh",Restaurants,"supermarket,grocery_or_supermarket,food,point_of_interest,store,establishment",4
تموينات,24.61823369999999,46.7195944,"7524 Ash Shudaqa, RCCB3400، 3400, Riyadh",Restaurants,"supermarket,grocery_or_supermarket,food,point_of_interest,store,establishment",2.5
تموينات نورة بنت عبدالله بن عسل القحطاني للمواد الغذائية,24.61330779999999,46.70998530000001,"شارع عبدالله بن عبدالرحمن،, JP75+8XH, Riyadh",Restaurants,"supermarket,grocery_or_supermarket,food,point_of_interest,store,establishment",5
تمونیات Adnan super market,24.61541249999999,46.71032109999999,Riyadh,Restaurants,"supermarket,grocery_or_supermarket,food,point_of_interest,store,establishment",
تموينات كيان البيان,24.6174999,46.7215795,"3574 Khalid Ibn Ubaidullah, حي, RCCB7446, 7446, Riyadh",Restaurants,"supermarket,grocery_or_supermarket,food,point_of_interest,store,establishment",5
بقالة حسن أحمد عبدالله حكمي للمواد الغذائية,24.6101775,46.71026070000001,"6608 Prince Abdullah Ibn Abdulrahman Ibn Faisal, 2458, Riyadh",Restaurants,"supermarket,grocery_or_supermarket,food,point_of_interest,store,establishment",3
aboALi,24.613989,46.7177769,3214 ضاحيه لبن الرياض 12654 7038,Shopping Malls,"shopping_mall,point_of_interest,establishment",
مؤسسة واحد تسوق لتجارة الجمله والنجزئة,24.6160292,46.7208559,"بن ابراهيم, شارع عبد اللطيف, Riyadh",Shopping Malls,"shopping_mall,point_of_interest,establishment",
مكتب الصغير للدعاية والإعلان وصيانة اللابتوب,24.61263259999999,46.7221888,"Uday Ibn Hatim At Tai, JP7C+3V4, المنفوحة_",Shopping Malls,"shopping_mall,point_of_interest,establishment",5
شركة ركن الهبة للتجارة لمستحضرات التجميل,24.61528500000001,46.7219479,7192 صفوان التميمي، منفوحة الجديدة، الرياض 12656 3634،,Shopping Malls,"shopping_mall,point_of_interest,establishment",4.8
AL MEAJIL CENTER,24.6161451,46.7216449,"JP8C+FM2, Riyadh",Shopping Malls,"shopping_mall,point_of_interest,establishment",4.6
شركة شمس المدينة المنفوحة,24.6166071,46.7216009,"RCCB3570، 3570 منفوحة، 7341, Riyadh",Shopping Malls,"shopping_mall,point_of_interest,establishment",3.6
كماليات قمة الوصول,24.6098705,46.7113932,"Manfuhah, JP56+WHR, Riyadh",Shopping Malls,"shopping_mall,point_of_interest,establishment",3.5
مكتبة منزل البركة,24.6188567,46.7187674,"Al Cheikh Abd Al Latif Ibn Ibrahim, JP99+GGR, Riyadh",Shopping Malls,"shopping_mall,point_of_interest,establishment",3
مؤسسة احلى روج للعطورات,24.61614419999999,46.7224105,"3675 رحيان، 7244, Riyadh",Shopping Malls,"shopping_mall,point_of_interest,establishment",4.4
شجرة التوفير,24.61872640000001,46.7199551,"3401 Al Cheikh Muhammad Ibn Ibrahim, RCCA7584، 7584, Riyadh",Shopping Malls,"shopping_mall,point_of_interest,establishment",4.7
بنوب الرياض,24.6152688,46.7099217,7166 الأمير عبد الله بن عبد الرحمن بن فيصل، عتيقة، الرياض 12653,Shopping Malls,"shopping_mall,point_of_interest,establishment",5
عبايات أنوار المطيري,24.6197628,46.7180612,"3234 Al Cheikh Abd Al Latif Ibn Ibrahim, 7678, Riyadh",Shopping Malls,"shopping_mall,point_of_interest,establishment",3
مجموعة ملاحم مخفضة,24.6196755,46.71938400000001,"Al Cheikh Muhammad Ibn Ibrahim, JP99+VQC, Riyadh",Shopping Malls,"shopping_mall,point_of_interest,establishment",4.2
مقهى دلة العروبة للقهوة,24.6517961,46.6894524,"حي, Riyadh",Restaurants,"cafe,store,point_of_interest,food,establishment",5
Dunkin' - دانكن,24.6434375,46.6951875,Riyadh,Restaurants,"cafe,store,point_of_interest,food,establishment",4.5
كوفي شوب عبدالرحمن,24.6537482,46.6885803,"Nasseriyah Street, MM3Q+FCW, Riyadh",Restaurants,"cafe,store,point_of_interest,food,establishment",
Cairo Door café,24.6373511,46.69326,"Faisal bin turky alwashm, Ibn Sharwan, Riyadh",Restaurants,"cafe,store,point_of_interest,food,establishment",5
كافية باب القاهرة,24.6373421,46.6932814,"Al Imam Faisal Ibn Turki Ibn Abdallah, Riyadh",Restaurants,"cafe,store,point_of_interest,food,establishment",4.7
Arabica coffee,24.6371904,46.6931136,"3820 Al Imam Faisal Ibn Turki Ibn Abdallah, Riyadh",Restaurants,"cafe,store,point_of_interest,food,establishment",4.2
مقهى الامداد المتمكن للقهوه العربيه,24.6545301,46.6883101,"3875 حي, RBJA8311، 8311 الأمير سعود بن فيصل بن عبدالعزيز, Riyadh",Restaurants,"cafe,store,point_of_interest,food,establishment",3.7
Petromin Express,24.637549,46.693295,"Naft Gas Station, Imam Abd Al Aziz Mohamed Ibn Saud St, Riyadh",Other Stores,"car_wash,car_repair,store,point_of_interest,establishment",4
شركة الجزيرة للأجهزة المنزلية المحدودة,24.637625,46.69998229999999,"Al Imam Faisal Ibn Turki Ibn Abdallah, JMQX+2XX, Riyadh",Other Stores,"home_goods_store,store,point_of_interest,establishment",2.8
شركة مصنع ربوع الجزيرة,24.6374486,46.70017989999999,"Al Imam Faisal Ibn Turki Ibn Abdallah, JPP2+X3F, Riyadh",Other Stores,"furniture_store,home_goods_store,store,point_of_interest,establishment",3.8
SETRA سِترا | Saudi Setra Blinds Factory - شركة مصنع سترا السعودية للستائر,24.6376624,46.7011995,"Imam Faisal Bin Turki Street, Riyadh",Other Stores,"home_goods_store,general_contractor,store,point_of_interest,establishment",4.5
Al-Ameen Dev. & Trade Co. شركة الأمين للتنمية والتجارة,24.6378831,46.7030716,"Al Imam Faisal Ibn Turki Ibn Abdallah, Riyadh",Other Stores,"furniture_store,home_goods_store,store,point_of_interest,establishment",4
مزارع فقيه للدواجن,24.6519844,46.6696563,"Prince Sattam Ibn Abd Al Aziz, MM29+QVV, Riyadh",Restaurants,"store,food,point_of_interest,establishment",5
عوارض للتجميل Awarid cosmetics,24.6382139,46.7065326,"2448 Al Imam Faisal Ibn Turki Ibn Abdallah, 7707, Riyadh",Other Stores,"store,point_of_interest,establishment",4
Baskin Robbins,24.6642379,46.68258300000001,"Al Takhassousi, MM7M+M2W, Riyadh",Restaurants,"store,food,point_of_interest,establishment",4.3
Sandman Men tailor and fabrics,24.6550644,46.66782620000001,"المغيرة بن شعبة, MM49+24G, Riyadh",Fashion Stores,"clothing_store,store,point_of_interest,establishment",3.8
Nazih Cosmetics (Khazan Showroom),24.6378234,46.7076699,Ghazan Showroom Ghazan Street,Other Stores,"store,point_of_interest,establishment",3.9
بقالة,24.6365467,46.6884246,"8618 Al Imam Faisal Ibn Turki Ibn Abdallah, 3371, Riyadh",Restaurants,"supermarket,grocery_or_supermarket,store,food,point_of_interest,establishment",2.9
تموينات منوة الرياض,24.63492489999999,46.6922895,"Al Imam Abd Al Aziz Ibn Muhammad Ibn Saoud, JMMR+XW7, Riyadh",Restaurants,"supermarket,grocery_or_supermarket,store,food,point_of_interest,establishment",3
الخزان,24.637,46.6954722,"JMPW+P5Q, Riyadh",Restaurants,"supermarket,grocery_or_supermarket,store,food,point_of_interest,establishment",
Shelves Land,24.6373786,46.6962468,"Suleiman Al Qouzai, Riyadh",Restaurants,"supermarket,storage,grocery_or_supermarket,store,food,point_of_interest,establishment",4.8
تموينات وسام الخالديه,24.6367784,46.6956995,"Al Imam Faisal Ibn Turki Ibn Abdallah, JMPW+P78, Riyadh",Restaurants,"supermarket,grocery_or_supermarket,store,food,point_of_interest,establishment",3.4
City Wonders For Luxuries أعاجيب المدينة للكماليات,24.63695,46.6972801,"8663 الامام فيصل بن تركي بن عبدالله, حي, 4235, الرياض",Restaurants,"supermarket,grocery_or_supermarket,store,food,point_of_interest,establishment",3.7
Othaim Markets,24.637007,46.697471,"Al Imam Faisal Ibn Turki Ibn Abdallah, Riyadh",Restaurants,"supermarket,grocery_or_supermarket,store,food,point_of_interest,establishment",4.1
OTHAIM 27,24.6368503,46.6979589,"4310 Mani Al Muridi, 8671, Riyadh",Restaurants,"supermarket,grocery_or_supermarket,store,food,point_of_interest,establishment",2.5
مكتب العسيري,24.6548614,46.675929,"Prince Faisal Bin Fahd Bin Abdulaziz Road, MM3G+W9V, Riyadh",Restaurants,"supermarket,grocery_or_supermarket,store,food,point_of_interest,establishment",3.8
تموينات عائشة للمواد الغذائية,24.6523233,46.6729023,طريق الأمير فيصل بن فهد بن عبدالعزيز، الناصرية،,Restaurants,"supermarket,grocery_or_supermarket,store,food,point_of_interest,establishment",4
تموينات ماركت,24.64859340000001,46.6707913,"JMXC+C8M, Riyadh",Restaurants,"supermarket,grocery_or_supermarket,store,food,point_of_interest,establishment",3.8
تموينات بريق النقاء,24.6485804,46.67074230000001,"شارع الامير سطام بن عبد العزيز ال سعود, Riyadh",Restaurants,"supermarket,grocery_or_supermarket,store,food,point_of_interest,establishment",5
مركز الفاخرية التجاري,24.643111,46.67454019999999,2475 طريق الامير طلال بن عبدالعزيز، الفاخرية، الرياض 12737 7032،,Shopping Malls,"shopping_mall,point_of_interest,establishment",5
جيل الفوم,24.6379134,46.6992845,"الفوطة،, 4460-4438 الامام فيصل بن تركي بن عبدالله،, Riyadh",Shopping Malls,"shopping_mall,point_of_interest,establishment",4
Seema COSMETICS,24.6373728,46.6990497,"JMPX+WJV, الامام فيصل بن تركي بن عبدالله، ام سليم،, Riyadh",Shopping Malls,"shopping_mall,point_of_interest,establishment",3.8
Mahal zafar,24.6347527,46.6983053,"JMMX+W83, Riyadh",Shopping Malls,"shopping_mall,point_of_interest,establishment",
Al hazaz الهزاز,24.648645,46.670258,"Prince Sattam Ibn Abd Al Aziz, JMXC+F42, Riyadh",Shopping Malls,"shopping_mall,point_of_interest,establishment",4.2
محامص كيف زمان,24.6510773,46.67043690000001,"6214 Prince Sattam Ibn Abd Al Aziz, RBFA4788، 4788, Riyadh",Shopping Malls,"shopping_mall,point_of_interest,establishment",4.1
The Groves,24.6354471,46.6719502,Riyadh,Restaurants,"restaurant,shopping_mall,cafe,park,food,point_of_interest,establishment",4.2
معرض الهيبر للديكور والرفوف,24.637419,46.7023473,Riyadh,Shopping Malls,"shopping_mall,furniture_store,home_goods_store,point_of_interest,store,establishment",4.6
مؤسسة سارة عبدالله البقمي,24.6552626,46.6716448,"Al Jawharah Bint Ibn Muammar, Riyadh",Shopping Malls,"shopping_mall,point_of_interest,establishment",5
علاقة الشامل للديكور,24.6376191,46.70563,"2520 Al Imam Faisal Ibn Turki Ibn Abdallah, Riyadh",Shopping Malls,"shopping_mall,point_of_interest,establishment",4.3
العسلي للعطور وادوات التجميل,24.6376729,46.70630739999999,Riyadh,Shopping Malls,"shopping_mall,point_of_interest,establishment",4
مؤسسة منار المستقبل,24.6387703,46.7068641,"Al Atif, JPQ4+GP5, Riyadh",Shopping Malls,"shopping_mall,point_of_interest,establishment",4.6
vagetable & Fruits shop,24.6377768,46.70663839999999,"Al Imam Faisal Ibn Turki Ibn Abdallah, Riyadh",Shopping Malls,"shopping_mall,point_of_interest,establishment",5
معرض جدة للديكور,24.6381071,46.7069481,"Al Imam Faisal Ibn Turki Ibn Abdallah, Riyadh",Shopping Malls,"shopping_mall,point_of_interest,establishment",4
ALMAARDH DECOR (HRM DECOR),24.6378092,46.7073656,"2527 Al Imam Faisal Ibn Turki Ibn Abdallah, Riyadh",Shopping Malls,"shopping_mall,furniture_store,home_goods_store,point_of_interest,store,establishment",4.6
سفرة الثريا,24.6312728,46.7116621,"2709 Al Imam Turki Ibn Abd Allah Ibn Muhammad, Office No. 404-405 Al Mugalia Building No.4, Riyadh",Restaurants,"restaurant,food,point_of_interest,establishment",4.3
JU Sandwiches,24.6308337,46.7117965,"JPJ6+8PM, Al Safa Square, الرياض",Restaurants,"restaurant,food,point_of_interest,establishment",3.5
Slider Corner,24.6308337,46.7117965,"JPJ6+8PM, Al Safa Square, الرياض",Restaurants,"restaurant,food,point_of_interest,establishment",
Fahd Abdullah Al-Mahous Buffet,24.632904,46.715158,"King Faisal Road, JPM8+537, Riyadh",Restaurants,"restaurant,food,point_of_interest,establishment",3
Ragheif & Kaif,24.6303238,46.7119524,"Al Thumairi Street, JPJ7+CXP, Riyadh",Restaurants,"restaurant,food,point_of_interest,establishment",3.8
مطعم الذ وجبة لتقديم الوجبات أميرة أحمد عبدالله,24.6310085,46.7152627,"6905، 3336, Riyadh",Restaurants,"restaurant,food,point_of_interest,establishment",2.9
Fresh food,24.63093929999999,46.7152795,"6897, 3337, الرياض",Restaurants,"restaurant,food,point_of_interest,establishment",4
Dhanuqtah buffet,24.6297928,46.71245429999999,"3059 الشيخ محمد بن ابراهيم, 6779 Al Sheikh, الرياض",Restaurants,"restaurant,food,point_of_interest,establishment",4.7
خياط ركن ميلاف,24.6337688,46.7154856,"3310 King Faisal Road, Riyadh",Restaurants,"restaurant,food,point_of_interest,establishment",2.3
مقهى قيصرية الكتاب,24.6309705,46.712519,"JPJ7+72J، الديرة، الرياض 12634،،, الرياض",Restaurants,"cafe,food,point_of_interest,establishment",4.1
Elixir Bunn Coffee Roasters,24.630901,46.7122452,"Dist, 7000 الامام تركي بن عبدالله بن محمد, 3157, الرياض",Restaurants,"cafe,store,food,point_of_interest,establishment",3.9
Rabeez Cafe,24.63078560000001,46.7126729,"Al Thumairi Street, JPJ7+837, Riyadh",Restaurants,"cafe,store,food,point_of_interest,establishment",4.1
أم فيصل من الدرعية,24.6306694,46.7132275,"Al Imam Turki Ibn Abd Allah Ibn Muhammad, JPJ7+778, Riyadh",Restaurants,"cafe,store,food,point_of_interest,establishment",5
ساري ترك,24.6307713,46.71366769999999,"Al Thumairi Street, 7HP8JPJ7+7F, Riyadh",Restaurants,"bakery,cafe,store,food,point_of_interest,establishment",5
Coffee Roasters,24.6308337,46.7117965,"JPJ6+8PM, Al Safa Square, الرياض",Restaurants,"cafe,store,food,point_of_interest,establishment",4.4
Coffee Boxes,24.6308337,46.7117965,"JPJ6+8PM, Al Safa Square, الرياض",Restaurants,"cafe,store,food,point_of_interest,establishment",
Hot and Cold Drinks cafe,24.6305213,46.7125227,"Al Thumairi Street, JPJ7+622, Riyadh",Restaurants,"cafe,food,point_of_interest,establishment",3.9
مؤسسة ثقافات للتجارة,24.6306813,46.7142591,"Al Thumairi Street, JPJ7+7FG, Riyadh",Restaurants,"cafe,store,food,point_of_interest,establishment",4.7
كفي حلو,24.6304893,46.7140077,"6851، 3207, Riyadh",Restaurants,"cafe,store,food,point_of_interest,establishment",4.3
Accents Coffee,24.6304396,46.7139446,"Al Thumairi Street, Riyadh",Restaurants,"cafe,store,food,point_of_interest,establishment",4.5
CAFÉ OLD RIYADH,24.6300715,46.71273129999999,"3061 Al Thumairi Street, Riyadh",Restaurants,"cafe,store,food,point_of_interest,establishment",5
Haila Coffee,24.6299389,46.71266660000001,Riyadh,Restaurants,"cafe,store,food,point_of_interest,establishment",4.9
مقهي التوازن الصحي لتقديم المشروبات,24.6309931,46.7157981,"King Faisal Road, JPJ8+98V, Riyadh",Restaurants,"cafe,store,food,point_of_interest,establishment",
بازار القهوة,24.6300498,46.7097426,"2778 Al Imam Muhammad Ibn Saoud Ibn Mouqren, Riyadh",Restaurants,"cafe,store,food,point_of_interest,establishment",
Sorta,24.6287955,46.7116325,"2998 Shaikh Mohammad Bin Abdulwahab Street, 6723, Riyadh",Restaurants,"cafe,store,food,point_of_interest,establishment",
Al saban for sewing machine,24.6324069,46.7138344,"3200 Al Imam Turki Ibn Abd Allah Ibn Muhammad, Riyadh",Other Stores,"store,point_of_interest,establishment",3.6
Blue Falcon for sewing machines,24.6317992,46.71091010000001,"2902 الامام تركي بن عبدالله بن محمد، الديرة الرياض 12633 7001 Al Imam Turki Ibn Abd Allah Ibn Muhammad, Riyadh",Other Stores,"store,point_of_interest,establishment",4
ساعات هلويزا,24.6305838,46.7134576,"حي, 6859 Al Thumairi Street, 3151, Riyadh",Other Stores,"store,point_of_interest,establishment",4.9
ShoeLand,24.630245,46.712499,"Al Thumairi Street, Riyadh",Fashion Stores,"shoe_store,store,point_of_interest,establishment",4.5
Al Muneef Electronics,24.6298066,46.7131018,"3121, Riyadh",Electronics,"electronics_store,store,point_of_interest,establishment",4
Suwailem Street Perfumes and Games,24.63148099999999,46.70964699999999,"الديره-المعيقليه, Riyadh",Fashion Stores,"clothing_store,store,point_of_interest,establishment",4
الدفه,24.63399560000001,46.7158661,"مركز سليمان التجاري, شارع الوزير، حي البطحاء, Riyadh",Fashion Stores,"clothing_store,store,point_of_interest,establishment",3.5
شركة التطبيقات الطبية المحدودة ميديسيس,24.6331469,46.7162228,"7172 Al Bathaa, Riyadh",Electronics,"electronics_store,store,point_of_interest,establishment",4
Toys Child,24.6328953,46.70925569999999,"7112 Al Suwailim, 2727, Riyadh",Other Stores,"store,point_of_interest,establishment",4
العجلان للمشالح الفاخرة,24.629315,46.7118401,"شارع الشيخ محمد بن إبراهيم، سوق الزل، حي الديرة, JPH6+PPG, Riyadh",Fashion Stores,"clothing_store,store,point_of_interest,establishment",4.3
ركن العملاق للخياطة العسكرية,24.6354433,46.71502590000001,"7385-7407 King Faisal Road, Riyadh",Fashion Stores,"clothing_store,store,point_of_interest,establishment",3.6
حلويات ومكسرات الدوسري,24.63149199999999,46.7103781,"Al Imam Turki Ibn Abd Allah Ibn Muhammad, JPJ6+H5R, Riyadh",Restaurants,"supermarket,grocery_or_supermarket,store,point_of_interest,food,establishment",3.8
Samiya optics,24.6321985,46.7093776,"2743 Al Suwailim, 7038, Riyadh",Restaurants,"supermarket,grocery_or_supermarket,store,point_of_interest,food,health,establishment",3
العزيزيه,24.63329999999999,46.7167,"Al Madina Al Munawwarah Road, JPM8+8M8, Riyadh",Restaurants,"supermarket,grocery_or_supermarket,store,point_of_interest,food,establishment",4.5
شركة صالح عبدالمحسن العواد وشريكه للتجاره,24.6301859,46.7089753,"2702 Al Imam Muhammad Ibn Saoud Ibn Mouqren, Riyadh",Restaurants,"shopping_mall,supermarket,grocery_or_supermarket,store,point_of_interest,food,establishment",4.3
بقالة 24ساعة,24.6349983,46.71739640000001,"موقف, الخرج",Restaurants,"supermarket,grocery_or_supermarket,store,point_of_interest,food,establishment",
البطحاء المرقب,24.635248,46.7173553,"Al Bathaa, JPP8+3WX, Riyadh",Restaurants,"supermarket,grocery_or_supermarket,store,point_of_interest,food,establishment",4
زاوية الدروع للهديا وسيوف والمشالح,24.62738839999999,46.7147487,"سوق الزل, Al Cheikh Muhammad Ibn Ibrahim, Riyadh",Restaurants,"supermarket,grocery_or_supermarket,store,point_of_interest,food,establishment",4.2
بوينت ماركت | point market,24.6281875,46.7169375,"JPH8+7Q2, Riyadh",Restaurants,"supermarket,grocery_or_supermarket,store,point_of_interest,food,establishment",
اسواق العثيم | Othaim Markets,24.629672,46.718473,"اسواق, Al Bathaa, Riyadh",Restaurants,"supermarket,grocery_or_supermarket,store,point_of_interest,food,establishment",4.2
Mitali Supermarket,24.6373562,46.716708,"3475-3511 Muhammad Ibn Al Amir, Riyadh",Restaurants,"supermarket,grocery_or_supermarket,store,point_of_interest,food,establishment",
العطائف,24.6349631,46.7065087,"7328 Al Atayif, Riyadh",Restaurants,"supermarket,grocery_or_supermarket,store,point_of_interest,food,establishment",4.3
الدهاليز للمواد الغذائية,24.63928200000001,46.7102047,"2809 الظهيرة، الفوطة, 7825, Riyadh",Restaurants,"supermarket,grocery_or_supermarket,store,point_of_interest,food,establishment",3.7
تموينات عبدالله بن عمر بن سالم الصيعري للمواد الغذائية,24.6351163,46.72051339999999,"شارع الرس، الخرج, JPPC+26R, Riyadh",Restaurants,"supermarket,grocery_or_supermarket,store,point_of_interest,food,establishment",4
تموينات هيا سلطان,24.6351766,46.7204969,6579 الرس، 2563، المرقب، الرياض 12645،,Restaurants,"supermarket,grocery_or_supermarket,store,point_of_interest,food,establishment",3.5
تموينات هند,24.6340853,46.72089640000001,"2594 الرس, RCSB6447، 6447, Riyadh",Restaurants,"supermarket,grocery_or_supermarket,store,point_of_interest,food,establishment",4
تموينات نداء الطبيعه,24.6396834,46.70991189999999,"JPQ5+VXF, Riyadh",Restaurants,"supermarket,grocery_or_supermarket,store,point_of_interest,food,establishment",3.3
مؤسسة رونق الشمس لمستلزمات الصوالين والحلاقة,24.6324069,46.7138344,"3200-3156 الامام تركي بن عبدالله بن محمد، الديرة، الرياض 12634, Riyadh",Shopping Malls,"shopping_mall,point_of_interest,establishment",1
خياط,24.6319594,46.7142941,"مركز سويقة التجاري, Al Imam Turki Ibn Abd Allah Ibn Muhammad, Riyadh",Shopping Malls,"shopping_mall,point_of_interest,establishment",
Maraz athralkhozam شارع الظهيرة لبيع الستاير,24.6334169,46.7113362,"Adh Dhahirah, Riyadh",Shopping Malls,"shopping_mall,point_of_interest,establishment",4.1
ألوان العبير للعطور والتجميل,24.6316713,46.71445180000001,"3265 Al Imam Turki Ibn Abd Allah Ibn Muhammad, Riyadh",Shopping Malls,"shopping_mall,point_of_interest,establishment",4.8
مؤسسة طاد للتحف والهدايا,24.63075869999999,46.7131598,"Al Imam Turki Ibn Abd Allah Ibn Muhammad, JPJ7+778, Riyadh",Shopping Malls,"shopping_mall,point_of_interest,establishment",
اندر السبح (للخواتم والسبح),24.6307233,46.7125075,"JPJ7+72J, Riyadh",Shopping Malls,"shopping_mall,point_of_interest,establishment",4.3
مؤسسة نخبة المبيعات,24.63106490000001,46.71403119999999,3212 شارع الثميري، 6914، الديرة، الرياض 12634،,Shopping Malls,"shopping_mall,point_of_interest,establishment",4.8
مركز سويقة التجاري البوابة 1,24.6322141,46.71487750000001,"7050 Al Imam Turki Ibn Abd Allah Ibn Muhammad, 3305, Riyadh",Shopping Malls,"shopping_mall,point_of_interest,establishment",4.4
الشيبان للإكسسوارات والعصي,24.6305348,46.71328930000001,"6859 Al Thumairi Street, 3151, Riyadh",Shopping Malls,"shopping_mall,point_of_interest,establishment",4.6
Clock Tower Souk,24.6306187,46.7138228,"3201-3355 Al Thumairi Street, Riyadh",Shopping Malls,"shopping_mall,point_of_interest,establishment",4.5
Derah Market,24.6306179,46.71382120000001,"3201 Al Thumairi Street, Riyadh",Shopping Malls,"shopping_mall,point_of_interest,establishment",4.4
مؤسسة لمسة العيد للسبح وصيانة السبح,24.6303485,46.71303469999999,"Al Thumairi Street, الديره, Riyadh",Shopping Malls,"shopping_mall,point_of_interest,establishment",3
Najd Village,24.6976883,46.66923329999999,"شارع التخصصي،, Riyadh",Restaurants,"restaurant,food,point_of_interest,establishment",3.9
McDonald's,24.683756,46.652378,Riyadh,Restaurants,"restaurant,food,point_of_interest,establishment",4
Herfy,24.6755556,46.675,"Makkah Al Mukarramah Branch Road, MMGG+62C, Riyadh",Restaurants,"restaurant,food,point_of_interest,establishment",3.7
KFC,24.67828310000001,46.65571089999999,"شارع أم الحمام, Om, الرياض",Restaurants,"restaurant,food,point_of_interest,establishment",4
Subway,24.680682,46.66622,"St, 3832 الامير سلطان بن عبدالعزيز, Tamimi Branch, الرياض",Restaurants,"restaurant,food,point_of_interest,establishment",4
Doe Sandwich Shop,24.68146399999999,46.6671586,"2448 Prince Sultan Ibn Abdulaziz, Riyadh",Restaurants,"restaurant,food,point_of_interest,establishment",4
Shuneez,24.68155350000001,46.66754410000001,"2448 Prince Sultan Bin Abdulaziz Road, Riyadh",Restaurants,"restaurant,food,point_of_interest,establishment",4
Piatto Restaurant,24.6912897,46.6695474,"Panorama mall Gate 2, Al Takhassousi, Riyadh",Restaurants,"restaurant,food,point_of_interest,establishment",4.3
Casapasta | كازاباستا,24.6920807,46.66899309999999,"Prince Muhammad Ibn Abdulaziz Rd, Riyadh",Restaurants,"restaurant,food,point_of_interest,establishment",4
Canton | كانتون,24.69142519999999,46.6698595,"3565 Al Takhassousi, 6526, Riyadh",Restaurants,"restaurant,food,point_of_interest,establishment",3.8
Charleys Cheesesteaks,24.6927655,46.6687977,"Al Takhassousi, Riyadh",Restaurants,"restaurant,food,point_of_interest,establishment",3
Popeyes Louisiana Kitchen,24.6920461,46.66984310000001,"Panorama Mall, Riyadh",Restaurants,"restaurant,food,point_of_interest,establishment",4.6
McDonald's,24.692004,46.67022600000001,"Panoram Mall, Riyadh",Restaurants,"restaurant,food,point_of_interest,establishment",3.1
McDonald's,24.674518,46.668066,"Turki Square, Riyadh",Restaurants,"restaurant,food,point_of_interest,establishment",4.1
Raising Cane's,24.6892661,46.6739348,"Bustan Centre, Riyadh",Restaurants,"restaurant,food,point_of_interest,establishment",4.5
Tim Hortons,24.6955157,46.6703825,"Al Takhassousi, Riyadh",Restaurants,"cafe,bakery,restaurant,store,food,point_of_interest,establishment",4.2
Tutti Cafe,24.69250449999999,46.6734398,"3950 طريق الأمير محمد بن عبدالعزيز، العليا،, 3950 Prince Muhammad Bin Abdulaziz Rd, Riyadh",Restaurants,"cafe,restaurant,store,food,point_of_interest,establishment",4.1
Manoosha | منؤشة,24.675638,46.673423,"3034 Makkah Al Mukarramah Branch Road, Riyadh",Restaurants,"restaurant,food,point_of_interest,establishment",3.9
Burgerizzr,24.698524,46.669301,"Al Takhassousi, Riyadh",Restaurants,"restaurant,food,point_of_interest,establishment",4
KFC,24.6764546,46.6761413,"شارع التخصصي, Hyper Panda Takhassusi, الرياض",Restaurants,"restaurant,food,point_of_interest,establishment",4
molten,24.6743844,46.6683883,"Makkah Al Mukarramah Road, Riyadh",Restaurants,"cafe,store,point_of_interest,food,establishment",4.1
كوكيز آند كريم,24.6891424,46.6740713,"Al Takhassousi, Riyadh",Restaurants,"cafe,bakery,store,point_of_interest,food,establishment",4.2
Dunkin - دانكن,24.676328,46.67561299999999,"Al Takhassousi, Riyadh",Restaurants,"cafe,store,point_of_interest,food,establishment",4.2
Starbucks,24.6763674,46.676509,"Al Takhassousi, Riyadh",Restaurants,"cafe,store,point_of_interest,food,establishment",4.1
اروما,24.6866676,46.6806202,"Prince Sultan Bin Abdulaziz Road, Riyadh",Restaurants,"cafe,point_of_interest,food,establishment",4.5
Starbucks,24.7023471,46.6506573,"Oruba Square Drive Thru, Riyadh",Restaurants,"cafe,store,point_of_interest,food,establishment",4.1
Krispy Kreme,24.705125,46.66478059999999,"Beside Euromarche Market, Al Takhassousi, Riyadh",Restaurants,"cafe,bakery,store,point_of_interest,food,establishment",4.3
Dunkin' - دانكن,24.7081879,46.6616337,"القمراء, PM56+7M6, ÇáØÇÈÞ ÇáËÇáË¡, الرياض",Restaurants,"cafe,store,point_of_interest,food,establishment",4.2
Caramel Lobby Lounge,24.700242,46.682188,"Rosh Rayhaan by Rotana, Olaya Street, Riyadh",Restaurants,"cafe,store,point_of_interest,food,establishment",4.4
Dxn Destiputor,24.7107301,46.6624468,"Al Takhassousi, PM66+7XW, Riyadh",Restaurants,"cafe,point_of_interest,food,establishment",3.7
MMP6+JWW أم الحمام الشرقي، الرياض,24.686996,46.65981060000001,"MMP5+QWV, Riyadh",Restaurants,"cafe,store,point_of_interest,food,establishment",
كافيه 42,24.6828089,46.6636146,"ا, Yazid Ibn Abdullah, Riyadh",Restaurants,"cafe,point_of_interest,food,establishment",1
1454,24.6879269,46.6646828,"3543 شارع التحلية, المعذر الشمالي7302 , الرياض 13515, Riyadh",Restaurants,"cafe,store,point_of_interest,food,establishment",4.5
Groovy,24.6879587,46.66475029999999,"MMQ7+5WJ, Riyadh",Restaurants,"cafe,store,point_of_interest,food,establishment",5
شاي وچباتي الندى,24.6824644,46.6659674,"5656 Prince Turki Bin Abdulaziz Al Awal Road, حي, 6892, Riyadh",Restaurants,"cafe,store,point_of_interest,food,establishment",4.3
Archi | ارتشي,24.688206,46.6653789,"7462 حي, RGMA2195، 2195 طريق الامير محمد بن عبدالعزيز, الرياض",Restaurants,"cafe,point_of_interest,food,establishment",4.1
Arabica Coffee,24.6844977,46.6522549,"Umm Al Hamam Street, MMM2+QWR, Riyadh",Restaurants,"cafe,point_of_interest,food,establishment",4
Jahid,24.678046,46.657932,"6392 برهان الدين الداراني, RGUA4874، 4874, الرياض",Restaurants,"cafe,store,point_of_interest,food,establishment",
Dr. Sulaiman Al Habib Olaya Medical Complex,24.704154,46.677113,"King Fahd Road, Riyadh",Pharmacies,"hospital,pharmacy,doctor,health,point_of_interest,store,establishment",4.6
Jarir Bookstore,24.7018094,46.6806913,"Olaya Street, Riyadh",Electronics,"electronics_store,book_store,home_goods_store,point_of_interest,store,establishment",4.3
Whites,24.6758125,46.67631249999999,"MMGG+8G, Riyadh",Pharmacies,"pharmacy,health,point_of_interest,store,establishment",4.3
Al Sannat For Luggage - Magellan,24.6919785,46.6685653,"الأمير محمد بن عبدالعزيز المعذر الشمالي - بانوراما مول بجانب بوابة رقم 4, Riyadh",Other Stores,"point_of_interest,store,establishment",4.2
Panda Hyper 10010 | بنده هايبر,24.679878,46.6534522,"Umm Al Hamam Street, دوف بلازا, Riyadh",Restaurants,"supermarket,grocery_or_supermarket,food,point_of_interest,store,establishment",4.2
عبد الصمد القرشي للعطور والعود والمسك والبخور,24.6796794,46.6536392,"Umm Al Hamam Street, MMH3+VF, Riyadh",Fashion Stores,"clothing_store,point_of_interest,store,establishment",4.1
الجوهره سويت,24.6852828,46.6682102,"MMP9+478, Riyadh",Restaurants,"food,point_of_interest,store,establishment",4.4
Qasr Alawani,24.6740695,46.66042729999999,"حي, Makkah Al Mukarramah Road, Riyadh",Shopping Malls,"shopping_mall,furniture_store,home_goods_store,point_of_interest,store,establishment",3.7
Villeroy & Boch - Panorama Mall,24.6919177,46.6686355,"Al Takhassousi, Panorama Mall, Riyadh",Other Stores,"home_goods_store,point_of_interest,store,establishment",4.3
Michael Kors - Panorama Mall,24.6918234,46.6690724,"At Takhassusi Al Madhar, Riyadh",Fashion Stores,"shoe_store,clothing_store,point_of_interest,store,establishment",4
Massimo Dutti,24.6927817,46.6681302,"Centro Comercial Panorama, 3323 Athitha, Riyadh",Fashion Stores,"clothing_store,point_of_interest,store,establishment",3.2
Pandora Panorama Mall,24.6923352,46.6686636,"Al Takhassousi, Riyadh",Other Stores,"jewelry_store,point_of_interest,store,establishment",4.3
Desigual,24.692,46.669,"Panorama Mall, Riyadh",Fashion Stores,"clothing_store,point_of_interest,store,establishment",3.8
خلطات,24.6917585,46.6695045,"MMR9+PR2, Riyadh",Fashion Stores,"clothing_store,point_of_interest,store,establishment",4.2
TOUS,24.6923723,46.6691494,"Ground Floor, Panorama Mall, Al Takhassousi, Riyadh",Other Stores,"jewelry_store,point_of_interest,store,establishment",3.9
Anfasic Dokhoon,24.6922651,46.6692996,"Ashiqar, MMR9+WP3, Riyadh",Fashion Stores,"clothing_store,point_of_interest,store,establishment",4.2
Danube,24.6929773,46.66860989999999,"بانورما مول، شارع التخصصي،،, الرياض",Restaurants,"grocery_or_supermarket,food,point_of_interest,store,establishment",4.3
Sacoor Brothers,24.6921382,46.66964129999999,"12332 Al Takhassousi, Panorama Mall, Ground floor, Unit UG 56/57, Riyadh",Fashion Stores,"clothing_store,point_of_interest,store,establishment",4.3
TUMI - Panorama Mall,24.69248260000001,46.6695279,"Panorama Mall Panorama Mall Gate no. 2Al Mathar ,Tahliya StreetRiyadh, Saudi Arabia saudi arabia",Other Stores,"point_of_interest,store,establishment",4
Dune Panorama Mall,24.692123,46.669965,"UG 118, Ground Floor, Takhassusi Street, Al Madhar Ash Shamali",Fashion Stores,"shoe_store,point_of_interest,store,establishment",3.3
Tamimi Markets,24.6743159,46.6683804,"Makkah Al Mukarramah Rd, Riyadh",Restaurants,"supermarket,convenience_store,grocery_or_supermarket,store,point_of_interest,food,establishment",4.1
Tamimi Markets,24.6909541,46.681963,"King Fahd Road, Riyadh",Restaurants,"convenience_store,supermarket,grocery_or_supermarket,store,point_of_interest,food,establishment",4.1
Meed - ميد,24.6979065,46.6396635,"3021 Al Urubah Branch Road, Riyadh",Restaurants,"convenience_store,supermarket,grocery_or_supermarket,store,point_of_interest,food,establishment",3.5
اسواق العثيم | Othaim Markets,24.688629,46.643354,"الامير نواف بن عبدالعزيز, تقاطع شارع ام الحمام, الرياض",Restaurants,"supermarket,grocery_or_supermarket,store,point_of_interest,food,establishment",4
إسكان قوات الأمن الخاصة بأم الحمام,24.68453449999999,46.66293140000001,"7165-7211 Yazid Ibn Abdullah, Riyadh",Restaurants,"supermarket,grocery_or_supermarket,store,point_of_interest,food,establishment",4.3
alkhair foods ksa,24.6881687,46.6510835,"Umm Al Hamam Street, Riyadh",Restaurants,"supermarket,grocery_or_supermarket,store,point_of_interest,food,establishment",3
Nyala Ethiopian Shop,24.6892173,46.65090319999999,"Umm Al Hamam Street, Riyadh",Restaurants,"supermarket,grocery_or_supermarket,store,point_of_interest,food,establishment",
عالم الرجبة للمواد الغذائية,24.6895221,46.6500518,"Prince Nawaf Ibn AbdulAziz, MMQ2+R23, Riyadh",Restaurants,"supermarket,grocery_or_supermarket,store,point_of_interest,food,establishment",4.1
تموينات حيالات القصيم,24.6915395,46.650764,Riyadh,Restaurants,"supermarket,grocery_or_supermarket,store,point_of_interest,food,establishment",4.6
نينجا ام الحمام بواسطة بليغ,24.6892454,46.64897819999999,"Prince Nawaf Ibn AbdulAziz, MJQX+PHC, Riyadh",Restaurants,"supermarket,grocery_or_supermarket,store,point_of_interest,food,establishment",
تموينات ومخابز امواج الصبري,24.6911572,46.6502516,"MMR2+F46, Riyadh",Restaurants,"supermarket,grocery_or_supermarket,store,point_of_interest,food,establishment",4.4
Universal Cold Stores Trd Co. Ltd,24.6887865,46.648559,"3901 Prince Nawaf Ibn Abdul Aziz, Riyadh",Restaurants,"supermarket,grocery_or_supermarket,store,point_of_interest,food,establishment",3.9
أسواق هرم البركة,24.675643,46.6662247,"5774 Makkah Al Mukarramah Road, Riyadh",Restaurants,"supermarket,grocery_or_supermarket,store,point_of_interest,food,establishment",4.1
أسواق النخبة,24.6887766,46.6484157,MJQX+F9F، أم الحمام الغربي، الرياض 12324،,Restaurants,"supermarket,grocery_or_supermarket,store,point_of_interest,food,establishment",3.8
super market,24.6746401,46.6645845,"4177 Makkah Al Mukarramah Branch Road, Riyadh",Restaurants,"supermarket,grocery_or_supermarket,store,point_of_interest,food,establishment",4.1
اسواق بوابة البيت المركزية,24.67462889999999,46.6646226,"Umm Al Hamam Street, Riyadh",Restaurants,"supermarket,grocery_or_supermarket,store,point_of_interest,food,establishment",4.4
MiniMart ميني مارت,24.67571190000001,46.66735000000001,"طريق مكة المكرمة, طريق مكة المكرمة الفرعي، أم الحمام الشرقي، الرياض اسم الشارع: طريق الأمير تركي الأول تقاطع, الرياض",Restaurants,"supermarket,grocery_or_supermarket,store,point_of_interest,food,establishment",4.7
أسواق المطيري الجبيل للمواد الغذائية,24.6735009,46.6625726,"8666 الطيور، 3959, Riyadh",Restaurants,"supermarket,grocery_or_supermarket,store,point_of_interest,food,establishment",3.9
اسواق جوي مارت,24.6734167,46.66262329999999,"3959 At Tuyur, 8666, Room#112-113, Riyadh",Restaurants,"supermarket,grocery_or_supermarket,store,point_of_interest,food,establishment",4
Centria Mall,24.6977216,46.6836943,"Olaya Street, Riyadh",Shopping Malls,"shopping_mall,point_of_interest,establishment",4.3
Tafaseel Center,24.6951192,46.66963579999999,"Al Takhassousi, Riyadh",Shopping Malls,"shopping_mall,point_of_interest,establishment",4
Peoples Ad,24.6996184,46.6807137,"No. 58, MMXJ+R7W, Riyadh",Shopping Malls,"shopping_mall,point_of_interest,establishment",5
خطاط وكالة أهل البيت,24.6832244,46.6534391,"MMM3+79P, Riyadh",Shopping Malls,"shopping_mall,point_of_interest,establishment",3.9
Block14,24.6882161,46.66494350000001,"Tahlia Street, Riyadh",Restaurants,"shopping_mall,real_estate_agency,restaurant,point_of_interest,food,establishment",4.2
Dove Plaza,24.6800078,46.6534467,"MMJ3+294, Riyadh",Shopping Malls,"shopping_mall,point_of_interest,establishment",4.2
Al Khair Markets Center,24.6874611,46.6509768,"Jabal Tarek, MMP2+X9Q, Riyadh",Shopping Malls,"clothing_store,shopping_mall,store,point_of_interest,establishment",3.9
مجمع الدبلوماسي,24.6885589,46.6504369,"4099 ام الحمام, RGUA7554، 7554, Riyadh",Shopping Malls,"shopping_mall,point_of_interest,establishment",3.9
Gate 3,24.6917422,46.6686005,"Al Takhassousi, MMR9+MCX, Riyadh",Shopping Malls,"shopping_mall,point_of_interest,establishment",4.4
اسواق سحب الشمال للمواد الغذائية,24.6734406,46.6626102,8666 الطيور، ام الحمام الشرقي، الرياض 12721 3959،,Shopping Malls,"shopping_mall,point_of_interest,establishment",5
تركي سكوير - Turki Square,24.6754598,46.6682052,"Makkah Al Mukarramah Branch Road, Riyadh",Shopping Malls,"shopping_mall,point_of_interest,establishment",4.4
MIDI,24.6931736,46.6689739,"Al Takhassousi, Riyadh",Shopping Malls,"shopping_mall,point_of_interest,establishment",3.9
رمز الاتصالات,24.6936106,46.6502957,Riyadh,Shopping Malls,"shopping_mall,point_of_interest,establishment",
Gate 4,24.6936024,46.669368,"MMV9+CPX, Riyadh",Shopping Malls,"shopping_mall,point_of_interest,establishment",4.3
Arcadia Square,24.6743159,46.6683804,"4539 Makkah Al Mukarramah Branch Road, Riyadh",Shopping Malls,"shopping_mall,point_of_interest,establishment",4.3
Tutia Kids Optical / توتيا لبصريات الأطفال,24.6894382,46.672813,"7388 Al Takhassousi, Riyadh",Shopping Malls,"shopping_mall,doctor,store,point_of_interest,health,establishment",5
بانوراما,24.6935333,46.6703213,شارع التخصصي، المعذر الشمالي، الرياض 12332،,Shopping Malls,"shopping_mall,point_of_interest,establishment",4.5
Panorama Mall,24.6929404,46.6709629,"6526 AT TAKHASSUSI ROAD ALMATHAR ASH SHAMALI DISTRICT CENTRAL PROVINCE, الرياض",Shopping Malls,"shopping_mall,point_of_interest,establishment",4.4
سوق الدغيثر,24.69425510000001,46.6493546,"3964-3984 Al Ammar, Riyadh",Shopping Malls,"shopping_mall,point_of_interest,establishment",3.8
Subway,24.669208,46.668681,"Dist, 6848 Al Zahrawi St, الرياض",Restaurants,"restaurant,point_of_interest,food,establishment",3.9
Arepas,24.6762227,46.6768222,"Al Takhassousi, Riyadh",Restaurants,"restaurant,point_of_interest,food,establishment",4
Domino's Pizza دومينوز بيتزا,24.67601639999999,46.67519000000001,"3198 Makkah Al Mukarramah Branch Road, Riyadh",Restaurants,"meal_delivery,meal_takeaway,restaurant,point_of_interest,food,establishment",4.1
Multi salad,24.6549375,46.6678125,"MM39+X4P, Riyadh",Restaurants,"restaurant,point_of_interest,food,establishment",3
Dunkin' - دانكن,24.649039,46.652005,"Prince Faisal Ibn Fahd Ibn Abdulaziz, Riyadh",Restaurants,"cafe,food,point_of_interest,store,establishment",3.8
Melat,24.6631163,46.6624066,"7733 Al Jud Street, 3952, Riyadh",Restaurants,"cafe,food,point_of_interest,store,establishment",
قهوة جميلة,24.6621815,46.6616613,"Al Barq, MM66+JCR, Riyadh",Restaurants,"cafe,food,point_of_interest,store,establishment",4
قهوة مايا,24.6578285,46.6636214,"MM57+4CQ, الرياض",Restaurants,"cafe,food,point_of_interest,store,establishment",
قهوة حنان العسولة,24.657471,46.665258,"MM47+QW8, Riyadh",Restaurants,"cafe,food,point_of_interest,store,establishment",3
جمبه سيف الحلبي,24.6572015,46.6655586,"MM47+QW8, Riyadh",Restaurants,"cafe,food,point_of_interest,store,establishment",
قهوة,24.6569071,46.6648409,"MM47+QW8, Riyadh",Restaurants,"cafe,food,point_of_interest,store,establishment",
شارع النيل,24.6570229,46.6637719,"4091 المنصور بن راجح, RIHA6825، 6825, الرياض",Restaurants,"cafe,food,point_of_interest,store,establishment",
cafe um Ekram,24.656795,46.66513920000001,"MM47+QW8, Riyadh",Restaurants,"cafe,food,point_of_interest,store,establishment",
قهوه ميري,24.6567785,46.6647221,"MM47+PV9, Riyadh",Restaurants,"cafe,food,point_of_interest,store,establishment",
جمبة اولاد أمبده ( ساره ),24.65671790000001,46.6640029,"MM47+MJJ, Riyadh",Restaurants,"cafe,food,point_of_interest,store,establishment",
الكلاكلة,24.65672279999999,46.6638886,"4133 الندي, RIHA6820، 6820, Riyadh",Restaurants,"cafe,food,point_of_interest,store,establishment",4.8
🚬🚬ساره السرور,24.6567735,46.6634861,"4091 المنصور بن راجح, RIHA6825، 6825, Riyadh",Restaurants,"cafe,food,point_of_interest,store,establishment",5
قهوة عديلة,24.6566633,46.6638417,"4133 الندي, RIHA6820، 6820, الرياض",Restaurants,"cafe,food,point_of_interest,store,establishment",5
قهوة صوفيا,24.6563854,46.6640431,"4133 الندي, RIHA6820، 6820, Riyadh",Restaurants,"cafe,food,point_of_interest,store,establishment",4.5
Tu Lee Gore Perfumes,24.6741624,46.6682923,"8762 Makkah Al Mukarramah Branch Road, 4539, Riyadh",Fashion Stores,"clothing_store,store,point_of_interest,establishment",4.3
King Faisal Specialist Hospital & Research Center Oncology Pharmacy,24.6718448,46.6766283,"Al Takhassousi, Riyadh",Pharmacies,"pharmacy,store,health,point_of_interest,establishment",4
