Name,Subtype,Latitude,Longitude
Unnamed,school,24.721894,46.791422
Indian International School,school,24.722412,46.77315
المدارس السعودية (بنات),school,24.729538,46.787981
Unnamed,school,24.719404,46.679142
Al Rayah School,school,24.708512,46.709455
Unnamed,school,24.69503,46.6951
Unnamed,school,24.701795,46.691216
Secondary School,school,24.658559,46.742983
High School,school,24.658608,46.744013
Elementary School,school,24.657945,46.743004
Girls Secondary School 77,school,24.701506,46.777167
School 281 - Girls,school,24.701077,46.776673
Ibn Hajar Boys School,school,24.73704,46.768199
Unnamed,school,24.58434,46.676152
Unnamed,school,24.584723,46.676459
Unnamed,school,24.584459,46.676652
Unnamed,school,24.777276,46.735218
Unnamed,school,24.584421,46.771909
جامعة الملك سعود,college,24.717099,46.619397
international indian school,school,24.751234,46.813893
International Indian Public School (IIPS),school,24.691083,46.704829
المعهد العلمي بالدرعية,college,24.771885,46.562514
Academic Campus,college,24.855872,46.719039
King Abdullah Petroleum Studies and Research Center,university,24.871935,46.710701
Unnamed,library,24.681721,46.62236
Creche,kindergarten,24.688388,46.619814
KSAU-HS,university,24.757076,46.85719
Unnamed,school,24.576836,46.668709
مدرسة خبيب بن عدي الابتدائية,school,24.581101,46.662842
Unnamed,school,24.669497,46.789441
Unnamed,school,24.760753,46.757317
Unnamed,school,24.756184,46.746518
Unnamed,school,24.757167,46.743164
Unnamed,school,24.802374,46.764388
Unnamed,school,24.804609,46.756531
Unnamed,school,24.801427,46.75786
Unnamed,school,24.795485,46.745821
Unnamed,school,24.793428,46.740532
Unnamed,school,24.808446,46.754667
Unnamed,school,24.810615,46.759733
Unnamed,school,24.807491,46.794576
Unnamed,school,24.782677,46.782276
Unnamed,school,24.787575,46.773631
Unnamed,school,24.795438,46.793845
Unnamed,school,24.72325,46.844934
Unnamed,school,24.723301,46.842272
Unnamed,school,24.72157,46.850874
Unnamed,school,24.721825,46.853088
Unnamed,school,24.71199,46.805233
Unnamed,school,24.717213,46.817417
Unnamed,school,24.710985,46.815143
Unnamed,school,24.700063,46.8063
Unnamed,school,24.701008,46.813567
Unnamed,school,24.702679,46.816316
Unnamed,school,24.783307,46.707717
Pakistan International School 1,school,24.651914,46.686833
Pakistan International School 2,school,24.653752,46.683693
Unnamed,library,24.799659,46.784295
Unnamed,library,24.807036,46.780659
المعهد العلمي في الدرعية,school,24.772258,46.56244
Unnamed,library,24.792693,46.805528
مدرسة سمر بن جندب,school,24.575225,46.780452
ثانوية أضواء الرياض الأهلية,school,24.793177,46.795145
مكتبة ربوع القلم,library,24.805307,46.793408
دار القلم,school,24.707525,46.813773
مكتبه خالد,library,24.621711,46.759026
المدرسة الاثيوبية العالمية بالرياض,school,24.65318,46.705105
مكتبة الملك عبدالعزيز العامة,library,24.643036,46.710986
al oruba international school,school,24.643406,46.657531
Al Hussan International School,school,24.804515,46.734711
مكتب حمد محمد بن سعيدان للعقارات,library,24.777273,46.591304
الابداع,school,24.79705,46.87658
مدرسة المواهب الأهلية للبنين,school,24.628568,46.681605
المدرسة الفرنسية الدولية بالرياض,school,24.802781,46.690582
الهيئة السعودية للمحاسبين القانونيين,library,24.656969,46.716302
مدرسة موسى بن نصير الثانوية,school,24.581911,46.664168
مكتبة انغام,library,24.583003,46.671301
home Malaz,school,24.660211,46.719695
مدرسة ابن الهيثم الابتدائية,school,24.61383,46.699238
مدرسة المتوسطة 156,school,24.498415,46.632727
مدارس الرشد ابتدائي بنين,school,24.57815,46.680601
ثانوية حي الشفاء,school,24.56785,46.702449
Unnamed,school,24.701849,46.710135
مدارس الجودة الأهلية,school,24.765292,46.723296
مدرسة عبدالقاهر الجرجاني,school,24.7273,46.832994
الجامعة الإلكترونية,college,24.794172,46.677072
مدارس الأمجاد الأهلية والعالمية-القبول والتسجيل,school,24.773835,46.755173
مجمع الشيخ صالح الراجحي (رحمه الله) لتحفيظ القرآن الكريم,school,24.740047,46.784139
Unnamed,school,24.586704,46.532635
Unnamed,school,24.579018,46.551463
مدرسة بنات,school,24.699188,46.787842
Middle school,school,24.653442,46.739208
كلية المجتمع الجديده,college,24.662935,46.732344
ابتدائية جعفر بن أبي طالب,school,24.597703,46.657244
Unnamed,school,24.595369,46.675525
Unnamed,school,24.594667,46.67451
Unnamed,school,24.556724,46.762907
متوسطة جعفر بن الزبير,school,24.673384,46.792715
Unnamed,school,24.74033,46.751821
Unnamed,college,24.652012,46.581789
مدرسة يزيد بن نعيم الابتدائية,school,24.651663,46.573603
مدرسة سليم بن عيسى لتحفيظ القرآن الكريم,school,24.651774,46.573879
Prince Sultan University,university,24.734613,46.698225
Library of Al-Yamamah University,library,24.862425,46.590517
PSU Library,library,24.734603,46.697436
PSU Kindergarden,kindergarten,24.734671,46.696895
Library,library,24.857685,46.592249
al yamamah university kindergarten,kindergarten,24.860477,46.587847
مدرسة أبي عمرو البصري رحمة الله تعالى,school,24.691962,46.762972
متوسطة مجاهد,school,24.691752,46.762141
Unnamed,school,24.752905,46.707872
مكتبة الجامعة,library,24.788931,46.86156
كلية العلوم الإستراتيجية,college,24.78956,46.86232
كلية العدالة الجنائية,college,24.78952,46.8618
كلية العلوم الإدارية,college,24.78937,46.86216
كلية علوم الحاسب,college,24.789554,46.862757
كلية العلوم الإجتماعية,college,24.78973,46.861963
Unnamed,school,24.8145,46.8101
Unnamed,school,24.8153,46.8132
Unnamed,school,24.8145,46.8105
مدارس النمو,school,24.80939,46.648005
مدارس الصحافة,school,24.800297,46.644936
مدارس الصحافة,school,24.796294,46.637573
مدارس علوم الرياض الأهلية,school,24.797014,46.639563
مجمع مدارس بنات,school,24.825658,46.648365
كليات الغد الدولية,college,24.792454,46.65249
كلية الاداب,college,24.792229,46.729975
مدارس أبناء المجد الأهلية ابتدائي متوسط بنين,school,24.80256,46.729604
مجمع نيار التعليمي,school,24.802622,46.671711
كلية الطب البشري,college,24.840803,46.720507
كلية التمريض,college,24.841807,46.722213
كلية الصحة وعلوم التأهيل,college,24.842804,46.721909
كلية القانون,college,24.8436,46.721868
كلية طب الأسنان,college,24.843377,46.720073
كلية الصيدلة,college,24.842573,46.720163
مركز تنمية المهارات الطبية,college,24.841063,46.722188
مركز بحوث العلوم الصحية,college,24.839456,46.720778
مدارس ابن رشد الجزيره,school,24.672021,46.795481
Unnamed,school,24.607576,46.678078
الروضة السابعة,kindergarten,24.694489,46.734103
مدارس منار الشمس العالمية,school,24.68173,46.692724
ابتدائية شيخة بنت عبدالعزيز,school,24.898816,46.633783
Misk Schools,school,24.698474,46.587497
Al Alson International School,school,24.682215,46.699263
مدارس نجد الأهلية,school,24.725377,46.667348
مكتبة الملك فهد الوطنية,library,24.685663,46.686448
Ibn Al Jawzi Boys School,school,24.729649,46.765077
Unnamed,school,24.700072,46.694321
Imam University - Scientific Instititute in Malaz,college,24.655579,46.735869
المدارس السعودية (بنين),school,24.728583,46.789433
Administration Building,university,24.716626,46.619825
معهد اللغة العربية,college,24.718878,46.615293
معهد ريادة الأعمال,college,24.718859,46.618229
كلية اللغات والترجمة,college,24.718945,46.6142
كلية الحقوق والعلوم السياسية,college,24.71795,46.614224
College of Agriculture,college,24.724702,46.61846
كلية العلوم الطبية التطبيقية - جامعة الملك سعود,college,24.715232,46.623515
College of Architecture and Planning,college,24.724686,46.619844
كلية العلوم الانسانية والاجتماعية,college,24.717543,46.617606
كلية علوم الحاسب والمعلومات,college,24.722952,46.619812
كلية التربية,college,24.717664,46.615949
College of Engineering,college,24.723066,46.617351
كلية الصيدلة و كلية طب الأسنان - جامعة الملك سعود,college,24.715306,46.621849
كلية العلوم (مبنى ٥),college,24.719937,46.61816
كلية العلوم (مبنى ٤),college,24.721506,46.618038
Kinder Garden,kindergarten,24.712759,46.627716
Koranic School for Girls,school,24.713244,46.627818
Lecture Halls,college,24.718731,46.617242
مكتبة الملك سلمان المركزية,library,24.718104,46.619607
Preparatory Year College,college,24.742057,46.622394
Preparatory Year College Extension,college,24.741277,46.623261
الابتدائية ٧١ للبنات,school,24.715999,46.627348
TV Production & Broadcasting Center,college,24.718743,46.616437
Unnamed,college,24.726521,46.618302
عمادة القبول والتسجيل وعمادة الدراسات العليا,college,24.71993,46.619588
Unnamed,college,24.724336,46.617802
Kingdom School,school,24.792586,46.658992
Unnamed,school,24.750903,46.814014
جامعة الأميرة نورة بنت عبد الرحمن,university,24.851741,46.71834
المكتبة المركزية,library,24.846606,46.724328
المدرسة الثانوية 154 (بنات),school,24.591036,46.694602
لمدرسة الإبتدائية 254 (بنات),school,24.591172,46.695345
المدرسة المتوسطة 169 (بنات),school,24.591464,46.694973
مدرسة شبرا الإبتدائية (بنين),school,24.593098,46.690284
المتوسطة 110 بنات,school,24.5882,46.68399
كلية التربية - بنات,college,24.729428,46.633563
كلية الاداب,college,24.727954,46.633363
كلية إدارة الأعمال - طالبات,college,24.729349,46.635054
كلية الحقوق والعلوم السياسية - بنات,college,24.729224,46.632272
Unnamed,school,24.588267,46.779929
Unnamed,school,24.589294,46.782159
مدارس العبير الأهلية,school,24.580884,46.584475
ابتدائية حماد بن سلمة,school,24.583593,46.593674
Unnamed,school,24.588584,46.601861
جامعة اليمامة,university,24.862786,46.592069
مدرسة الليث بن سعد الابتدائية بنين,school,24.614516,46.642653
ثانوية الجويني بنين,school,24.615098,46.639067
مدرسة رقم 116 الابتدائية بنات,school,24.611705,46.6386
مدرسة عبدالله الجار الله الابتدائية بنين,school,24.609191,46.634396
معهد التربية الفكرية بنات,school,24.611662,46.641594
مدرسة رقم 157 المتوسطة بنات,school,24.611178,46.64198
مدرسة عمير بن سعد الابتدائية بنين,school,24.609484,46.630974
مدرسة سفيان بن عيينة المتوسطة (بنين),school,24.592783,46.690534
مدرسة عتبة بن غزوان الإبتدائية (بنين),school,24.587243,46.689276
Riyadh Schools,school,24.65843,46.692462
Prince Sultan Al Kabir Kindergarden,kindergarten,24.662388,46.690271
Unnamed,school,24.703517,46.783017
KACST's Boys School,school,24.719599,46.642454
KACSR's Girls School,school,24.722152,46.644316
Health Sciences and Research Laboratory,college,24.841218,46.721364
Riyadh College of Dentistry & Pharmacy,college,24.803285,46.717815
Unnamed,school,24.812733,46.752221
معهد الإدارة العامة الفرع النسائي,college,24.827103,46.685991
Unnamed,university,24.766435,46.733022
Unnamed,school,24.777777,46.727185
جامعة الأمير سلطان,university,24.736088,46.701105
مكتبة الملك عبد العزيز العامة,library,24.710308,46.753462
كلية التقنية بنات,university,24.731718,46.703016
PSU Female Campus,university,24.734516,46.697746
Unnamed,college,24.735778,46.706279
Prince Sultan Educational Complex,school,24.734248,46.706254
Unnamed,university,24.705993,46.753561
Inaya Medical College,university,24.863597,46.583866
Unnamed,school,24.795434,46.619933
Unnamed,school,24.795053,46.626572
Al Najashi Secondary School,school,24.787039,46.630546
Unnamed,school,24.790208,46.629152
Elementary School,school,24.679068,46.615699
Primary School for Girls,school,24.682269,46.616944
King Faisal School,school,24.683875,46.618994
Diplomatic School,school,24.681227,46.62847
Al Safarat Secondary School,school,24.68259,46.628306
Tuwaiq Secondary School for Girls,school,24.678783,46.629486
Nayef College for National Security,college,24.884933,46.917516
جامعة نايف العربية للعلوم الأمنية,university,24.78891,46.862381
Unnamed,school,24.802281,46.896738
Unnamed,school,24.816088,46.890988
Unnamed,school,24.806822,46.885472
Unnamed,school,24.80878,46.882324
Unnamed,school,24.811903,46.878577
Unnamed,school,24.808494,46.888767
Unnamed,school,24.811371,46.8986
Unnamed,school,24.801521,46.808622
Unnamed,school,24.743209,46.834742
Unnamed,school,24.74206,46.83254
Unnamed,school,24.740532,46.836732
Unnamed,school,24.736898,46.83635
Unnamed,school,24.746954,46.827472
Unnamed,school,24.743889,46.828786
Unnamed,school,24.734477,46.835327
Unnamed,school,24.73081,46.839401
Unnamed,school,24.728355,46.838398
Unnamed,school,24.660964,46.828676
Unnamed,school,24.697836,46.8595
Unnamed,university,24.747092,46.859233
KSAU,university,24.757235,46.857597
Unnamed,school,24.754518,46.883268
Unnamed,school,24.75587,46.886129
Unnamed,school,24.602888,46.776491
Unnamed,school,24.588756,46.789061
Unnamed,school,24.5803,46.834927
Unnamed,school,24.577033,46.840904
Unnamed,school,24.577804,46.845872
Unnamed,school,24.573363,46.845464
Unnamed,school,24.569958,46.840759
Unnamed,school,24.566898,46.845452
Unnamed,school,24.568358,46.845529
Unnamed,school,24.574806,46.848554
Unnamed,school,24.586764,46.847886
Unnamed,school,24.584805,46.846643
Unnamed,school,24.588899,46.848306
Unnamed,school,24.573142,46.851821
Unnamed,school,24.576128,46.854415
Unnamed,school,24.585725,46.847986
Unnamed,school,24.490356,46.61669
Unnamed,school,24.500105,46.623247
Unnamed,school,24.498013,46.62773
Unnamed,school,24.503108,46.629338
Unnamed,school,24.549253,46.652904
Unnamed,school,24.545567,46.655051
Unnamed,school,24.551708,46.660644
Unnamed,school,24.548428,46.657834
Unnamed,school,24.540835,46.688295
Unnamed,school,24.550724,46.674498
Unnamed,university,24.480218,46.62684
Unnamed,school,24.499184,46.640415
Unnamed,school,24.534202,46.700434
Unnamed,school,24.542442,46.712812
Unnamed,school,24.537996,46.707371
Unnamed,school,24.540889,46.730178
Unnamed,school,24.562255,46.716088
Unnamed,school,24.614786,46.754082
الابتدائية التاسعة,school,24.584272,46.697647
Unnamed,school,24.752079,46.565516
Unnamed,school,24.756888,46.547218
Ibn Khaldoun School,school,24.691841,46.596456
Ibn Khadoul School,school,24.688837,46.584595
Unnamed,school,24.406253,46.841611
Unnamed,school,24.441978,46.976238
Unnamed,school,24.762011,46.777448
Unnamed,school,24.766995,46.775452
Unnamed,school,24.765237,46.771439
Unnamed,school,24.759735,46.79737
Unnamed,school,24.740021,46.845696
Unnamed,school,24.728246,46.856631
Unnamed,school,24.683789,46.826822
Unnamed,school,24.676783,46.820321
Unnamed,school,24.675337,46.815002
Unnamed,school,24.673784,46.792677
Unnamed,school,24.673777,46.789523
Unnamed,school,24.678894,46.793919
Unnamed,school,24.677331,46.798433
Unnamed,school,24.668271,46.798762
Unnamed,school,24.67915,46.811172
Unnamed,school,24.662665,46.799726
Unnamed,school,24.659466,46.800689
Unnamed,school,24.65772,46.798249
Unnamed,school,24.656358,46.795899
Unnamed,school,24.662403,46.805227
Unnamed,school,24.793354,46.73292
Unnamed,school,24.790123,46.732641
British International School,school,24.791372,46.729878
Unnamed,school,24.783452,46.686486
Unnamed,school,24.639295,46.714557
مكتبة الملك عبد العزيز العامة,library,24.647921,46.708779
مدارس الرواد الأهلية,school,24.783095,46.723494
عمر بن دينار,school,24.806847,46.761643
مجمع اليرموك التعليمي,school,24.798486,46.778076
Unnamed,school,24.807461,46.788828
Unnamed,school,24.805585,46.791546
مدارس الارقم الاهلية,school,24.770741,46.751785
Unnamed,school,24.620239,46.723517
Unnamed,school,24.77122,46.750829
Unnamed,school,24.7719,46.750648
Unnamed,school,24.772931,46.74941
Unnamed,school,24.778041,46.747739
Unnamed,school,24.778993,46.7489
Unnamed,school,24.779665,46.754799
Unnamed,school,24.77719,46.735248
Unnamed,school,24.783149,46.737941
Unnamed,school,24.784551,46.744749
المدرسة الإبتدائية 440 بنات,school,24.793444,46.740261
المدرسة المتوسطة ٢٣٩,school,24.793062,46.740473
شروق المعرفة النموذجية,school,24.796329,46.767373
Unnamed,school,24.529446,46.637058
Unnamed,school,24.504328,46.505453
Unnamed,school,24.580657,46.521711
Unnamed,school,24.580858,46.527891
Unnamed,school,24.583793,46.57168
Unnamed,school,24.590103,46.572287
Unnamed,school,24.587787,46.53824
Unnamed,university,24.877517,46.546048
Unnamed,university,24.985799,46.931713
Unnamed,school,24.551813,46.713247
Unnamed,school,24.549782,46.703018
Unnamed,school,24.56144,46.695951
Unnamed,school,24.571109,46.717156
Unnamed,school,24.795432,46.793959
Unnamed,school,24.809689,46.860197
Unnamed,school,24.800286,46.862931
Unnamed,school,24.779398,46.815758
Unnamed,school,24.691756,46.641836
Unnamed,school,24.69106,46.645378
كلية الاتصالات والمعلومات,college,24.757171,46.691323
Princess Noura Bint Abdulrahman University for Girls,university,24.77102,46.727988
Unnamed,school,24.60247,46.723145
Unnamed,school,24.602518,46.725167
الجامعة العربية المفتوحة,university,24.768441,46.590435
Unnamed,school,24.651637,46.696764
Unnamed,school,24.65177,46.69801
Unnamed,school,24.653578,46.697187
Unnamed,school,24.653769,46.683808
جامعة الفيصل,university,24.664401,46.676422
Unnamed,school,24.661726,46.687884
Unnamed,school,24.66082,46.692232
Unnamed,school,24.661239,46.691053
Unnamed,school,24.659959,46.691103
Unnamed,school,24.664448,46.698182
ابتدائية عبد الرحمن بن سعدى,school,24.596993,46.626932
متوسطة ابن الجزري لتحفيظ القرآن الكريم,school,24.597607,46.623608
Unnamed,school,24.593643,46.664127
Unnamed,school,24.590465,46.668769
إبتدائية إبن خزيمة,school,24.582535,46.681122
متوسطة الملك سعود,school,24.5821,46.680417
ابتدائية ابن الجزري لتحفيظ القرآن الكريم,school,24.602215,46.623099
ابتدائية إمام الدعوة محمد بن عبد الوهاب,school,24.60311,46.619689
Unnamed,school,24.588069,46.613588
ابتدائية إياس بن معاوية,school,24.594207,46.614353
ثانوية الأمير سعد بن عبدالعزيز,school,24.599035,46.610681
Unnamed,school,24.581024,46.626691
أبتدائية الخوارزمي,school,24.595118,46.644661
كلية الملك فهد الأمنية,college,24.783238,46.848764
Unnamed,school,24.67467,46.880766
Unnamed,school,24.673156,46.879439
Unnamed,school,24.664461,46.873167
Unnamed,school,24.822505,46.541936
Unnamed,school,24.821434,46.541914
Unnamed,school,24.667587,46.709207
Unnamed,school,24.613197,46.75734
Unnamed,school,24.588185,46.773439
Unnamed,school,24.581942,46.779376
Unnamed,school,24.72189,46.791509
Unnamed,school,24.711282,46.814943
Unnamed,school,24.715745,46.813684
Unnamed,college,24.716251,46.78152
Unnamed,school,24.711765,46.780866
Unnamed,school,24.704658,46.789618
Unnamed,school,24.709308,46.795761
كلية المعلمين,college,24.701654,46.800539
Unnamed,school,24.700035,46.806329
الإبتدائية 135بنات,school,24.59723,46.61487
ابتدائية ابي بكر بن عياش لتحفيظ القران الكريم,school,24.59498,46.610827
Unnamed,school,24.598104,46.611351
الإبتدائية 55 بنات,school,24.59249,46.607107
مدارس علوم التربية الأهلية,school,24.589322,46.60535
الابتدائية 214 بنات,school,24.592342,46.599457
مدرسة صلاح الدين الايوبي الابتدائية,school,24.591748,46.602377
مجمع الملك سعود التعليمي - القسم الثانوي,school,24.719586,46.629545
ثانوية٦١,school,24.585396,46.609357
متوسطة الامام النسائي,school,24.589585,46.782
ثانوية العز بن عبدالسلام,school,24.589039,46.782309
مدرسة عبدالحميد الكاتب الابتدائية,school,24.62837,46.733095
مدارس الجيل الأهلية للبنين,school,24.569281,46.64009
الابتدائية 208 بنات,school,24.602494,46.594753
متوسطة الامام البيضاوي,school,24.5994,46.595511
ابتدائية ابي عمرو الداني,school,24.599782,46.599187
الثانوية الثالثة والخمسون,school,24.595557,46.590384
متوسطة سعيد بن المسيب,school,24.593092,46.585062
ابتدائية زيد بن الخطاب,school,24.592477,46.588281
ابتدائية 246 للبنات,school,24.584484,46.590179
المتوسط 73 بنات,school,24.602902,46.598366
ابتدائية الامام البخاري,school,24.606903,46.600992
المتوسطة السابعة والسبعون,school,24.585769,46.629357
الابتدائية 165 بنات,school,24.585988,46.629718
الثانوية الخمسون,school,24.591792,46.639196
متوسطة الخليج,school,24.578499,46.653507
ثانوية تميم بن أوس بنين,school,24.57434,46.680488
الثانوية 24 بنات,school,24.58854,46.684559
المتوسطة الستة والستون,school,24.584484,46.698229
المتوسطة ٥١ بنات,school,24.575626,46.652378
الابتدائية 134 بنات,school,24.575931,46.652153
الثانوية ٤٧ للبنات,school,24.579212,46.571263
المتوسطة 67 للبنات,school,24.578655,46.571455
الروضة السادسة عشر,school,24.578698,46.570918
ابتدائية همام بن الحارث,school,24.489039,46.59742
مدرسة ابو بكر العربي,school,24.54702,46.671137
ابتدائية الطفيل بن الحارث,school,24.574937,46.541136
ثانوية نجد,school,24.585326,46.552012
ثانوية مالك بن دينار,school,24.581803,46.563991
الإبتدائية (٢٢٨) بنات,school,24.577255,46.564908
إبتدائية الحسين بن علي,school,24.576764,46.571798
ابتدائية عبدالله بن مسعود,school,24.57467,46.590011
Unnamed,school,24.58147,46.598059
"Al Wasat Private Schools, Middle Section",school,24.698336,46.819963
المتوسطة التاسعة والسبعون للبنات,school,24.598874,46.62266
الابتدائية 188 بنات,school,24.599325,46.622343
Unnamed,school,24.606959,46.630312
وحدة تدريب البديعه,school,24.606697,46.632973
متوسطة تحفيظ القرآن الكريم الرابعة,school,24.606957,46.633423
ثانوية المائة واثنى عشر للبنات,school,24.606318,46.633237
Unnamed,school,24.57765,46.621245
ثانوية القاسم بن سلام,school,24.575043,46.616937
ثانوية الإمام عبد الله بن سعود,school,24.570967,46.636367
متوسط ابن رجب الحنبلي,school,24.570536,46.636681
مدارس التوحيد الأهلية جميع المراحل,school,24.572377,46.634733
ابتدائية أويس القرني بنين,school,24.582059,46.603905
متوسطة ابن بشر,school,24.58674,46.594217
الإبتدائية 154,school,24.597335,46.698229
معهد التربية الفكرية - غرب - بنات,school,24.596912,46.698484
إبتدائية الوليد بن عبدالملك,school,24.595273,46.699326
الثانوية الاربعون,school,24.594078,46.626195
الأبتدائية ٢٣ لتحفيظ القرآن الكريم,school,24.593763,46.62674
الروضة السادسة والأربعون,school,24.593503,46.626298
الابتدائية 350,school,24.594853,46.623675
المتوسطة ١٤٧,school,24.594581,46.623239
ابتدائية يزيد بن نعيم,school,24.651757,46.573871
Unnamed,college,24.652036,46.581846
مدارس منارات الرياض العالمية,school,24.789166,46.719846
ابتدائية ابن البيطار,school,24.762299,46.669636
الثانوية 117 ( بنات),school,24.766395,46.667117
الروضة ٢٩,school,24.766766,46.666919
المدرسة المتوسطة 140 ( بنات),school,24.767137,46.667302
الابتدائية ٢٦٦ ( بنات),school,24.767117,46.666735
مدارس ابن خلدون الأهلية,school,24.772786,46.670372
الأبتدائية الخامسة,school,24.63023,46.702006
جامعة الإمام محمد إبن سعود,university,24.812542,46.702169
Unnamed,library,24.857731,46.592021
Unnamed,school,24.708986,46.622821
Unnamed,school,24.718029,46.629483
Unnamed,school,24.717405,46.63114
الثانوية 28 للبنات,school,24.590733,46.657839
المتوسطة 40 بنات,school,24.590346,46.657227
الابتدائية 155 بنات,school,24.589919,46.656472
ابتدائية سيف الدولة الحمداني,school,24.586288,46.660768
متوسطة حي السويدي,school,24.585672,46.65976
ثانوية الجوهري,school,24.600646,46.641146
Unnamed,school,24.591488,46.619299
مكتب توجيه غرب الرياض للبنات,school,24.591452,46.61882
الابتدائية 167,school,24.591093,46.619081
الابتدائية 12 لتحفيظ القران,school,24.587553,46.59116
الثانوية 130 بنات,school,24.587281,46.5907
المتوسطة 81 بنات,school,24.576085,46.586882
الثانوية 92 بنات,school,24.576123,46.586317
الإبتدائية 190 بنات,school,24.5752,46.57973
إبتدائية مالك بن الحويرث,school,24.599621,46.610623
متوسطة البزار,school,24.599319,46.610142
ثانوية الأمير بندر بن عبدالعزيز (بنين),school,24.578086,46.666098
ثانوية البندري بنت عبدالعزيز للبنات,school,24.655542,46.57394
Unnamed,school,24.813015,46.696613
Unnamed,school,24.811806,46.698452
Unnamed,school,24.811414,46.69748
Unnamed,school,24.747757,46.579707
ابتدائية ثابت بن الصامت,school,24.567627,46.643192
ثانوية الثغر النموذجية الأهلية,school,24.565664,46.635017
ابتدائية ابن الأرقم,school,24.683902,46.698527
ابتدائية أبي الطيب المتنبي,school,24.589087,46.635032
متوسطة البراء بن عازب,school,24.589419,46.6348
ثانوية الأمير عبدالمجيد بن عبدالعزيز,school,24.750163,46.650163
الثانوية 57 بنات,school,24.676577,46.698427
ابتدائية ٢٥٠ بنات,school,24.677545,46.69796
ثانوية اليمامة,school,24.672466,46.702102
311 Buildings,college,24.788675,46.445341
Unnamed,school,24.89701,46.439836
Unnamed,university,24.478988,46.628733
Unnamed,university,24.783911,46.859648
الثانوية 38 للبنات,school,24.589505,46.598381
المتوسطة 120 بنات,school,24.592124,46.599023
الروضة 74,school,24.592645,46.598846
Unnamed,school,24.777259,46.743036
Unnamed,school,24.777055,46.7442
المكتبة,library,24.757347,46.69053
جامعة الملك سعود - بنات,university,24.726613,46.636857
Talha bin Bara Elementary School,school,24.826598,46.786088
ثانوية ابن النفيس,school,24.818231,46.771768
Unnamed,school,24.764699,46.663445
مدارس أجيال الثقافة الأهلية للبنات,school,24.655178,46.627771
Al Faris International School,school,24.768071,46.703959
مدرسة ابتدائية النرجس الأولى للبنات,school,24.834743,46.67585
المعهد السعودي للألكترونيات والأجهزة المنزلية,college,24.744958,46.518477
الإبتدائية 391 - بنات,school,24.772462,46.617274
ثانوية زينب الدمشقية,school,24.771998,46.616768
متوسطة 189 بنات,school,24.772046,46.617477
جامعة الملك سعود,university,24.663102,46.731958
المكتبة المركزية,library,24.664507,46.733838
المدرسة 174 الابتدائية بنات,school,24.701961,46.685087
Unnamed,school,24.6771,46.698132
متوسطة عماره بنت حمزة,school,24.808787,46.661378
ابتدائية سكينة بنت ابي وقاص,school,24.809298,46.661114
مدرسة مجاهد بن جبر الابتدائية,school,24.829217,46.654261
ابتدائية عذبة الخزرجية,school,24.825602,46.623973
مدرسة فلوة بنت عبدالعزيز-بنات,school,24.823364,46.626339
مدرسة الحارث بن عمير (الابتدائية)-بنين,school,24.826908,46.624919
مركز كوكب الابداع لضيافة الاطفال,kindergarten,24.822655,46.657123
حضانة عالم الالوان,kindergarten,24.821982,46.658826
متوسطة ابن قدامة,school,24.675133,46.75494
مدرسة العلاء بن حضرمي,school,24.67553,46.756145
"مجمع مدارس بنات حي التعاون ( ثانوي,متوسط,ابتدائي,تمهيدي )",school,24.778309,46.704607
مدارس دار الصفوة الأهلية,school,24.7808,46.617365
الروضة,school,24.782626,46.622964
المدرسة المتوسطة ٢١٢,school,24.783011,46.622774
المدرسة الإبتدائية ٣٤٤ للبنات,school,24.783442,46.622568
المدرسة الإبتدائية لتحفيظ القرآن,school,24.783664,46.623092
متوسطة النرجس الثانية,school,24.911722,46.621433
ثانوية النرجس الثانية,school,24.911206,46.621682
Saudi National Guard School of Signals,college,24.724548,46.887058
كلية الملك خالد العسكرية,university,24.743611,46.894267
Command & Staff College,college,24.759385,46.847431
مدارس إتقان التربية,school,24.835784,46.750359
ابتدائية الإمام تركي بن عبد الله للبنين,school,24.756196,46.565213
American International School Riyadh,school,24.847631,46.634281
مدارس رواد الإبداع الأهلية,school,24.599639,46.648624
مدرسة متوسطة ابي حنيفة,school,24.596967,46.655023
