name,lat,lon,address,category,rating
Kudu - Al Malaz,24.6663876,46.72442909999999,"Al Farazdaq Street, Riyadh",Restaurants,4
Domino's Pizza دومينوز بيتزا,24.654983,46.712067,"Prince Abdulaziz Ibn Musaid Ibn Jalawi Street, Riyadh",Restaurants,4
Amo Hamza,24.651917,46.708341,"Al Washm Street, Riyadh",Restaurants,3.5
KFC,24.6518213,46.7078897,"Al Washm Street, Riyadh",Restaurants,3.8
Aquarium Boutique Hotel,24.6564725,46.7108184,"Prince Abdulaziz Ibn Musaid Ibn Jalawi Street, Riyadh",Restaurants,4
Downtown Cairo Cafe,24.64595030000001,46.7023641,"King Fahad Branch Road, Riyadh",Restaurants,4.1
Falafel Arafah,24.6553162,46.7440301,"Zeid Ibn Al Khattab, Riyadh",Restaurants,4
Grill And Rice,24.6286034,46.7395277,"Al Kharj Road, Riyadh",Restaurants,4.2
Kabab House-Malaz بيت الكباب-الملز,24.6661736,46.73092189999999,"7402 Ibn Shaddad, Riyadh",Restaurants,3.5
Maestro Pizza,24.6662143,46.7308871,"Salah Ad Din Al Ayyubi Road, Riyadh",Restaurants,4
مطاعم ركن هاشم الملز - Hashem Rest Malaz,24.6676701,46.73319249999999,"Abdullah Al Hamathani Street, MP9M+378, Riyadh",Restaurants,3.8
KFC,24.6638132,46.706475,"Amer fisal Street Wazarat, الرياض",Restaurants,3.7
Maestro Pizza,24.6611855,46.70123419999999,"King Fahd Road, Riyadh",Restaurants,4.1
Subway Murraba,24.661197,46.70113989999999,"King, King Fahad Branch Road, Riyadh",Restaurants,3.9
Al Tazaj,24.6660905,46.71172159999999,"شازع الأمير فيصل بن تركي بن عبدالعزيز ،, Riyadh",Restaurants,3.9
Buffet - Reasturant - بوفيه,24.6473487,46.7238142,Riyadh,Restaurants,3.6
گجرات مطعم,24.6472117,46.7247065,"Al Farazdaq Street, JPWF+VVP, Riyadh",Restaurants,
Sahil,24.6472117,46.7247065,"Al Farazdaq Street, Riyadh",Restaurants,
Chef Al Shawya Restaurant,24.6472117,46.7247065,"Al Farazdaq Street, Riyadh",Restaurants,4
Restaurant of Shaabiyat Al - Sadda,24.6457156,46.7205971,"حي 2549, 2549 عبدالحكيم الجمحي, Riyadh",Restaurants,3.9
Herfy,24.6399265,46.6931508,8905 الامام عبدالعزيز بن محمد بن سعود الرياض 12741,Restaurants,3.8
Anardana,24.6669554,46.6963365,"King Fahad Branch Road, Riyadh",Restaurants,3.9
Canton,24.6638237,46.683067,المعذر ، شارع التخصصي،،,Restaurants,3.9
Casa Pasta,24.663725,46.6827321,"التخصصي،, Riyadh",Restaurants,4.2
Domino's Pizza دومينوز بيتزا,24.664531,46.68249999999999,"Al Takhassousi, Riyadh",Restaurants,4
Wow burger,24.6659377,46.6819459,3361 6922,Restaurants,3.3
McDonald's,24.66497099999999,46.67766200000001,"Al Faisal University (Food Court, Riyadh",Restaurants,4
Holiday Inn Meydan,24.6782811,46.6915016,"at the Crossing With, طريق الملك فهد, Khurais Rd, الرياض",Restaurants,4.1
Finding Sushi,24.6430833,46.67441119999999,"Prince Talal Road Prince Talal Ibn Abd Al Aziz, Riyadh",Restaurants,4.3
Fraser Suites Riyadh,24.6792087,46.6918415,"Olaya Street, Riyadh",Restaurants,4.3
Maestro Pizza,24.6542458,46.6691844,"حي, 6478 وادي الليسن, شارع لأميرهشام بن عبد العزيز, الرياض",Restaurants,4
Dunkin' - دانكن,24.680744,46.69455699999999,"Makkah Al Mukarramah Road, Riyadh",Restaurants,4.2
KFC,24.62540690000001,46.6889225,"Shemesi St, Riyadh",Restaurants,3.9
مطعم مشويات المزيد,24.616196,46.68937679999999,"Al Madina Al Munawwarah Road, Riyadh",Restaurants,4.1
Herfy,24.6131416,46.6820341,"JM7J+7R3, Riyadh",Restaurants,3.8
Lapaz Batchoy Shumaisi,24.6299614,46.6913507,"Al Imam Turki Ibn Abd Allah Ibn Muhammad, Riyadh",Restaurants,4.3
Al Tazaj,24.6057825,46.7061672,"طريق الملك فهد الفرعي عتيقة،, Riyadh",Restaurants,3.9
KFC,24.6096844,46.71070839999999,"Manfouhah, الرياض",Restaurants,3.9
Domino's Pizza دومينوز بيتزا,24.603647,46.704694,"3469 Al Aam St, Riyadh",Restaurants,4.1
Maestro Pizza,24.60386579999999,46.7056246,"السويدي، 3543 شارع السويدي العام،،, الرياض",Restaurants,4
McDonald's,24.601027,46.69856499999999,"Qaser Mall, Riyadh",Restaurants,3.8
Bahrya,24.5993098,46.69268950000001,"Al Souweidi Al Aam, Riyadh",Restaurants,3.9
Subway,24.59907999999999,46.698334,"8043 Main Street, Block #3543 Al-Suwaidi, الرياض",Restaurants,3.7
Domino's Pizza دومينوز بيتزا,24.634129,46.67618299999999,"2115 Amr Ibn Al Aas St, Riyadh",Restaurants,4
KFC,24.5962469,46.6817783,"Al Souweidi Al Aam, Riyadh",Restaurants,3.9
McDonald's,24.595997,46.681119,"Al Souweidi, Riyadh",Restaurants,3.8
Al-Jarradiyah,24.617923,46.69658809999999,"JMHV+R3J, Riyadh",Restaurants,
مطعم نصيل التاج ( اتراك ),24.6177236,46.6962444,RBGB4643، 4643 طريق المدينة المنورة، 8135، حي الجرادية، الرياض 12771،,Restaurants,4.1
Sultan Restaurant,24.617891,46.6951779,"Al Madina Al Munawwarah Road, JM9W+533, Riyadh",Restaurants,4.7
Restaurant,24.6178856,46.69517929999999,"Al Madina Al Munawwarah Road, Riyadh",Restaurants,4.6
Restaurant Awais Khalid,24.6178734,46.69518189999999,"Al Madina Al Munawwarah Road, Riyadh",Restaurants,5
Restaurant,24.6298261,46.7514577,"7912 12873 3512 الخليفة المأمون, الخالدية, Riyadh",Restaurants,4.1
KFC,24.669468,46.75143689999999,"intersection of Salah al-Din Street with Fatima Zahra, الرياض",Restaurants,4
pizza ram,24.6717843,46.7374406,"Jarir Street, Riyadh",Restaurants,4.1
Domino's Pizza دومينوز بيتزا,24.671222,46.732333,"Jarir Street, Riyadh",Restaurants,3.9
Daily Break,24.6500852,46.74043820000001,"2742 الأمير عبدالعزيز بن عبدالله بن تركي, Riyadh",Restaurants,4.3
حراج بن قاسم,24.6417511,46.73815469999999,"6209 أبي بن كعب, RENA2489، 2489, الرياض",Restaurants,
بوفية بفاريا بنجلاديشية,24.6407191,46.7401573,"2707 Ibn Tarkhan, Riyadh",Restaurants,
بوفية,24.63992619999999,46.74286420000001,"6065 Al Madina Al Munawwarah Road, 2986, Riyadh",Restaurants,5
بوفية اروع المذاق,24.6400033,46.7434865,"6079 Al Madina Al Munawwarah Road, RENA3046، 3046, Riyadh",Restaurants,
Emad Restaurant BBQ kebab Rowoah,24.6398493,46.74008039999999,"شارع المدينة المنورة،, JPQR+W2P, Riyadh",Restaurants,4.1
بوفيه اكلات شاميه صناعيه العويضه,24.6397974,46.74011050000001,"3094-2986 Al Madina Al Munawwarah Road, Riyadh",Restaurants,4.4
بوفية للأكلات الشامية ( بإدارة أبو عامر ),24.6397974,46.7401087,"Al Saman, Riyadh",Restaurants,4.4
Noakhali Food Restaurant,24.6413564,46.74702769999999,"3410 ابراهيم الجيلي, 6231, الرياض",Restaurants,5
مطعم مشزيات,24.639406,46.7411339,"Al Madina Al Munawwarah Road, JPQR+QF6, Riyadh",Restaurants,
KFC,24.59506409999999,46.737091,"Al Bathaa, Riyadh",Restaurants,3.9
McDonald's,24.60479699999999,46.73180500000001,"Al Bathaa, Riyadh",Restaurants,3.9
Domino's Pizza دومينوز بيتزا,24.6048588,46.7322938,"St, 7835 Al Bathaa, Riyadh",Restaurants,3.9
Tim Hortons,24.6042231,46.7326246,"Al Bathaa, Riyadh",Restaurants,4.3
توم توم,24.6183092,46.74538529999999,"8182 Majd Al Dine Al Masri, Riyadh",Restaurants,3.7
Maestro Pizza,24.6146747,46.7460768,"شارع معن بن زائدة،, Riyadh",Restaurants,3.9
Restaurant Hasa مطاعم حصة محمد,24.6126516,46.71614839999999,"Al Farian, Riyadh",Restaurants,4.8
مطعم قصر خطاب للأكلات المصرية,24.612904,46.7174399,"6926 Manfuhah, Riyadh",Restaurants,4.5
‏مشويات أبو سمره,24.6129708,46.7175214,"Manfuhah, Riyadh",Restaurants,5
ألذ فلفلة,24.6135575,46.7179576,"حي, RCCC3232, 3232 Manfuhah, 6997, الرياض",Restaurants,3.8
مطعم هرم المنفوحه,24.6133407,46.7179818,"6963 Al Jafr, 3244, Riyadh",Restaurants,2
سفرة الثريا,24.6312728,46.7116621,"2709 Al Imam Turki Ibn Abd Allah Ibn Muhammad, Office No. 404-405 Al Mugalia Building No.4, Riyadh",Restaurants,4.3
JU Sandwiches,24.6308337,46.7117965,"JPJ6+8PM, Al Safa Square, الرياض",Restaurants,3.5
Slider Corner,24.6308337,46.7117965,"JPJ6+8PM, Al Safa Square, الرياض",Restaurants,
Fahd Abdullah Al-Mahous Buffet,24.632904,46.715158,"King Faisal Road, JPM8+537, Riyadh",Restaurants,3
Ragheif & Kaif,24.6303238,46.7119524,"Al Thumairi Street, JPJ7+CXP, Riyadh",Restaurants,3.8
مطعم الذ وجبة لتقديم الوجبات أميرة أحمد عبدالله,24.6310085,46.7152627,"6905، 3336, Riyadh",Restaurants,2.9
Fresh food,24.63093929999999,46.7152795,"6897, 3337, الرياض",Restaurants,4
Dhanuqtah buffet,24.6297928,46.71245429999999,"3059 الشيخ محمد بن ابراهيم, 6779 Al Sheikh, الرياض",Restaurants,4.7
خياط ركن ميلاف,24.6337688,46.7154856,"3310 King Faisal Road, Riyadh",Restaurants,2.3
Najd Village,24.6976883,46.66923329999999,"شارع التخصصي،, Riyadh",Restaurants,3.9
McDonald's,24.683756,46.652378,Riyadh,Restaurants,4
Herfy,24.6755556,46.675,"Makkah Al Mukarramah Branch Road, MMGG+62C, Riyadh",Restaurants,3.7
KFC,24.67828310000001,46.65571089999999,"شارع أم الحمام, Om, الرياض",Restaurants,4
Subway,24.680682,46.66622,"St, 3832 الامير سلطان بن عبدالعزيز, Tamimi Branch, الرياض",Restaurants,4
Doe Sandwich Shop,24.68146399999999,46.6671586,"2448 Prince Sultan Ibn Abdulaziz, Riyadh",Restaurants,4
Shuneez,24.68155350000001,46.66754410000001,"2448 Prince Sultan Bin Abdulaziz Road, Riyadh",Restaurants,4
Piatto Restaurant,24.6912897,46.6695474,"Panorama mall Gate 2, Al Takhassousi, Riyadh",Restaurants,4.3
Casapasta | كازاباستا,24.6920807,46.66899309999999,"Prince Muhammad Ibn Abdulaziz Rd, Riyadh",Restaurants,4
Canton | كانتون,24.69142519999999,46.6698595,"3565 Al Takhassousi, 6526, Riyadh",Restaurants,3.8
Charleys Cheesesteaks,24.6927655,46.6687977,"Al Takhassousi, Riyadh",Restaurants,3
Popeyes Louisiana Kitchen,24.6920461,46.66984310000001,"Panorama Mall, Riyadh",Restaurants,4.6
McDonald's,24.692004,46.67022600000001,"Panoram Mall, Riyadh",Restaurants,3.1
McDonald's,24.674518,46.668066,"Turki Square, Riyadh",Restaurants,4.1
Raising Cane's,24.6892661,46.6739348,"Bustan Centre, Riyadh",Restaurants,4.5
Tim Hortons,24.6955157,46.6703825,"Al Takhassousi, Riyadh",Restaurants,4.2
Tutti Cafe,24.69250449999999,46.6734398,"3950 طريق الأمير محمد بن عبدالعزيز، العليا،, 3950 Prince Muhammad Bin Abdulaziz Rd, Riyadh",Restaurants,4.1
Manoosha | منؤشة,24.675638,46.673423,"3034 Makkah Al Mukarramah Branch Road, Riyadh",Restaurants,3.9
Burgerizzr,24.698524,46.669301,"Al Takhassousi, Riyadh",Restaurants,4
KFC,24.6764546,46.6761413,"شارع التخصصي, Hyper Panda Takhassusi, الرياض",Restaurants,4
Subway,24.669208,46.668681,"Dist, 6848 Al Zahrawi St, الرياض",Restaurants,3.9
Arepas,24.6762227,46.6768222,"Al Takhassousi, Riyadh",Restaurants,4
Domino's Pizza دومينوز بيتزا,24.67601639999999,46.67519000000001,"3198 Makkah Al Mukarramah Branch Road, Riyadh",Restaurants,4.1
Multi salad,24.6549375,46.6678125,"MM39+X4P, Riyadh",Restaurants,3
Al Orjouan,24.6653654,46.6310103,"Al Hada Area, طريق مكة المكرمة, Riyadh",Restaurants,4.1
Acoustic Restaurant & Art Gallery,24.6820822,46.6250852,"RYSA3249، 3249 أمية أبي الصلت، 7591، حي السفارات، الرياض 12512, Riyadh",Restaurants,4
Hong,24.6657388,46.6309049,"The Ritz-Carlton, Riyadh",Restaurants,4.3
Azzurro,24.6653527,46.630136,"فندق الريتز-كارلتون, MJ8J+43R، طريق مكة المكرمة، حي, الرياض",Restaurants,4.1
سكوب لوب - Scoop Loop خبراء السلاشات الطبيعية,24.6581418,46.62720480000001,"خريص, Riyadh",Restaurants,4.9
لقيمات وجباتي ندى,24.658152,46.6268409,"شارع وادي الرشا, Riyadh",Restaurants,5
المهرة,24.6589568,46.626584,"7596، الهدا، الرياض 12913 2983، 7596, Riyadh",Restaurants,4.4
الحساء السحري للوجبات,24.6588395,46.6265423,"حي, Riyadh",Restaurants,4.8
Harat Garden Outdoor,24.666409,46.6282742,"8357, 3243, الرياض",Restaurants,5
Stella Sky - Lounge,24.66635600000001,46.6267944,"2941 Makkah Al Mukarramah Road, Al Hada, الرياض",Restaurants,4.4
Emmy Squared Pizza,24.666732,46.6267289,"MJ8G+JH3, Riyadh",Restaurants,4.2
Jackie Restaurant,24.6665563,46.62643829999999,"2941 Makkah Al Mukarramah Road, Al Hada, الرياض",Restaurants,4.3
café ELLE,24.6669349,46.62675,"2941 طريق مكة المكرمة الفرعي, Riyadh",Restaurants,4.5
Les Deux Magots,24.6667731,46.6264881,"2941 طريق مكة المكرمة الفرعي, Riyadh",Restaurants,4.6
Madeo,24.6673915,46.6269713,"2941 طريق مكة المكرمة الفرعي, Riyadh",Restaurants,4.3
Brenejak Riyadh,24.6668066,46.6262642,"Via Riyadh 2941 , Al Hada, 12912 - 8415, الرياض",Restaurants,3.7
ماربل MARBLE,24.667061,46.62650699999999,"MJ8G+RJC, Riyadh",Restaurants,4.1
Loris Restaurant-Sudds Salon,24.6664186,46.6259123,"Via Riyadh, Riyadh",Restaurants,
ferdi,24.667309,46.62673330000001,"2941 Makkah Al Mukarramah Road, Riyadh",Restaurants,4.6
White Garden Olaya,24.6943084,46.6836945,"Al Howaishel Tower, Wadi Al Artawi Street, Riyadh",Restaurants,4.2
حمام عبدُه - العليا,24.6871644,46.68074259999999,"Prince Sultan Bin Abdulaziz Road, Riyadh",Restaurants,4.3
Luthan Hotel and Spa,24.7066487,46.6417087,"Building No.7358 Al Hanka, Riyadh",Restaurants,4
Voyage Hotel فندق فوياج,24.69951,46.6432996,"Al Urubah Road, Riyadh",Restaurants,4.2
Maestro Pizza,24.7022501,46.651212,"4207 طريق العروبة الفرعي, Riyadh",Restaurants,4.2
Chinwa,24.70231870000001,46.6515836,"Oruba Square, Al Urubah Road, Riyadh",Restaurants,4.2
Shiro,24.702319,46.65158599999999,"Near King Khaled Mosque, Al Urubah Road, Riyadh",Restaurants,4.4
Subway,24.691925,46.62699,"Dist, Al Jazeera Building, 3333 Mousa Ibn Nasir St, Riyadh",Restaurants,4.1
!ليتل سيزرز بيتزا! بيتزا Little Caesars Pizza! Pizza!,24.7247857,46.65586740000001,"King Abdullah Road, Riyadh",Restaurants,3.9
KFC,24.7045778,46.6647609,"Tahkassose street, Euromarche market, الرياض",Restaurants,3.9
Godiva - Ar Rahmaniyah,24.71870689999999,46.65788570000001,"Next to Dr. Sulaiman Al Habib Hospital, Al Takhassousi, Riyadh",Restaurants,4.2
AlQalzam Seafood Restaurant,24.707874,46.6643194,"Al Urubah Branch Road, Riyadh",Restaurants,4
Jan Burger - جان برجر‎,24.704291,46.66547699999999,"At Takhassusi Branch Street, Riyadh",Restaurants,3.8
Enfath Gardens,24.7229707,46.6508881,"King Abdullah Branch rd King Abdullah Branch Road, Riyadh",Restaurants,5
Domino's Pizza دومينوز بيتزا,24.7221399,46.6496655,"King Abdullah Branch Road, Riyadh",Restaurants,4
Robert's Boutique,24.720308,46.64748249999999,"Cross Line, طريق الأمير محمد بن سعد بن عبدالعزيز, King Abdullah Road, الرياض",Restaurants,3.8
The Grill,24.7109216,46.67394349999999,"Kingdom Centre, Olaya Street, Riyadh",Restaurants,3.9
Spazio Restaurant,24.7113011,46.6742127,"Kingdom Tower, Al Urubah Road, 77Th Floor, Riyadh",Restaurants,3.7
Oasis,24.712466,46.67462500000001,"Kingdom Centre Riyadh, Olaya St, Al Olaya, Riyadh 12214, الرياض",Restaurants,4.1
Subway,24.713639,46.67530199999999,"3058 Harun Al-Rasheed St, Block #6091, الرياض",Restaurants,3.6
Domino's Pizza دومينوز بيتزا,24.7136,46.675342,"3616 Al Khalifah Al Maamoun St, 7469, الرياض",Restaurants,4
Al Nafoura Restaurant,24.713591,46.6755535,"شارع الستين, PM7G+C6M, Riyadh",Restaurants,3.7
Nobu Hotel Riyadh,24.7063358,46.6757095,"طريق الملك فهد, Al Anoud Tower 2, الرياض",Restaurants,4.3
Sheikh mandi Restaurant,24.632406,46.6135967,"Prince Ahmed Bin Abdulaziz Road, Riyadh",Restaurants,3.7
Domino's Pizza دومينوز بيتزا,24.63045900000001,46.60810499999999,"Prince Ahmed Bin Abdulaziz Road, Riyadh",Restaurants,3.9
Maestro Pizza,24.6298199,46.6036514,"3660 الامير محمد بن سعود بن عبدالعزيز, Riyadh",Restaurants,3.9
Burgerizzr Ahmadiya,24.62982,46.603145,"Prince Ahmed Bin Abdulaziz Road, Riyadh",Restaurants,4.2
مطبخ سند,24.60439449999999,46.6331021,"7752, 3829 طريق الامير مساعد بن عبدالرحمن بن فيصل، العريجاء الوسطى 12972, Riyadh",Restaurants,4.3
Subway,24.614705,46.645432,"7406 Hamza Ibn Al Mutalib St, West Oraija, الرياض",Restaurants,3.9
راشد بن سعود بن عبيد الفطيماني السهلي,24.632546,46.61485709999999,"JJM7+2W9, Riyadh",Restaurants,
Vadi laban,24.632546,46.61485709999999,"JJM7+2W9, Riyadh",Restaurants,
عمار,24.632546,46.61485709999999,"JJM7+2W9, Riyadh",Restaurants,
Hot Pizza Ahmadiya Branch,24.63300019999999,46.6155045,"الأحمدية, Prince Ahmed Bin Abdulaziz Road, Riyadh",Restaurants,4.1
فوال النخيل,24.6332362,46.6162445,4932 الوادي، هجرة لبن، الرياض 12935 6433،,Restaurants,3.1
مضغوط سعد - حي الاحمدية,24.6330198,46.6155452,"Prince Ahmed Bin Abdulaziz Road, رقم المبنى 4876, Riyadh",Restaurants,4.5
فلافل الشام أصبح فلافل فارس,24.63299940000001,46.6154556,Hijrat Laban 4876,Restaurants,4
فوال إبراهيم بن عبدالله بن إبراهيم السعيد,24.6334047,46.6163008,"Prince Ahmed Bin Abdulaziz Road, JJM8+9G7, Riyadh",Restaurants,3.8
اوزاي لتنظيم الحفلات والمناسبات,24.6333889,46.6161694,"6446 Prince Ahmed Bin Abdulaziz Road, RILB4964، 4964, Riyadh",Restaurants,
عصائر البستان,24.6320434,46.6123735,"JJJ6+RW9, Riyadh",Restaurants,3.8
أسواق ومخابز صداره الابداع,24.6342896,46.618879,"2935 Prince Ahmed Bin Abdulaziz Road, حي لبن، 5226",Restaurants,4.2
بوفية نكهة وسن,24.6315197,46.6110082,"Steer princ Ahmed, Riyadh",Restaurants,3.7
مضغوط اليمامة,24.6313218,46.6105105,"الوادي, Riyadh",Restaurants,4.2
دوار السعادة - الأحمدية,24.6348125,46.6205625,"JJMC+W6, 5359 Al Hossam, Alahmadiyah, الرياض",Restaurants,3.5
Subway,24.626389,46.658896,"4776 Al Madinah Almunawaruh St, Riyadh",Restaurants,3.8
Three dogs,24.6348351,46.6582121,"Prince Talal bin Abdulaziz Street, Riyadh",Restaurants,5
مطعم أنفاس هاوس,24.6269019,46.6612339,Riyadh,Restaurants,4.9
فوال عدس ومقلقل لتقديم الوجبات((افغاني+باكيستان,24.6269517,46.66206390000001,"JMG6+QRQ, Riyadh",Restaurants,
مطعم الفول و تميس الباكستاني و افغاني,24.62695549999999,46.6620955,"JMG6+QRQ, Riyadh",Restaurants,4
Shawarma restaurant,24.6269649,46.6623195,"2504 Al Urayja, Riyadh",Restaurants,3.9
ديليش Delish بيتزا و عصائر,24.6268452,46.6636836,"JMG7+PFM, Riyadh",Restaurants,4.2
مطعم البخاري bukhari restaurant,24.6267352,46.66430929999999,"حي, 2720 Al Urayja, 7508, الرياض",Restaurants,3.3
The Groves,24.6354471,46.6719502,Riyadh,Restaurants,4.2
ليتل كريزي,24.6353375,46.6730469,"شارع الأمير سطام, JMPF+46M, Riyadh",Restaurants,3.4
Charlie Chonka at Little Krazy Faktory,24.63536239999999,46.6730604,"RBRA7144، 7144 الامير سطام بن عبدالعزيز, 4948, الرياض",Restaurants,2.8
Zodiac Garden,24.6355376,46.6732389,"4948 Prince Sattam Ibn Abd Al Aziz, 7144, Riyadh",Restaurants,4
VidaVera,24.6356228,46.6732391,"4948 الامير سطام بن عبدالعزيز, RBRA7144، 7144, الرياض",Restaurants,4
هوانم ذا جروفز,24.63583849999999,46.6735462,"JMPF+8CM, Riyadh",Restaurants,4.5
حارة ابو عصام - Haret abu Issam,24.6358294,46.6735552,"RBRA7144، 7144 الامير سطام بن عبدالعزيز, 4948, الرياض",Restaurants,4.1
Gulnaz Khanum,24.635681,46.6737098,"RBRA7144، 7144 الامير سطام بن عبدالعزيز, 4948, الرياض",Restaurants,4.5
Burger King - Exit 8 Dammam Rd,24.800738,46.743283,"Next to Al-Dawaa Pharmacy, Exit 8, Dammam Branch Road, Riyadh",Restaurants,4
Herfy,24.7795459,46.750084,"شارع خالد بن الوليد، حي, QQH2+R28, Riyadh",Restaurants,3.6
Kudu - Granada Center,24.7828073,46.7303288,Riyadh,Restaurants,3.5
Canton | كانتون,24.7811476,46.73109209999999,"7364 Eastern Ring Branch Road, Granada Mall،, Riyadh",Restaurants,4
McDonald's,24.78122600000001,46.730709,"Eastern Ring Road, Riyadh",Restaurants,3.3
Sbarro,24.7809681,46.7309475,"QPJJ+99P, Riyadh",Restaurants,3.9
Charleys Cheesesteaks,24.780882,46.73094299999999,"6623 Eastern Ring Branch Road, Riyadh",Restaurants,2.6
Steak House,24.780338,46.73085859999999,"Granada mall, Eastern Ring Road, 2nd Floor, Riyadh",Restaurants,4.5
Saudi Fisheries Company,24.7947361,46.7426325,"Khalid Ibn Al Walid Street, Riyadh",Restaurants,3.8
Subway,24.799222,46.739911,"طريق الدمام،, سوبر ماركت العثيم، مطعم رقم 59788 طريق الدمام الفرعي، المخرج 8, Riyadh",Restaurants,4.3
McDonald's,24.776524,46.729723,Riyadh,Restaurants,3.7
Manoosha | منؤشة,24.8005246,46.7394487,"Dammam Branch Road, Riyadh",Restaurants,3.6
Shawarmer | شاورمر,24.7757858,46.7287161,"Al Imam Saud Ibn Abdul Aziz Branch Road, Riyadh",Restaurants,4
Domino's Pizza دومينوز بيتزا,24.7846601,46.74853110000001,"6083 Khalid Ibn Al Walid Street, Riyadh",Restaurants,4.1
Durrat China Restaurants,24.80154809999999,46.7389774,"سعيد بن زيد, RP2Q+JH9, Riyadh",Restaurants,4
Pizza Hut,24.8011112,46.74081999999999,"Dammam Branch Road, Riyadh",Restaurants,3.9
واحد فول,24.8022105,46.7396348,"Said Ibn Zayd Road, Riyadh",Restaurants,3.5
Maestro Pizza,24.7749557,46.7264849,طريق الامام سعود بن عبدالعزيز بن محمد الفرعي، الازدهار، الرياض 4238,Restaurants,4.2
FireGrill,24.8086226,46.7352909,"Ibdaa Plaza, Said Ibn Zayd Road, Riyadh 13244 Located in Ibdaa Plaza Riyadh SA, Riyadh",Restaurants,4.2
Tim Hortons,24.803966,46.750812,"3049 Dammam Branch Road, Riyadh",Restaurants,4.2
Kudu - Al Wurud,24.7322926,46.6758245,"King Abdullah Road, Riyadh",Restaurants,4
Al Jalab Restaurant,24.733784,46.6869968,"King Abdulaziz Road, Riyadh",Restaurants,4.5
McDonald's,24.732704,46.676905,Riyadh,Restaurants,3.8
Pizzaram,24.7405931,46.6707529,"3228 Al Mughirah Ibn Shubah, 7280, Riyadh",Restaurants,4.2
طوشكا - Tochka,24.7380628,46.6750809,"Prince Ahmad Ibn Abd Al Aziz, داخل كتشن بارك, Riyadh",Restaurants,4.3
Maestro Pizza,24.7294679,46.6699823,"Al Asli, Riyadh",Restaurants,4.1
كاريبو كوفي - Caribou Coffee,24.745109,46.660396,"PMW6+56C, Riyadh",Restaurants,4.2
Hardee's,24.7438284,46.6580118,"GALLERIA MALL, King Fahd Branch Road, Riyadh",Restaurants,4
Texas Chicken - Galleria Mall,24.7438335,46.65801150000001,"Olaya Street, Riyadh",Restaurants,4.4
Pastalita,24.7438268,46.6579853,"Gallery, 7719 King Fahd Branch Road, Riyadh",Restaurants,4
KFC,24.7432167,46.6791197,"Hayat Mall, King Abduaziz Rd, Riyadh",Restaurants,3.7
McDonald's,24.74517099999999,46.658687,"شارع العليا, Intersection of Al Imam Saud Bin Abdulaziz Bin Mohammed Rd, الرياض",Restaurants,3.5
Makki Corner Restaurant,24.7453356,46.678139,"حي, Hisham Ibn Abd Al Malek, Riyadh",Restaurants,3.9
Kudu - Riyadh Gallery Mall,24.7443498,46.6570613,"3005 Imam Saud Bin Abdulaziz Bin Mohammed Road, Riyadh",Restaurants,3.8
Tim Hortons Hayat Mall,24.743245,46.6803325,"HAYAT MALL, King Abdulaziz Road, GATE NO 1, SHOP NO F91, Riyadh",Restaurants,4.2
Herfy,24.7395779,46.6819543,"7242 King Abdul Aziz Branch Road, Riyadh",Restaurants,3.6
هرفي,24.7559561,46.6575254,"7084 شارع الأمير تركي بن عبدالعزيز الثاني، حي, Riyadh",Restaurants,3.6
Furn Aldayaa,24.747387,46.68016490000001,"2364 King Abdul Aziz Branch Road, Branch, Riyadh",Restaurants,4
!ليتل سيزرز بيتزا! بيتزا Little Caesars Pizza! Pizza!,24.75797799999999,46.6624315,"Prince Turki Bin Abdulaziz Althani St, Riyadh",Restaurants,3.8
Derati Restaurants & Kitchens,24.5881775,46.66901430000001,"Al Souweidi Al Aam, Riyadh",Restaurants,3.8
مشويات المزيد,24.5924549,46.67551150000001,"شارع السويدي،, HMRG+X6J, Riyadh",Restaurants,4.2
برجر باب عزيز,24.58490410000001,46.67824479999999,"4037 Al Ibbad, Riyadh",Restaurants,4.2
Maestro Pizza,24.5856392,46.69131549999999,"Southern Ring Branch Road, Riyadh",Restaurants,3.9
Herfy Restaurant,24.5830569,46.68653399999999,"حي, HMMP+5MR الطريق الدائري الجنوبي الفرعي، نمبر248, Riyadh",Restaurants,3.6
Herfy,24.5847537,46.66314920000001,"شارع السويدي العام, HMM7+W72, Riyadh",Restaurants,3.9
Quiznos كويزنوز,24.6086956,46.6562334,"Al Madina Al Munawwarah Road, Riyadh",Restaurants,3.8
KFC,24.5738277,46.6952541,"3355 Dirab Road, Riyadh",Restaurants,3.7
مطاعم الشراع,24.5972225,46.68341239999999,"3370 Al Souweidi Al Aam, Riyadh",Restaurants,3.9
بيتزا وباستا زون,24.5974899,46.6837816,"HMWM+XGV, السويدي العام، سلطانة،, Riyadh",Restaurants,3.7
فوال الطائف - Fawal Taif,24.5469755,46.65004190000001,"Al Mashtal, Riyadh",Restaurants,3.8
baskin robbins,24.5464541,46.6501654,"Al Mashtal, GMW2+H3M, Riyadh",Restaurants,3.8
برجر مشوي,24.5468822,46.6502971,"3732 Al Mashtal, Riyadh",Restaurants,4.2
Domino's Pizza دومينوز بيتزا,24.545333,46.653531,"St, 4022 Al Mashtal, Riyadh",Restaurants,4
مطعم الليوان - الحزم,24.5441109,46.6545276,"حي, 7213 Al mathari, Riyadh",Restaurants,3.9
McDonald’s,24.557901,46.63720299999999,"Western Ring Road, Riyadh",Restaurants,3.3
KFC,24.5582222,46.6362541,"Nagm alden street cross southern round road, الرياض",Restaurants,3.7
Khafif,24.5587846,46.6373493,4419 الطريق الدائري الغربي الفرعي، ظهرة نمار، Salaam Mall، الرياض 14924,Restaurants,3.5
Hardee's,24.5589375,46.6370625,"HJ5P+HR, ال سليم ال سليم، PLAZA, Riyadh",Restaurants,4.2
McDonald's,24.537533,46.657906,Riyadh,Restaurants,3.8
KFC,24.5358164,46.6566777,"Dirab Road, Riyadh",Restaurants,3.5
Subway,24.537733,46.658158,"Block #6502, 4499 Dirab Branch Road, Riyadh",Restaurants,3.3
Maestro Pizza,24.5375771,46.6582803,"6482 طريق ديراب الفرعي, Riyadh",Restaurants,4
Herfy Restaurant,24.5388059,46.6592315,"6626 Dirab Branch Road, Riyadh",Restaurants,3.4
Artal Cafe,24.5661473,46.63125,"Sheikh Abdul Rahman Ibn Furayyan, Riyadh",Restaurants,3.9
Domino's Pizza دومينوز بيتزا,24.56641,46.625336,"4034-4052 Western Ring Branch Road, Riyadh",Restaurants,3.9
Pizzaratti AlSuwaidi,24.5671361,46.6233845,"Western Ring Branch Road, HJ8F+V92, Riyadh",Restaurants,4
Dough shack burger,24.5448568,46.6473399,"7268 Hamzah Ibn Abdul Mutalib, 3401, Riyadh",Restaurants,3.8
شيف المندي chef almandi - الحزم,24.5444259,46.6474686,"Hamzah Ibn Abdul Mutalib, Riyadh",Restaurants,4.1
شاورما وجار,24.5449772,46.6478656,"3471 Hamzah Ibn Abdul Mutalib, Riyadh",Restaurants,4.4
Boofia Hadi (kerala),24.6023332,46.70728090000001,"Atheeka market, Riyadh",Restaurants,5
Sultan boofiya,24.6023524,46.7072692,"RCAA7912, 2434 Baday Ibn Mudyan, 7912, Riyadh",Restaurants,5
"JP24+WVP Utaiqah, Riyadh",24.6023589,46.7072653,"2434 Baday Ibn Mudyan, 7912, Riyadh",Restaurants,
بوفية هذال أحمد لتقديم الوجبات,24.6008266,46.7080752,"2498 Baday Ibn Mudyan, 7726, Riyadh",Restaurants,5
Baba Sweets,24.6793339,46.7082734,"7500 Ali Ar Rummani, 2978, Riyadh",Restaurants,4.1
Domino's Pizza دومينوز بيتزا,24.680855,46.69497699999999,"2633 Makkah Al Mukarramah Branch Road, Riyadh",Restaurants,4.1
Bahrya Restaurant,24.6818251,46.6968814,2815 طريق مكة المكرمة الفرعي، العليا، الرياض 12611 9472،,Restaurants,4
KFC,24.6820578,46.7184883,"OLD AIR PORT ROAD, Riyadh",Restaurants,3.7
Fairmont Riyadh,24.8082207,46.7182893,"Area, Business Gate, Riyadh",Restaurants,4.7
Sicilia's Pizza Cuts,24.8074829,46.7166114,"طريق المطار، قرطبة، C1 Building, The Business Gate، الرياض 13244",Restaurants,4.2
Maestro Pizza,24.7958716,46.699576,"7203 Uthman Ibn Affan Road, Riyadh",Restaurants,4
مطعم رز وبهار,24.79605639999999,46.6993423,"Uthman Ibn Affan Branch Road, QMWX+CPG, Riyadh",Restaurants,3.6
Domino's Pizza دومينوز بيتزا,24.7927311,46.69983649999999,"7708 Uthman Ibn Affan Branch Road, Riyadh",Restaurants,3.9
Quiznos كويزنوز,24.7991285,46.6977535,"Uthman Ibn Affan Road, طريق عثمان بن عفان, Riyadh",Restaurants,3.5
Burger King - Nada,24.80099,46.693184,"Opposite Nada Park, Prince Saud Ibn Muhammad Ibn Muqrin Rd, Riyadh",Restaurants,4
Roast Cuisine Restaurant,24.8043632,46.693937,"Uthman Ibn Affan Road, Riyadh",Restaurants,4.5
McDonald's,24.80577899999999,46.693375,"Plaza, Riyadh",Restaurants,3.6
Oregano Pizzeria,24.8058548,46.6929453,"Uthman Ibn Affan Road, 7544, Riyadh",Restaurants,4
Golden Karak,24.7995459,46.69042640000001,"طريق الأمير محمد بن سلمان, Riyadh",Restaurants,4
Hamburgini هامبرغيني - Al Izdihar,24.7786887,46.7119427,"2701 الحسين بن علي, District 12485, الرياض",Restaurants,4
برغرايززر | Burgerizzr,24.7782619,46.7115029,"Uthman Ibn Affan Branch Road, Riyadh",Restaurants,4
Domino's Pizza دومينوز بيتزا,24.7781226,46.7115003,"St, Al Hussein Ibn Ali, Riyadh",Restaurants,3.6
Subway Cloud,24.8150373,46.7266043,"طريق محمد بن سلمان،, Riyadh",Restaurants,4.2
Subway,24.778021,46.711242,"St, 2667 Al Hussein Ibn Ali, Riyadh",Restaurants,3.6
Khadamati,24.776255,46.7080814,"7708 Uthman Ibn Affan Branch Rd, At Taawun, Riyadh 12476 4191 Uthman Ibn Affan Branch Road, Riyadh",Restaurants,3.2
Maestro Pizza,24.7806222,46.69552590000001,"الطريق الدائري الشمالي،، التعاون،, الرياض",Restaurants,4.2
Domino's Pizza دومينوز بيتزا,24.818819,46.6866889,"6968 Uthman Ibn Affan Road, Riyadh",Restaurants,3.6
Furn Aldayaa,24.8009855,46.6738623,"Abi Bakr As Siddiq Road, Riyadh",Restaurants,4
Domino's Pizza دومينوز بيتزا,24.801187,46.673623,"7643 Abi Bakr Al Siddik Rd, Riyadh",Restaurants,3.7
Crust Corner,24.8007089,46.6738299,"طريق ابي بكر الصديق الفرعي، حي, Riyadh",Restaurants,4
Tim Hortons,24.808424,46.6695568,"Abi Bakr As Siddiq Branch Road, Riyadh",Restaurants,4.3
Chili's,24.8091873,46.6686673,"Al Thoumamah Road, Riyadh",Restaurants,3.7
KFC,24.8083744,46.6662244,"Thomama Road, Behind Kingdom hospital, الرياض",Restaurants,3.7
Robert's Boutique,24.8143006,46.6588913,الياسمين، الرياض 13326,Restaurants,3.7
FOAM,24.8061151,46.68484119999999,Riyadh,Restaurants,4.2
ملك البليلة,24.8067157,46.6827066,"Al Qalam Street, Riyadh",Restaurants,3.2
برجر بمبم,24.8066579,46.6826067,"حي, Riyadh",Restaurants,
Najd Village,24.7426129,46.70469869999999,"Abi Bakr As Siddiq Road, Riyadh",Restaurants,3.9
Subway,24.74947700000001,46.686919,"STC Riyadh Head Quarters Branch, 3605 Ishaq Ibn Mukhalad St, Al Mursalat, الرياض",Restaurants,4.1
Quiznos كويزنوز,24.7364484,46.69481659999999,"شارع الامير ناصر بن فرحان, Riyadh",Restaurants,3.9
Burgerizzr | برغرايززر,24.751867,46.699767,"Abi Bakr As Siddiq Branch Road, Riyadh",Restaurants,4.1
مطعم سعد الدين,24.735497,46.6954366,"شارع الامير ناصر بن فرحان, Riyadh",Restaurants,2.8
Herfy,24.7561561,46.6843642,"طريق الإمام سعود بن عبدالعزيز بن محمد Othaim, Exit 9, Riyadh",Restaurants,3.7
Tim Hortons - Mursalat Plaza,24.7557132,46.68337409999999,"Al Imam Saud Ibn Abdul Aziz Branch Road, Riyadh",Restaurants,4.2
Subway Mursalat,24.7559474,46.6837311,"2729 Saud Ibn Abdulaziz Ibn Muhammad St., Al Mursalat, الرياض",Restaurants,4
Subway,24.733231,46.69775,"Prince Sultan University Branch, 7660 Prince Nasser Ibn Farhan Aal Saud St, الرياض",Restaurants,4
كاريبو كوفي - Caribou Coffee,24.732308,46.696931,"PMJW+WQ, Riyadh",Restaurants,4.1
Herfy,24.7453134,46.7067868,"PPW4+4PF, Riyadh",Restaurants,3.5
McDonald's,24.760954,46.69549599999999,"Abi Bakr As Siddiq Road, Riyadh",Restaurants,3.9
Shawarma Classic | شاورما كلاسك,24.756154,46.710752,"Prince Muqrin Ibn Abdulaziz Street, Riyadh",Restaurants,3.9
FireGrill,24.7581627,46.7133016,الرياض,Restaurants,4.2
Domino's Pizza دومينوز بيتزا,24.758246,46.713704,"Reeman Al Kahleej Center, 3938 Prince Muqrin Bin Abdulaziz St, Riyadh",Restaurants,3.9
WokKong,24.7583668,46.71382430000001,"Prince Muqrin Ibn Abdulaziz Street, Riyadh",Restaurants,4
Pizzaratti,24.7584935,46.7140757,"شارع الأمير مقرن بن عبدالعزيز،النزهة, Riyadh",Restaurants,3.9
Burger and roast potatoes,24.7585995,46.7144452,"Uthman Ibn Affan Road, Riyadh",Restaurants,4.1
canton Nozha Plaza,24.7586098,46.714432,"Prince Muqrin Ibn Abdulaziz Street, Riyadh",Restaurants,4.1
Setah Sweet,24.762608,46.71517099999999,"Uthman Ibn Affan Road, Riyadh",Restaurants,4.3
Kudu - Eirad Plaza Mall,24.7601287,46.717744,"Uthman Ibn Affan Road, Riyadh",Restaurants,3.9
Maestro Pizza,24.7466363,46.7098899,"طريق الملك عبدالله، الواحة،, الرياض",Restaurants,4.1
Madhina,24.7555853,46.7199712,"Uthman Ibn Affan Road, Riyadh",Restaurants,4
Cenomi Al Nakheel Mall | سينومي النخيل مول وجهتك المفضلة,24.767943,46.71493599999999,"Exit 9, Al Imam Saud Ibn Abdul Aziz Branch Road, Riyadh",Restaurants,4.4
McDonald's,24.767761,46.71558900000001,"Food Court, Nakheel Mall, Riyadh",Restaurants,3.5
herfy,24.7673596,46.7166128,"7806, 2433 طريق الامام سعود بن عبدالعزيز بن محمد الفرعي، المغرزات، الرياض 12483, Riyadh",Restaurants,3.7
Canton | كانتون,24.767896,46.7157604,"Mall, Uthman Ibn Affan Road, Riyadh",Restaurants,4
Charleys Cheesesteaks,24.7678482,46.7165303,"2433 Al Imam Saud Ibn Abdul Aziz Branch Road, Riyadh",Restaurants,3.1
TOKYO,24.7181459,46.68670509999999,"Al Urubah Road, Riyadh",Restaurants,4.4
Herfy,24.7200236,46.6905001,"Al Urubah Road, PMCR+262, Riyadh",Restaurants,3.8
Tim Hortons,24.7163056,46.6822616,"Al Orouba Street, Sulemanaya, الرياض",Restaurants,4.3
مقهى وحلويات الدبلوماسي / Diplomatic Cafe and Sweets,24.7173311,46.684563,"Al Urubah Road, Riyadh",Restaurants,4.2
Domino's Pizza دومينوز بيتزا,24.718507,46.686059,"Dist, 3906 Al Urubah Road, Riyadh",Restaurants,4.1
Subway,24.709752,46.681498,"Riyadh Bank Branch. Block #7761, الرياض",Restaurants,4.1
فندق التنفيذيين - العليا,24.7084843,46.67797169999999,"Beside Al Aqaria Plaza and بجوار العقاريه بلازا 200 م من، Kingdom Centre, 2299 Olaya Street, Riyadh",Restaurants,4
AmoHamza,24.720654,46.6927844,"King Abdulaziz Road, Riyadh",Restaurants,3.7
Bar.B.Q Tonight - Riyadh,24.7059579,46.6770363,"9020 Wadi Al Thumamah St, Al-Olaya, الرياض",Restaurants,4.2
قصر الهند,24.75744370000001,46.75289959999999,"Dist, Prince Saud bin Abdulaziz Al saud Al kabeer, Riyadh",Restaurants,3.8
McDonald’s,24.753345,46.769497,Riyadh,Restaurants,3.6
McDonald's,24.774057,46.77621800000001,"Hamra Mall, Riyadh",Restaurants,3.2
Domino's Pizza دومينوز بيتزا,24.770933,46.76614000000001,"King Abdullah Branch Road, Riyadh",Restaurants,4
Herfy,24.7644148,46.78490009999999,"Abi Said Al Khadri, QQ7M+QX6, Riyadh",Restaurants,3.6
Al Atherya Village Restaurant,24.7686549,46.7624936,"King Abdullah Road, Riyadh",Restaurants,3.6
Al Liwan Restaurant,24.7693528,46.7621841,"King Abdullah Road, Riyadh",Restaurants,3.9
Futur Turkey Kahvaltı,24.7618716,46.7617155,"4381 الامير سعود بن عبدالعزيز ال سعود الكبير, Riyadh",Restaurants,4.1
Maestro Pizza,24.7650842,46.7607612,"شارع خالد بن الوليد، القدس،, الرياض",Restaurants,4
Shawaiat Al-khaleej,24.7534718,46.7694819,"Khalid Ibn Al Walid Street, Riyadh",Restaurants,4.2
Burger King - Ishibilia,24.777603,46.777922,"Near to Ibn Omaira Mosque, King Abdullah Road, Riyadh",Restaurants,4.1
Subway,24.7817132,46.7718934,"4368 Hasan bin Husain Street, Riyadh",Restaurants,4.2
Kudu - King Abdullah Rd,24.766909,46.7553539,"King Abdullah Branch Road, Riyadh",Restaurants,3.9
Applebee’s,24.7653931,46.7545878,"King Abdullah Branch Road, Riyadh",Restaurants,4.3
Domino's Pizza دومينوز بيتزا,24.75657,46.791214,"St, 7812 Umm Bab, Riyadh",Restaurants,4
Domino's Pizza دومينوز بيتزا,24.77988130000001,46.7880601,"St, 4209 As Sadah, Riyadh",Restaurants,4.1
Domino's Pizza دومينوز بيتزا,24.745877,46.776536,"7717 Wadi Hanifa, Riyadh",Restaurants,3.9
Konafa Day,24.7849657,46.7765139,"Antakyah, QQMG+XJJ, Riyadh",Restaurants,4.1
Quiznos كويزنوز,24.7452951,46.77641149999999,"Khalid Ibn Al Walid Street, Riyadh",Restaurants,3.7
Kudu - Al Andalus,24.7451588,46.776239,شارع خالد بن الوليد، غرناطة،,Restaurants,3.5
KFC,24.5533968,46.8895143,"Snaiyaa 2 ) area, الرياض",Restaurants,3.8
McDonald's,24.553404,46.88874999999999,"2nd industrial city services centre, Riyadh",Restaurants,3.8
Domino's Pizza,24.5539,46.888973,"Riyadh 2nd Industrial City, 8833, Riyadh",Restaurants,3.7
Subway,24.557829,46.889935,"Oasis Food Complex, Riyadh",Restaurants,3.9
CBOB CANTEEN,24.5437648,46.918217,"GWV9+G74, Riyadh",Restaurants,3.7
G.S.D CANTANE,24.537058,46.9165198,"GWP8+RJC, Riyadh",Restaurants,4
Hery abha,24.52774,46.90632420000001,"Herfy Meat Processing Plant, Riyadh",Restaurants,
Flexible Cataring,24.5278898,46.91333539999999,"GWH7+584, Riyadh",Restaurants,3.8
بوفية تسالي برية,24.5636253,46.9074648,Riyadh,Restaurants,4.6
مطعم الحربي البخاري,24.5534128,46.88942549999999,"area, Snaiyaa 2, Riyadh",Restaurants,2
بوفية فيصل,24.55422800000001,46.8895462,"HV3Q+MRV, Riyadh",Restaurants,4.9
بوفية نوف,24.5542901,46.88946209999999,"الملك فهد ابن عبدالعزيز سعود, Riyadh",Restaurants,5
الصناعيه الجديده الثانيه,24.5542437,46.8894103,مطاعم مير,Restaurants,4.3
Shahu Zaiga Idian Restaurant,24.5536842,46.889035,"3100 محمد أبي نقطة, Riyadh",Restaurants,5
Shahi Zaiqa Indian Restaurant,24.5537229,46.8890513,Riyadh,Restaurants,4.9
Hot Plate,24.5537229,46.8890513,Riyadh,Restaurants,4
Viewz Restaurant,24.5590116,46.8930093,"186, 2nd Industrial City Street, الرياض",Restaurants,3.8
شطيرة الفطائر,24.5546604,46.8894879,"Riyadh 2nd Industrial City, Riyadh",Restaurants,4.9
مطاعم مير السعودية,24.554233,46.889197,"شارع 5, Riyadh",Restaurants,3.5
بوفيه مؤسسة روائع الأبطال,24.5537772,46.8889332,"8833, Riyadh",Restaurants,3.8
DERATI Restaurants - Al Aziziah branch,24.5957403,46.772965,"العزيزية الشارع العام -جوار العثيم, Riyadh",Restaurants,4.2
McDonald's,24.585652,46.778468,Riyadh,Restaurants,3.8
KFC,24.5874805,46.76285169999999,"Al-Nasr St.-Azizia, الرياض",Restaurants,3.6
Domino's Pizza دومينوز بيتزا,24.587546,46.76267199999999,"3603 An Nasr Road, Riyadh",Restaurants,3.9
Maestro Pizza,24.5871905,46.7622902,"An Nasr Road, Riyadh",Restaurants,3.8
Jan Burger - جان برجر‎,24.587188,46.762023,"Al Aziya, Riyadh",Restaurants,3.9
Hamburgini هامبرغيني - Al Aziziyah,24.587116,46.7618526,"3523 An Nasr Road, Riyadh",Restaurants,4
Furn Al Dayaa,24.5870813,46.7615882,"An Nasr Road, Riyadh",Restaurants,4
Subway,24.5870621,46.7614545,"طريق العزيزية الفرعي, Al Nasr Rd, الرياض",Restaurants,4
Herfy,24.5871184,46.7612623,"HQP6+RGR, طريق النصر، العزيزية،, Riyadh",Restaurants,3.4
مطعم أطلال الرافدين للمشويات أفراد وعوائل الفرع الرئيسي,24.5865501,46.7613341,"Al Shabab, Riyadh",Restaurants,4.3
Burger Lab 01,24.5941255,46.7571175,"Al Shabab, Riyadh",Restaurants,4.1
Jawa spicy food rest,24.6046954,46.75497099999999,"3479 Southern Ring Branch Road, Riyadh",Restaurants,3.6
Subway,24.607332,46.753684,"Maan Bin Zaida Street, Riyadh",Restaurants,3.9
برغرايززر | Burgerizzr,24.614166,46.758757,"حي, Al Kharj Road, Riyadh",Restaurants,4.4
Indian Jungle Restaurant,24.6141839,46.7584589,"Al Kharj Road, Riyadh",Restaurants,4
Derati Restaurants - Ad Dar Al Baida Branch,24.5736391,46.7853524,"Arafat Road, تقاطع طريق العزيزية مع, Riyadh",Restaurants,4
pizzaram,24.60872149999999,46.7502644,"Maan Bin Zaida Street, Riyadh",Restaurants,4
عمنا جاسم,24.5965833,46.7745,"RMAB7033، 7033 القرين، 3754, Riyadh",Restaurants,5
تسالي عبد العزيز,24.5974676,46.7740787,"شارع معاذ بن جبل، حي, HQWF+XJP, Riyadh",Restaurants,2.9
Herfy,24.6145412,46.7464936,"Al Shabab, JP7W+RH9, Riyadh",Restaurants,3.6
KFC,24.6178517,46.7531763,"Kharj Road, Ghobairah District",Restaurants,3.6
جنيه,24.6183431,46.7523347,"Al Kharj Road, Riyadh",Restaurants,3.8
Kudu - Khanshalila,24.5997505,46.7460746,"2808 Southern Ring Branch Road, Riyadh",Restaurants,3.9
ALLIWAN REST - MANSOURAH,24.5981382,46.7428186,"حي, Southern Ring Branch Road, Riyadh",Restaurants,3.9
شعبيات شاطئ عدن,24.622441,46.7389764,"Ammar Bin Yasir Street, JPCQ+XHH, Riyadh",Restaurants,4.1
اقاشي غبيرا,24.6221434,46.7386685,"JPCQ+VF3, Riyadh",Restaurants,5
ركن السيرية للاقاشي,24.6221434,46.7386685,"JPCQ+VF3, Riyadh",Restaurants,3
Herfy,24.6680854,46.7824895,"Eastern Ring Branch Road, Riyadh",Restaurants,3.5
Herfy,24.67681020000001,46.770263,"8523 Prince Mouteeb Ibn Abd Al Aziz, Riyadh",Restaurants,3.6
شارع المعز,24.6787572,46.7771643,"8678 Eastern Ring Branch Road, Riyadh",Restaurants,4
Hotel,24.6487419,46.7737321,"JQXF+GF8, Riyadh",Restaurants,4.3
بوفیہ زمان امداد,24.6453445,46.7729864,"JQWF+45Q, Riyadh",Restaurants,4.2
مطعم للمأكولات السودانية,24.6453463,46.7731916,JQWF+468، الفيصلية، الرياض 12881،,Restaurants,5
مطعم زاد بلدي,24.6453927,46.77343920000001,"شارع الملك سلمان ابن عبدالعزيز, Riyadh",Restaurants,4.2
Restaurant Zahour Khaybar Riyadh,24.6450687,46.7724942,"9304 Al Amir Salman Ibn Abdul Aziz Road, 9304, 3259, الرياض",Restaurants,3.8
SK Restaurant,24.6450132,46.7723473,"9291 طريق المدينة المنورة الفرعي, 3231, REFA3231, الرياض",Restaurants,3.9
مطعم سيف الامارات الفيصليه,24.6451492,46.7729157,"3297 طريق الامير سلمان بن عبدالعزيز، الفيصلية، 9302, Riyadh",Restaurants,3.9
مطاعم سنابال,24.64493530000001,46.7735326,"3305-3393 Abi Al Hasan Al Wayidh, Riyadh",Restaurants,3.5
شرکہ انجاز الخیال للتجارہ,24.6447179,46.77380719999999,"9258 جياد, REFA3393, 3393, الرياض",Restaurants,5
Habibi Restaurant,24.6484399,46.7788005,"Al Madina Al Munawwarah Road, JQXH+9GF, Riyadh",Restaurants,3.8
بيت اريان,24.643857,46.7694228,"Asad Alsunnah Street, JQV9+GQV, Riyadh",Restaurants,
Best Life Restaurant مطعم أطيب عيش,24.6434569,46.7682876,"Madina Al Munawwarah Rd, Riyadh",Restaurants,4.6
مطعم اليمن السعيد,24.6448864,46.7762052,"8069 Yahya Ibn Hamid, 2201, Riyadh",Restaurants,3.7
Fahad Kerala Restaurant,24.6432211,46.7677434,"9044 Abi Al Hasan Al Wayidh, 2772, Riyadh",Restaurants,3.8
بوفيه كبدة الطائف 3,24.6483125,46.78056249999999,"Al Madina Al Munawwarah Road, JQXJ+86W, Riyadh",Restaurants,3.9
Manickal Fast Food,24.6269533,46.7839603,"4434 Southern Ring Branch Road, 7295, Riyadh",Restaurants,3.5
Manikkal Kerala Restaurant,24.6270403,46.78427099999999,"JQGM+RP6, Riyadh",Restaurants,3.9
هذال الحميدي خالد المطيري للوجبات السريعة,24.6278825,46.7841072,"طريق النهضة، مخرج 18، حي, Riyadh",Restaurants,4
Nour Hilal Restaurant مطعم نور هلال,24.6267942,46.7810009,"7293 Mahail, Riyadh",Restaurants,4.2
Damam rood kabli palaho,24.6253188,46.78113159999999,"JQGJ+4FC, Riyadh",Restaurants,5
مطعم كيف حالك يا جارة,24.6278713,46.7872068,"JQHP+4VW, Riyadh",Restaurants,5
رمانة نجد للخضار والفواكه,24.62605480000001,46.7798881,"Southern Ring Branch Road, Riyadh",Restaurants,4.6
مطعم بيت اريانا,24.6314882,46.7798844,"شقراء, مقهي الأوائل, Riyadh",Restaurants,4.3
بوفية باكستاني,24.6311117,46.7790274,"JQJH+CJR, Riyadh",Restaurants,5
فوال النخيل,24.630937,46.7784521,"JQJH+99G, Riyadh",Restaurants,4.3
مخبز تميس,24.6310477,46.77851380000001,"شارع شقراء, JQJH+CCV, Riyadh",Restaurants,4.7
KC BROASTED FAISALIYYA,24.6309111,46.7781594,"JQJH+86X, Riyadh",Restaurants,5
مطعم البيزنطي,24.63088950000001,46.7781131,"JQJH+86X, Riyadh",Restaurants,
Koohetoor Kareem Restaurant,24.6308793,46.7780856,"JQJH+86X, Riyadh",Restaurants,4.3
مطعم لحوسني,24.63061,46.777681,"Asad Alsunnah Street, JQJH+63V, Riyadh",Restaurants,
Kabsti Afghani Restaurant,24.6306249,46.7776323,"JQJH+63R, Riyadh",Restaurants,4.3
بوفية الطبق العدني للوجبات السريعة,24.6306204,46.7773548,"الفيصلية،، JQJH+63R،, Riyadh",Restaurants,4.8
کنل شیروآنہ,24.6242737,46.7908178,"7982 عبدالملك جمال الدين, RNCB2691، 2691, الرياض",Restaurants,5
Herfy,24.6152174,46.7569474,"منصور بن المعتمر, طريق الخرج - حي المنصورة, JQ84+3QP, Riyadh",Restaurants,3.7
عمي فرحان,24.6206128,46.7546867,"3865 Al Khalifah Al Maamoun, REKA6891، 6891, Riyadh",Restaurants,
Diet Center - دايت سنتر,24.681048,46.784153,"Shop, Riyadh",Restaurants,4.1
KFC,24.6840264,46.7923858,"Exit 15, Saad Ibn Abdalrahman Al awal St, الرياض",Restaurants,3.6
"Subway Jazeera, Exit 15",24.6807338,46.7833715,"7598 Prince Saad Ibn Abdulrahman St, District, Riyadh",Restaurants,3.9
Jan Burger - جان برجر‎,24.68207199999999,46.78628399999999,"Umar Ibn Abdul Aziz Br Rd, Riyadh",Restaurants,3.6
Alliwan Resturant,24.68212909999999,46.7865416,"حي, طريق الأمير سعد بن عبدالرحمن الأول, Riyadh",Restaurants,4
Ananasy,24.6811235,46.7778867,"6181 Eastern Ring Branch Road, مقابل المجد والعثيم مول, Riyadh",Restaurants,4.3
Oregano Pizzeria,24.6811926,46.7778689,"6181 Eastern Ring Branch Road, Riyadh",Restaurants,4
Steak House,24.6836047,46.7755936,"Al Othaim Mall, 4141 Eastern Ring Road, 2nd Floor, Riyadh",Restaurants,4.2
Canton | كانتون,24.6846917,46.7752602,"Eastern Ring Branch Road, Riyadh",Restaurants,3.7
Charleys Cheesesteaks,24.685355,46.775555,"الطريق الدائري الشرقي, Food corner Saffori Land, الرياض",Restaurants,3.4
KFC,24.6855874,46.7757075,"Exit 14, Othim mall Rabwa, الرياض",Restaurants,4
Pizzaratti,24.6861812,46.7947114,"طريق سعد بن عبدالرحمن الأول الفرعي،, 4151 Ibn Mahmud Al Imad, Ar Rawabi, Riyadh 14216 6755 Ibn Mahmud Al Imad, الرياض",Restaurants,4.3
McDonald's,24.685878,46.774818,"Othaim Mall Rabwa Food Court, Othaim Mall, Riyadh",Restaurants,3
Herfy,24.6858624,46.7747586,"7307 Zouhair Ibn Al Mousayeb, Riyadh",Restaurants,2.8
Al-Nufud Restaurant,24.68885420000001,46.781303,"Al Zoubair Ibn Al Awwam, Riyadh",Restaurants,4
Subway,24.6695557,46.80620889999999,"Block #8222 Othman Ibn Affan Road, Al-Nada District 13317-3929, الرياض",Restaurants,3.8
Maestro Pizza,24.6688869,46.80653110000001,"هارون الرشيد الفرعي, الفيحاء، الرياض 6091",Restaurants,3.9
Herfy 1061 Sulai,24.68924740000001,46.8528493,"شارع أبو عبيدة عامر بن الجراح، حي السلي, MVQ3+M4X, Riyadh",Restaurants,3.6
AlBayt AlRomancy Restaurant - As-Saadah,24.6860325,46.8440331,"Abu Oubaidah Ibn Al Jarrah, Riyadh",Restaurants,4.1
Kudu - Khashm Al Aan,24.6875049,46.8490926,"حي, 4225 طريق ابو عبيدة عامر بن الجراح،, Riyadh",Restaurants,3.7
Herfy 900,24.68912809999999,46.8529189,"MVQ3+M53, Riyadh",Restaurants,4
Herfy 157,24.7111271,46.84413639999999,"عبدالله بن عمر, PR6V+FM2, Riyadh",Restaurants,3.6
Kudu - Al Nasim Al Gharbi,24.7060216,46.83585069999999,"Saad Ibn Abi Waqqas, سعد بن عبدالرحمن, Riyadh",Restaurants,3.9
KFC,24.6802253,46.83339040000001,"Exit 16, Obaida Ibn Al-Jarrah Street, الرياض",Restaurants,3.7
KFC,24.6801875,46.8334375,"Abu Oubaidah Ibn Al Jarrah, MRJM+39, Riyadh",Restaurants,3.5
تسالي الشرق,24.6966496,46.84414839999999,"8116 Bayat Al Aqabah, RQAA4769، 4769, Riyadh",Restaurants,3.3
مطاعم لحمه و دجاج Meat and chicken restaurant,24.6971736,46.84543420000001,"8184 بيعة العقبة, RQAA4895, 4895, الرياض",Restaurants,4.4
مطعم باكستاني,24.6972797,46.8455278,"4895، 8184 Bayat Al Aqabah, Riyadh",Restaurants,3
Tsali Al Hana Fast Food Buffet,24.6976906,46.8463995,"solai, Riyadh",Restaurants,4.3
مطعم اعالى المحيط للمأكولات البحرية,24.69476989999999,46.8396337,"MRVQ+WV2, Riyadh",Restaurants,
As Saadah,24.69476989999999,46.8396337,"MRVQ+WV2, Riyadh",Restaurants,
مقهى لذة,24.6939587,46.8396878,"Shebh Al Jazirah, Riyadh",Restaurants,4.6
كشري و حمام المنال,24.6948159,46.8392293,"شبه, الفروسيه الرياض حي السلي",Restaurants,4.2
فوال بيت شعبيات السعادة,24.6932801,46.8400289,"4347 Shebh Al Jazirah, 7754, Riyadh",Restaurants,3.8
كشرى الفؤاد,24.6949444,46.8391667,"Shebh Al Jazirah, MRVQ+XM6, شارع بيعة العقبة, Riyadh",Restaurants,3.7
برجر مشوى,24.69788059999999,46.8470969,"Al Farusiyah Al Fourousiah, Riyadh",Restaurants,3.4
تسالي بندر,24.6980582,46.8471951,"4897-5011 Bayat Al Aqabah, Riyadh",Restaurants,3.9
بوفية تسالي هيلة عايض المطيري,24.622691,46.7974018,"Southern Ring Branch Road, JQFW+3XC, Riyadh",Restaurants,3.1
Fahd Saad Mohamad Alfahtani Fast Food,24.6225119,46.7962321,"الطريق الدائري الجنوبي، حي المناخ, JQFW+2F5, Riyadh",Restaurants,3.9
Karachi Restaurant (Hotel),24.6230911,46.7970743,"حي, RNCA3326, 3326 Wadi Najran, 7844،, الرياض",Restaurants,4.5
New Islamabad Restaurant,24.6231389,46.7974359,"JQFW+6WQ, Riyadh",Restaurants,3
Golden Village Broast,24.6231196,46.79727029999999,Riyadh,Restaurants,4
Laila Muhammad Restaurant,24.623121,46.79724699999999,"14312, Riyadh",Restaurants,5
Kohetoor Kareem Restaurant,24.6234808,46.7977658,"7880 عبدالله الخالدي, 3404, Riyadh",Restaurants,4.6
মোহাম্মদীয়া রেস্টুরেন্ট,24.6248805,46.7980641,"3434 عبدالله الخالدي, حي, RNCA8037, 8037, الرياض",Restaurants,
FRESH FISH & FRY GRILL اسماك طازجه مشويه المقلي,24.6251143,46.7979779,"JQGX+359, Riyadh",Restaurants,4.3
تسالي أحمد سعيد الغامدي,24.624874,46.8022194,"Eastern Ring Road, JRF2+WVX, Riyadh",Restaurants,3.9
تسالي المناخ,24.6248585,46.8022761,Riyadh,Restaurants,3.8
مرضية ذيب المطيري للوجبات السريعة,24.624875,46.80221940000001,"JRF2+XV5, Riyadh",Restaurants,
"خليج عدن، Al-Manakh, Riyadh 14312",24.6249107,46.80218499999999,"JRF2+XV5, Riyadh",Restaurants,4.2
توصيل طلبات ( جميع الخدمات ) المناخ,24.6255533,46.79789989999999,"JQGX+65C, Riyadh",Restaurants,
Niema Indian Kerala Restaurant,24.6252816,46.8019391,Riyadh,Restaurants,4.6
Laila Muhammad Restaurant,24.625295,46.8019727,"8095 خليج عدن, 3822, الرياض",Restaurants,3
Alhamdulillah Bufia,24.6253465,46.8023362,"JRG2+4VQ, Riyadh",Restaurants,5
Kerala Tea Hut,24.6253383,46.80245329999999,"JRG2+4XP, Riyadh",Restaurants,3.9
Pakistani Restaurant (Hotel),24.6258403,46.7974297,"JQGW+8XM, Riyadh",Restaurants,4.1
بوفية مريم,24.625117,46.8037061,"8056 خليج عدن, RNCB4005، 4005, Riyadh",Restaurants,5
Dirati Restaurants,24.569962,46.8333222,"Al Kharj Road, Riyadh",Restaurants,4.1
مطعم نوير البخاري,24.5821982,46.8361816,"RNDA6962، 6962 طبريا، 4781، حي الدفاع،, Riyadh",Restaurants,3.2
مطاعم الشراع,24.5821875,46.8361875,"HRJP+VF, Riyadh",Restaurants,3.9
McDonald's,24.5785078,46.8297301,"6542 As Samh Ibn Malik, Riyadh",Restaurants,3.8
Pizza City,24.5781638,46.8295827,"As Samh Ibn Malik, 6534 حي مجمع, Riyadh",Restaurants,4
مطعم البراري البخاري,24.57703080000001,46.8286775,"HRGH+PCW, Riyadh",Restaurants,3.9
Kudu - Al Difa,24.576802,46.82850399999999,"Near Othaim Markets, Al Samh Ibn Malek St, Riyadh",Restaurants,3.8
اقل سعرات حرارية,24.5760908,46.8279492,"3967 As Samh Ibn Malik, 6328, Riyadh",Restaurants,3
Alroon Restaurant,24.5748929,46.8280942,"2186 As Samh Ibn Malik, Riyadh",Restaurants,3.6
بوفية عفاف,24.57456720000001,46.82785,"7591 السمع بن ماك، مجمع الإسكان رقم 1، الكبري الأول, Riyadh",Restaurants,3.8
Voile Taif,24.5743447,46.82774409999999,"رقم 1, 7591 السمح بن مالك، مجمع الإسكان, Riyadh",Restaurants,3.9
المحيط الذهبي للمثلوثة,24.5738855,46.8273442,"مجمع بن دايل, 2186 Al Kharj Road, As Samh Ibn Malik, Riyadh",Restaurants,3.7
اشهى فلافل الشام,24.5700167,46.8367308,"7080 Ibn Amar, 3077, Riyadh",Restaurants,3.2
قرمش,24.5699929,46.83688869999999,"7110 Ibn Amar, Riyadh",Restaurants,4.1
Diyar E Taiba Bukhari Restaurant مطعم ديار طیبہ البخاري,24.5706168,46.83054889999999,"HRCJ+2CC, Riyadh",Restaurants,4
مطعم نعمه فول فلافل مصري,24.5706021,46.83055,"Al Kharj Road, القديم",Restaurants,4
Dingi Restaurant مطعم الزودق الزهبي,24.5702708,46.8311508,"8941 طريق الخرج, RMTA3783، 3783, الرياض",Restaurants,4.7
شاورما لفونا,24.5697126,46.8371305,"7080 3077 Ibn Amar, Riyadh",Restaurants,4.5
Bukhari Restaurant,24.6002948,46.8391589,"RNCB6979، 6979 جاكرتا، 4222، حي المناخ،, الرياض",Restaurants,4
فوال ثمرات النخيل,24.57003319999999,46.8312926,3743 طريق الخرج، طيبة، الرياض 14521 8929،,Restaurants,4.1
Hotel Bukhar - Pakistani Hotel,24.6190526,46.8157247,"Eastern Ring Road Extension, Riyadh",Restaurants,4
كرك نجدي,24.6120388,46.82286209999999,"14314, Riyadh",Restaurants,4.6
بوفية كرك الطريق طريق الخرج,24.6118074,46.82260849999999,"5149، المناخ، الرياض 14314 7311،, Riyadh",Restaurants,4.2
مطعم ربوع زمازم البخاري,24.6110873,46.8235732,Riyadh,Restaurants,3.6
دوار السعادة,24.6111476,46.8239458,Riyadh,Restaurants,4.6
New Alankar Restaurant 2,24.61298589999999,46.82747519999999,"الشفا, Riyadh",Restaurants,4
مطعم البخاری باکستانی,24.6133189,46.827703,"JR7H+64J, Riyadh",Restaurants,
Ali Restaurant,24.6293546,46.8143028,"7924 Ar Rad RNNA7924 3093, الرياض",Restaurants,4.7
Pakistani restaurant,24.6130757,46.8277659,"JR7H+64J, Riyadh",Restaurants,4
بوفيه,24.6257491,46.8067072,"JRG4+7J9, Riyadh",Restaurants,2.7
Sulthan palace restaurant,24.6136399,46.82933490000001,"RNMA2535، 2535 طريق الصفا، 7550, الرياض",Restaurants,4
مطعم باكستان,24.6139602,46.82970410000001,"7582 Shebh Al Jazirah, RNMA2595، 2595, Riyadh",Restaurants,4.5
Eating palace ( Rajasthani restaurant),24.6139824,46.82975199999999,Riyadh,Restaurants,4.3
Taj Leghari,24.6114031,46.8289008,"2479 Al Mishal, Riyadh",Restaurants,3.3
فوال قامات النخيل السلي,24.6144329,46.830699,"Alsafa Street, Riyadh",Restaurants,5
SANA RESTAURANT,24.6243813,46.83021329999999,"RNNA7378، 7378 هارون الرشيد، 4734, الرياض",Restaurants,4
بوفيه كبدة الطائف 5,24.6239983,46.83150409999999,"حي, Haroon Al Rashid Road, Riyadh",Restaurants,3.7
Al Dheek Broasted,24.6254546,46.8033254,"4005 خليج عدن, Riyadh",Restaurants,4
Zad Cafeteria,24.6241199,46.8316056,"JRFJ+JJX, Riyadh",Restaurants,3.9
Subway,24.7411485,46.7511524,"7715 Al-Ghafiqi street, Abdurrahman الرياض SA, District",Restaurants,4.2
Domino's Pizza,24.747396,46.745811,"6821 Eastern Ring Branch Road, Riyadh",Restaurants,4.1
Burger King - Rawdah,24.735777,46.76231,"Opposite Al Rajhi Bank, Al Hasan Bin Ali St, Riyadh",Restaurants,3.8
ALAFRAH RESTAURANT,24.74485,46.75674,"Abdulrahman Al Ghafeqi Street, Riyadh",Restaurants,4.5
KFC,24.7332176,46.76443689999999,"Al Hassan Ibn Ali Street, Riyadh",Restaurants,3.6
Broast Line,24.7329617,46.7647911,"Al Hasan Ibn Ali, Riyadh",Restaurants,3.9
Domino's Pizza دومينوز بيتزا,24.730859,46.765944,"3039 Al Hasan Ibn Ali, Riyadh",Restaurants,4.1
Al Babtain Food,24.7072369,46.7492832,"Makkah Al Mukarramah Road, Riyadh",Restaurants,4.4
Samakatee,24.728414,46.76681960000001,"Hafsa Bent Abi Bakr Street, Riyadh",Restaurants,3.9
مشويات صحاري دمشق,24.7295532,46.7672911,"Al Hasan Ibn Ali, Riyadh",Restaurants,4.1
Bahrya Restaurant,24.7294192,46.76741879999999,"الحسن بن علي،, Riyadh",Restaurants,3.8
برغرايززر | Burgerizzr,24.756151,46.74137,"7757 Eastern Ring Branch Road, Riyadh",Restaurants,4.2
Zamzam table Bukhari Restaurant,24.7331587,46.7475674,"3505 Khzam, Riyadh",Restaurants,3.1
Lets patty,24.73891679999999,46.7500181,"2131 الطريق الدائري الشرقي الفرعي, RFRA7303, 7303, الرياض",Restaurants,4.1
بوفية مرقش لتقديم الوجبات,24.7318488,46.75396850000001,"Abi Al Darda, Riyadh",Restaurants,4.2
Lets Pizza AlRawdah - ليتس بيتزا الروضة,24.7315041,46.754417,"Eastern Ring Branch Road, Riyadh",Restaurants,3.7
stir,24.7315561,46.7545654,"Jarir Complex, 6465 Eastern Ring Branch Road, Riyadh",Restaurants,4.3
Herfy branch #29,24.7402445,46.74980069999999,"7421 Eastern Ring Branch Road, Riyadh",Restaurants,3.7
مطاعم واحة دمشق للمشويات,24.7407081,46.7504639,"حب, Abdulrahman Al Ghafeqi Street, Riyadh",Restaurants,3.8
!ليتل سيزرز بيتزا! بيتزا Little Caesars Pizza! Pizza!,24.741115,46.750051,"Abdulrahman Al Ghafaqi, Riyadh",Restaurants,3.8
McDonald's,24.752256,46.720447,Riyadh,Restaurants,3.9
Chapizza,24.7342392,46.71557840000001,"4165 Al Bekaa, 7812, Riyadh",Restaurants,5
Sushi Yoshi,24.7048211,46.7061255,"Dababt street, PP34+WFC, Al Hayat Newspaper Building, Riyadh",Restaurants,4
sahaeb Taiba,24.7122587,46.69700470000001,"Prince Mamduh Bin Abdulaziz Street, Riyadh",Restaurants,4.3
Burg Alkabab,24.7152301,46.6964982,"حي, 8096 King Abdulaziz Road, Riyadh",Restaurants,4.2
McDonald’s,24.711986,46.69732399999999,الرياض,Restaurants,3.8
Kudu - Al Sulaimaniyah,24.710527,46.693633,"Near Philippine Airlines, Prince Mamdouh Bin Abdul Aziz St, Riyadh",Restaurants,4.1
L'Olimpo,24.7047865,46.7067388,"8373 Prince Abdulaziz Ibn Musaid Ibn Jalawi Street, Riyadh",Restaurants,4.2
بطاطس وذره عبدالله,24.7381276,46.72405789999999,"8000 Abha, Riyadh",Restaurants,5
Kudu - Sulimaniyah,24.707639,46.71311099999999,"King Abdulaziz Road, Riyadh",Restaurants,4
فوال البطين الشمالي Fawal bateen alshimal,24.7076977,46.71294579999999,"8701 King Abdulaziz Road, 3389, Riyadh",Restaurants,1
بوفية مؤسسة بندر محمد العتيبي للتجارة,24.7098526,46.7476529,"Almarwah, PP5X+W3R, Riyadh",Restaurants,3.3
بوفية تسالي,24.707725,46.71286740000001,"طريق الملك عبدالعزيز الفرعي, PP57+34Q, Riyadh",Restaurants,3.7
The MQ Lounge,24.7424722,46.7253889,"PPRG+V5V, Riyadh",Restaurants,4.1
Qdrah & Fteer قدرة وفطير,24.7079812,46.71174449999999,"King Abdulaziz Road, Riyadh",Restaurants,4.6
كاريبو كوفي - Caribou Coffee,24.708594,46.71020499999999,"King Abdulaziz Road, Riyadh",Restaurants,4.5
بيت جدتي | Bayt Jadaty,24.703661,46.74294,"4676 Makkah Al Mukarramah Branch Road, Riyadh",Restaurants,4.4
Steak House,24.6958671,46.7297917,"The view mall, Riyadh",Restaurants,4.4
Tim Hortons,24.73314629999999,46.7085137,"3083 Al-Imam Al-Shafi'i, RQMA6189, 6189, الرياض",Restaurants,4.4
Shurfa Restaurant,24.703396,46.7430634,"4676 Makkah Al Mukarramah Branch Road, Riyadh",Restaurants,4.1
Towaiq,24.699794,46.725478,"2908 حي, RHAA6631، 6631 طريق صلاح الدين الايوبي, الرياض",Restaurants,
Framboise and Olive,24.7341847,46.7085474,"Abu bakr asiddiq branch road, Riyadh",Restaurants,4.4
Duha,24.7033155,46.71470069999999,"Prince Sultan Bin Abdulaziz Road, Riyadh",Restaurants,4.2
دار مدة للمأكولات الكويتية,24.7342976,46.7084986,"طريق ابوبكر بن الصديق, Riyadh",Restaurants,4.6
Wooden Bakery,24.6941192,46.7226815,"Salah Ad Din Al Ayyubi Road, Riyadh",Restaurants,4.2
Mama Noura,24.6916263,46.70188479999999,"prince faisal, Riyadh",Restaurants,4.3
Kudu - Al Seteen Palace,24.6905735,46.7231741,"Al Othaim Mall, As Siteen St, Riyadh",Restaurants,3.9
Sheikh Al-Mandi Restaurant,24.693749,46.70186499999999,"Prince Abdulaziz Ibn Musaid Ibn Jalawi Street, Riyadh",Restaurants,3.6
Al Saudi Restaurant,24.6957429,46.70311350000001,"Al Amariyah, Riyadh",Restaurants,3.9
Subway,24.686864,46.716924,"GOSI Head Office, 8410 King Abdulaziz Ibn Abdulrahman Saud St., Al Wizarat, الرياض",Restaurants,4
Tim Hortons,24.6898984,46.71363179999999,"3478 Makkah Al Mukarramah Branch Road, Riyadh",Restaurants,4.1
Lapaz Batchoy - Sulaymaniyah Br,24.6906098,46.7103724,"Near Prince Sultan, MPR6+64, شارع ابي بكر الرازي, Riyadh",Restaurants,4.2
Quiznos Sub,24.6830342,46.69759120000001,"Makkah Al Mukarramah Branch Road, Riyadh",Restaurants,3.8
Subway,24.678728,46.72703000000001,"2051 Salahuddin Al Ayyubi St., Al Malaz, الرياض",Restaurants,3.6
Jollibee,24.6913641,46.7085612,"Abu Bakr Alrazi Street, Riyadh",Restaurants,4.2
Tasters House Pinoy Restaurant,24.69158790000001,46.7079891,"Abu Bakr Alrazi Street, Riyadh",Restaurants,4.2
Burger King - Petromin60,24.68721500000001,46.724201,"Petromin Station, Salah Ad Din Al Ayyubi Road, Riyadh",Restaurants,4.4
Al Mas Family Restaurant,24.6781631,46.72755550000001,"Near National Care Hospital, Al Hawwari, Riyadh",Restaurants,4.1
شركة bilal المطاعم الأهلية,24.6754718,46.7280866,"7614 Al Hawwari, Riyadh",Restaurants,3.4
ART Restaurant,24.6184834,46.7142887,"RCCA7542 2855 ماوان, 7542, الرياض",Restaurants,3.7
سكن احمد طويله,24.618651,46.7187005,"3297 Jabal Tiwalah, 7554, Riyadh",Restaurants,
يخت الصياد للأسماك,24.6187107,46.71882069999999,"7572 Al Cheikh Abd Al Latif Ibn Ibrahim, Riyadh",Restaurants,3.9
مطعم روائع العمده فول وفلافل اكلات مصريه,24.6188624,46.7189731,"7580-7576 Al Cheikh Abd Al Latif Ibn Ibrahim, Riyadh",Restaurants,4.1
مطعم كرم الاصول البخاري,24.6189584,46.71889609999999,"Al Cheikh Abd Al Latif Ibn Ibrahim, JP99+HHJ, Riyadh",Restaurants,3.8
مطعم حبايب مصر,24.6186703,46.7191401,"Al Cheikh Abd Al Latif Ibn Ibrahim, شارع الشيخ عبد اللطيف",Restaurants,3.6
Kudu - Al Nahda Park,24.6962326,46.7513069,"Al Nahda Road, MQW2+GG3, Riyadh",Restaurants,4
KFC,24.6902866,46.76384909999999,"Prince Mouteeb Ibn Abd Al Aziz, Riyadh",Restaurants,3.6
Pizzaratti,24.6894149,46.7589035,"Umar Ibn Abdul Aziz Branch Road, Riyadh",Restaurants,4.3
Diet Center - دايت سنتر,24.686492,46.74659,"Rabwa Plaza Shop, Riyadh",Restaurants,4.2
ركن السنافي,24.6898242,46.76438760000001,"7852 Prince Mouteeb Ibn Abd Al Aziz, Riyadh",Restaurants,4.1
Domino's Pizza,24.68932019999999,46.7652771,"Prince Mouteeb Ibn Abd Al Aziz, MQQ8+P4C, Riyadh",Restaurants,4
Al Hokair Time,24.6925673,46.7647916,"بن عبد العزيز الفرعي, MQV7+2WF, Riyadh",Restaurants,3.9
Domino's Pizza دومينوز بيتزا,24.68483,46.744302,"7777-7799 Prince Mataab Ibn Abdul Aziz St, Riyadh",Restaurants,4.1
Almultaka Salon,24.6855612,46.7385654,"Al Salwa, Riyadh",Restaurants,4.2
McDonald's,24.686859,46.733883,Riyadh,Restaurants,3.9
Pizza Imm,24.689585,46.7333243,"Al Ihsaa, Riyadh",Restaurants,3.8
مطاعم درة الياقوت البخاري,24.6331082,46.7333149,"3631 Al Imam Abdul Rahman Ibn Faisal, JPMM+887, Riyadh",Restaurants,4.1
Indian sweets,24.6333724,46.73393470000001,"8499 الامام عبدالرحمن بن فيصل, RCSA3574، 3574, الرياض",Restaurants,5
بوفية محمد مساعد العرياني,24.6335257,46.7332609,"حي, Al Imam Abdul Rahman Ibn Faisal, Riyadh",Restaurants,4
مطعم نجمه الشلال السريعه,24.6334721,46.73308809999999,"شارع الامام عبد الرحمن بن فيصل, Riyadh",Restaurants,4
damascusvillage _ salehya,24.6335181,46.73309390000001,"3590 Al Imam Abdul Rahman Ibn Faisal, Riyadh",Restaurants,4
فوال الصالحية,24.6333901,46.7323969,"3513 Al Imam Abdul Rahman Ibn Faisal, Riyadh",Restaurants,4.7
فوال سعيد عبدالله آل مفضل الشهراني,24.6333809,46.7323825,"حي, Al Imam Abdul Rahman Ibn Faisal, Riyadh",Restaurants,3.7
مطعم شعبيات,24.6333633,46.7322313,"شارع الإمام عبدالرحمن بن فيصل، حي الصالحية, JPMJ+8VX, Riyadh",Restaurants,4
"As Salhiyah, Riyadh",24.6308294,46.7356053,"8216 السنبل, RCSB3847، 3847, الرياض",Restaurants,5
مطعم اسطورة المائده للمطاعم,24.63075109999999,46.7356129,Riyadh,Restaurants,4.3
Wadi Hind Restaurant مطعم وادي هند,24.6308125,46.7356875,"3690 Al Hilla, Riyadh",Restaurants,4.5
Hamza Restaurants,24.630799,46.73567989999999,"3690 الحله،, Riyadh",Restaurants,4.2
Fastfood restaurant,24.5926896,46.7284071,"HPVH+39Q, Riyadh",Restaurants,3.8
PTI Hotel. (للوجبات السريعة),24.5923733,46.7279651,"2877 Al Ghunaim, Manfuhah, Riyadh 12685 6481 Al Ghunaim, Riyadh",Restaurants,3.9
مطعم كروان نجد البخاري,24.5923354,46.7277517,2867 ال غنيم، منفوحة، الرياض 12685 6476,Restaurants,4.2
Special Restaurant for Egyptian Foods,24.5953592,46.72914369999999,"6800 Al Nishwan, Riyadh",Restaurants,4.1
Seerah Star Restaurant,24.6301867,46.6876258,"3278 Al Imam Turki Ibn Abd Allah Ibn Muhammad, Riyadh",Restaurants,3.8
مطعم فطور إحترافي,24.6300296,46.6899287,"Al Imam Turki Ibn Abd Allah Ibn Muhammad, JMJQ+2X7, Riyadh",Restaurants,4.1
Al Hatab TO GO الحطب,24.62851200000001,46.690203,"JMHR+C34, Riyadh",Restaurants,3.9
مطعم سعد الدين (مدينة الملك سعود الطبية),24.6296741,46.69080770000001,"JMHR+V88, Riyadh",Restaurants,4.7
كافتيريا درب الرياض للتموين الغذائي,24.6276118,46.6901166,"Al Imam Abd Al Aziz Ibn Muhammad Ibn Saoud, Riyadh",Restaurants,5
عمادة شؤون الطلاب,24.6323955,46.68099369999999,"8129 Suleiman Ibn Ali Al Moushref, 2636, Riyadh",Restaurants,
Calicut Live Restaurant,24.6252576,46.68713659999999,"Abd Al Mouhsen Al Faram, Riyadh",Restaurants,3.8
Cusina Restaurant - Shimesi,24.6299404,46.6913014,"3632 Al Imam Turki Ibn Abd Allah Ibn Muhammad, Riyadh",Restaurants,3.4
ت,24.6305008,46.6801267,"7962 Al Imam Turki Ibn Abd Allah Ibn Muhammad, 2508, Riyadh",Restaurants,3
Taj Almathlutha Restaurant,24.6249596,46.6871411,"سماحة الشيخ عبدالعزيز بن باز ، حي البديعة, JMFP+XVJ, Riyadh",Restaurants,3.5
مطعم شعبيات ابوزيد - فرع الشميسي,24.6254332,46.68903640000001,"7391 Samahat Ash Shaikh Abdulaziz Ibn Baz Street, Riyadh",Restaurants,3.8
Al Romansiah,24.7585131,46.8140823,"سلمان الفارسي، النهضة 6901, Riyadh",Restaurants,4.3
Kudu - Salman Al Farsi St,24.760348,46.812763,"Opposite Al Rahma Medical Clinic, Salman Al Farsi St, الرياض",Restaurants,3.7
Maestro Pizza,24.7543854,46.823958,"طريق خريص الفرعي، النهضة, الرياض",Restaurants,4
Domino's Pizza دومينوز بيتزا,24.754334,46.82413400000001,"6505 Khurais - 522, Riyadh",Restaurants,3.8
Canton | كانتون,24.754195,46.8240152,"Ibrahim Al Bakri, Riyadh",Restaurants,4.1
Casa Pasta,24.7541144,46.8238494,"Ibrahim Al Bakri, النهضة بلازا 6505 13222 3618, Riyadh",Restaurants,4.1
مطاعم ركن هاشم النهضة - Hashem Rest Nahdah,24.7541275,46.8163948,"7593 تربه, Riyadh",Restaurants,3.9
"Subway Andalusia, Salman Farsi Road",24.7621008,46.8104486,"سلمان الفارسي, Andalusia Plaza An Nahdha, الرياض",Restaurants,3.9
KFC,24.7508206,46.8230012,"Othim Mall Khures, Khores Road, Exite 30, الرياض",Restaurants,4
McDonald's,24.75008099999999,46.822255,"Khurais Road, Riyadh",Restaurants,3.7
Herfy,24.7651217,46.8092281,"7609 Salman Al Farsi, Riyadh",Restaurants,3.5
Manoosha,24.768381,46.809376,"2187-2213 Prince Bandar Ibn Abd Al Aziz, Riyadh",Restaurants,3.7
KFC,24.7670341,46.8061705,"Prince Bandar Ibn Abd Al Aziz, Riyadh",Restaurants,3.7
Domino's Pizza دومينوز بيتزا,24.767442,46.806814,"7913 Salman Al Farsi, Riyadh",Restaurants,4
Hardee's,24.7663125,46.8050625,"QR84+G2, Riyadh",Restaurants,3.9
Maestro Pizza,24.7647611,46.8024448,"4626 Prince Bandar Ibn Abd Al Aziz, Riyadh",Restaurants,4
Subway,24.778137,46.82384200000001,"St, 7216 الامير بندر بن عبدالعزيز, District, Block #4878, الرياض",Restaurants,3.8
Alkabsah Alhasawiah,24.7634454,46.8003961,"Prince Bandar Bin Abdulaziz, An Nahdah, Riyadh",Restaurants,3.9
Jan Burger - جان برجر‎,24.762564,46.800116,"Prince Bandar Ibn Abd Al Aziz, Riyadh",Restaurants,3.7
Herfy,24.762387,46.7998455,"2959 Prince Bandar Ibn Abd Al Aziz, 8476, Riyadh",Restaurants,3.5
Herfy,24.7809607,46.7975115,"Salman Al Farsi, QQJX+92J, Riyadh",Restaurants,3.8
Domino's Pizza دومينوز بيتزا,24.78614,46.799678,"King Abdullah Road, Riyadh",Restaurants,3.8
مطعم الأسطول,24.7799087,46.81039149999999,"Bahr Al Arab Street, Riyadh",Restaurants,3.6
McDonald's,24.761951,46.798997,Riyadh,Restaurants,3.7
Subway AL-khaleej ( SILVER),24.790465,46.808841,"3313 King Abdullah Ibn Abdulaziz Saud St., Al Khaleej, الرياض",Restaurants,4
Burger King - Exit 28,24.5683966,46.6214388,"Opposite Hyundai, Western Ring Rd, Between Exit 27 & 28, الرياض",Restaurants,4
!ليتل سيزرز بيتزا! بيتزا Little Caesars Pizza! Pizza!,24.5805229,46.6309718,"Hamza Bin Abdulmutalab, Riyadh",Restaurants,3.9
KFC,24.5724179,46.61225279999999,"Makkah Road, Riyadh",Restaurants,3.5
Herfy,24.5692395,46.61903469999999,"Western Ring Road, HJ99+MJV, Riyadh",Restaurants,3.6
Hamburgini هامبرغيني - As Suwaidi Al Gharabi,24.5671739,46.623349,3596 الطريق الدائري الغربي الفرعي السويدي الغربي الرياض 12993,Restaurants,3.8
Maestro Pizza,24.567418,46.6230025,"Western Ring Road, Riyadh",Restaurants,3.9
توم توم | TOM TOM,24.5675952,46.62239729999999,"Western Ring Road, Riyadh",Restaurants,3.8
Taj al kabbah,24.5755362,46.6279084,"4331 Ash Shaikh Salih Ibn Abdul Aziz Ibn Abdul Rahman, Riyadh",Restaurants,3.9
McDonald's,24.569785,46.618454,"Western Ring Road, Riyadh",Restaurants,3.7
Indian Valley Restaurant,24.5703014,46.613558,"مركز الحرم, Western Ring Branch Road, Riyadh",Restaurants,3.8
Cheese Restaurant,24.5787697,46.6136806,السويدي شارع الشيخ محمد بن عبداللطيفAs,Restaurants,4
Jan Burger - جان برجر‎,24.582688,46.61426700000001,"Al Madina Al Munawwarah Road, Riyadh",Restaurants,3.8
Maestro Pizza,24.5825227,46.61384040000001,طريق المدينة المنورة، العريجاء الغربية، الرياض 6655,Restaurants,4.2
مطعم وفوال البخاري,24.5107353,46.6204324,"8183 محمد بن مسلم الطائفي RKDA8183 2859, الرياض",Restaurants,5
مطعم دانة القديه البخاري,24.5143809,46.6294255,"3797 صالح بن عبدالله السناري, 8568, Riyadh",Restaurants,5
بروستد ذوق,24.5143275,46.6294909,"Dirab Branch Road, GJ7H+PQQ, Riyadh",Restaurants,
مطاعم الدار العتيق,24.5062693,46.6257407,"Al Janadreia, Riyadh",Restaurants,5
السعودية,24.5049415,46.6254248,"7543 Al Janena, 3381, Riyadh",Restaurants,
مطعم بيت الطهي الجميع للوجبات السريعة - Bat Al Tahi Restaurant,24.5006476,46.62014970000001,"Al Wadi Al Akhdar, RKDC7059, Riyadh",Restaurants,3.5
Maha Al mslkiminimarket,24.50050160000001,46.6201246,"RKDC7059، 7059 الوادي الأخضر، 2851, الرياض",Restaurants,4
رزان للاسماك الطازجة,24.5054709,46.6283335,"Wadi Al Ashab, Riyadh",Restaurants,4.1
مطعم ليالي الشرق,24.5051026,46.62905749999999,"Al Fawwaz, Riyadh",Restaurants,3.8
بطاطس,24.5053978,46.6295051,"7611 Wadi Al Ashab, RKDA3786، 3786, Riyadh",Restaurants,5
أفراح للوجبات السريعة,24.5345058,46.6307511,"RKHB3760، 3760 النعمان بن بشير، 6976, الرياض",Restaurants,5
Bangladeshi Restaurant আমজাদ হোটেল,24.5300973,46.6339485,"2935, 2935, 8194, الرياض",Restaurants,3.6
مطاعم دره الرياض البخاري,24.5303168,46.6340443,"GJJM+4JF, Riyadh",Restaurants,3.5
البيتزا اللذيذه,24.5304286,46.63410270000001,"Al Quaaiyd, GJJM+5JH, Riyadh",Restaurants,3.8
فوال اماني النخيل,24.505295,46.63025220000001,"RKDB3875، 3875 يحيى بن بكير، 7597, Riyadh",Restaurants,5
TASALI🍔 تسالي دبل,24.5046116,46.6297727,"7525 Al Hadira, Riyadh",Restaurants,3.7
بوفية زاوية زاد,24.5306106,46.6342232,Riyadh,Restaurants,3.6
فرن البيتزا,24.5049899,46.63028689999999,Riyadh,Restaurants,4.4
فوال النخيل,24.5048703,46.6301728,"3898-3828 Wadi Al Ashab, Riyadh",Restaurants,4.7
درة احد للوجبات السريعة,24.4981494,46.618564,"2684 Al Wadi Al Akhdar, RKDA6773، 6773, Riyadh",Restaurants,2.6
Herfy,24.4964041,46.62825859999999,"Dirab Branch Road, FJWH+H86, Riyadh",Restaurants,3.4
فلافل تايم احد - Falafel Time,24.4868034,46.6365005,"حي, شارع البشائر, Riyadh",Restaurants,4.7
مطاعم مكبوسة | Makbusah,24.4868444,46.63641579999999,"6652 البشائر, Riyadh",Restaurants,4.6
مطعم اندلس الجنوب البخاري,24.4877338,46.6376874,"FJQQ+33V, Riyadh",Restaurants,4.5
مطاعم أضواء الجوهرة,24.4874002,46.6340102,"البريمي _حي, Riyadh",Restaurants,4
بوفية جمال النكهة,24.4877843,46.63772569999999,"Al, basher street, Riyadh",Restaurants,3.6
Boofiya jamal,24.4877969,46.6377139,"Al Basheer street, Riyadh",Restaurants,
برجر طعم المشوي,24.4878775,46.63719560000001,"6776 البشائر، 3127، حي احد،, Riyadh",Restaurants,4.1
مخبز تميس وفوال,24.4878347,46.6378513,"حي, 3201 البشائر, 6767, Riyadh",Restaurants,3.7
مطعم وشعبيات عرش المدينه,24.488066,46.6378867,"حي, Riyadh",Restaurants,4.6
شعبيات زرقاء,24.488178,46.63745139999999,"حي أحد, Riyadh",Restaurants,4.3
بوفية شعبيات وفلافل فطيره مطبق حمص وجبات سريعه,24.4885667,46.63824339999999,"RLHA6851، 6851 البشائر،, Riyadh",Restaurants,4.8
Uhud,24.4886687,46.6376971,"RLHA6872، 6872 البشائر, Uraidh, الرياض",Restaurants,4.4
وجبات سريعة,24.4886766,46.6377159,"RLHA6872، 6872 البشائر، 3181, Riyadh",Restaurants,4.7
شورما بيتزا جاهز للفرن,24.4886464,46.6382993,"RLHA6851، 6851 البشائر, Riyadh",Restaurants,4.7
كم تنما,24.4887346,46.6385493,"RLHA6875، 6875 البشائر، 3260, Riyadh",Restaurants,
فوال عمدة الستين للعدس عداااس,24.4895147,46.63883439999999,"FJQQ+RG4, Riyadh",Restaurants,4.1
فول وفلافل مصرية,24.4901254,46.6393115,"RLHB7031، 7031 البشائر, Riyadh",Restaurants,4.2
بروستد وبيتزا دانة القدية,24.4907257,46.63950699999999,"البشائر, Riyadh",Restaurants,4.6
اساس المشوي برجر,24.4911876,46.6398598,Riyadh,Restaurants,4
McDonald's,24.570255,46.69138399999999,Riyadh,Restaurants,3.8
Mama Noura,24.5717473,46.6653609,"Aishah Bint Abi Bakr, Riyadh",Restaurants,4.2
Jan Burger - جان برجر‎,24.566781,46.687352,"Dirab Branch Road, Riyadh",Restaurants,3.8
AmoHamza,24.567674,46.68831600000001,"Dirab Road, Riyadh",Restaurants,3.3
Kudu - Dirab,24.562383,46.682364,"Near City Mall, Dirab Branch Road, Riyadh",Restaurants,3.8
Al Romansiah,24.570791,46.667267,"Southern Ring Branch Road, Riyadh",Restaurants,4.4
Alliwan Resturant,24.5720794,46.66455390000001,"شارع عائشة بنت أبي بكر ، شبرا, Riyadh",Restaurants,3.9
Herfy,24.5721651,46.6642631,"شارع عائشة بنت أبي بكر، حي شبرا, HMC7+VP6, Riyadh",Restaurants,3.7
Jan Burger - جان برجر‎,24.569031,46.66058899999999,"Aishah Bint Abi Bakr, Riyadh",Restaurants,3.9
Maestro Pizza,24.5784821,46.6596685,شارع عائشة بنت أبي بكر،، السويدي، الرياض 8051,Restaurants,3.9
Fakher Alshamiyah Restaurant,24.5797481,46.6588199,"8110 Aishah Bint Abi Bakr, Riyadh",Restaurants,4.5
Al Romansiah Restaurant,24.5622023,46.70700439999999,"3143 Al Tourmouzi, 6063, Riyadh",Restaurants,4.3
Alliwan Restaurant,24.5589923,46.7054587,"حي, طريق ابن تيمية ، بدر, Riyadh",Restaurants,4.1
McDonald's,24.558167,46.70514499999999,Riyadh,Restaurants,3.8
Subway,24.5584314,46.70415359999999,"6850 Ibn Taymiyyah St, Branch, Al Shifa, الرياض",Restaurants,3.9
Pizzaratti AlShifa,24.557649,46.703449,"طريق ابن تيمية الفرعي, Riyadh",Restaurants,4.3
Domino's Pizza,24.5574375,46.70313760000001,"6684 Ibn Taymeeyah Road, Riyadh",Restaurants,3.9
دومينوز | Domino's,24.557406,46.70321300000001,"6684 Ibn Taymeeyah Road, Riyadh",Restaurants,3.5
Maestro Pizza,24.5557368,46.70184099999999,طريق ابن تيمية، الشفا، الرياض 6488,Restaurants,3.9
Best pasta,24.5551257,46.7012423,"6400 Ibn Taymeeyah Road, Riyadh",Restaurants,4
KFC,24.5496791,46.7211729,"4076 Ibn Manadhir, Riyadh",Restaurants,3.5
falafel Time restaurants,24.5500519,46.6980667,"ابن تيمية، بدر،, HM2X+26G, Riyadh",Restaurants,4
Ghani rst,24.5739439,46.7115929,"786, Riyadh",Restaurants,
Star Buffet and Goodies,24.57131679999999,46.708732,"3293 Ziad Ibn Ali Al Jouraisi, Riyadh",Restaurants,4
بوفية فهد القفاري,24.5755021,46.7054857,"2893-2961 Bashar Bin Safwan, Riyadh",Restaurants,4
Dining Hall,24.7209893,46.6196551,"Building 30, Riyadh",Restaurants,3.3
برجر كاسل,24.714561,46.6345087,"King Abdullah Road, Riyadh",Restaurants,4.2
Subway,24.7286149,46.6360691,Turki Ibn Abdulaziz I Road KSU District 12371-5077,Restaurants,3.9
Hardee's,24.7379375,46.6408125,"PJQR+58Q, Riyadh",Restaurants,3.8
Shawarmer | شاورمر,24.7133267,46.6338494,"King Abdullah Road, Riyadh",Restaurants,4
Jeff de Bruges,24.7433108,46.6448392,"Al Takhassousi, Riyadh",Restaurants,4.2
Subway,24.743463,46.639171,"6504 Saud Ibn Abdulaziz Ibn Muhammad, Al Nakheel, الرياض",Restaurants,3.4
Subway KSU,24.7144729,46.6343474,"King Saud University, King Abdullah Road Ar Raed, الرياض",Restaurants,3.9
At Takhassusi Restaurant,24.7432347,46.6515608,"Al Imam Saud Ibn Abdul Aziz Branch Road, PMV2+7JV, Riyadh",Restaurants,3.6
KFC,24.7107523,46.63022789999999,"King Abdullah Road, Al Raeed District, الرياض",Restaurants,3.9
Jan Burger - جان برجر‎,24.696727,46.703506,"Prince Abdulaziz Ibn Musaid Ibn Jalawi St, Dabab, الرياض",Restaurants,3.9
Wellness Kitchen,24.6958747,46.70314859999999,"شارع الضباب, 2419, 7357 Prince Abdulaziz Ibn Musaid Ibn Jalawi, الرياض",Restaurants,3.6
Domino's Pizza دومينوز بيتزا,24.697084,46.70188,"طريق الملك عبدالعزيز, Prince Sultan Bin Abdel, الرياض",Restaurants,4
Subway,24.700148,46.710148,"Al Sulaimaniyah Branch, 3126 Abi Bakr Razi St, Al Sulaimaniyah, الرياض",Restaurants,3.9
Wagyu - Classic Burger,24.7030032,46.7059872,"2697 Prince Abdulaziz Ibn Musaid Ibn Jalawi Street, 8161, Riyadh",Restaurants,4.1
Saadeddin pastry‏,24.6953482,46.7000566,"Prince Sultan Bin Abdulaziz Road, Riyadh",Restaurants,4.3
Bangkok Seafood Restaurant,24.692662,46.7033492,"2444 Abu Bakr Alrazi Street, Riyadh",Restaurants,4.2
!ليتل سيزرز بيتزا! بيتزا Little Caesars Pizza! Pizza!,24.69226,46.70529,"Abu Bakr Alrazi Street, As Sulimaniyah, الرياض",Restaurants,4
Eataly,24.7040809,46.7028214,"Al Malik An Nasir, Riyadh",Restaurants,4.5
Chili's,24.70342699999999,46.70148099999999,"3781 Prince Muhammad Ibn Abd Al Aziz, Riyadh",Restaurants,4
كاريبو كوفي - Caribou Coffee,24.702843,46.699818,"MQHM+J8, Riyadh",Restaurants,4.2
KFC,24.6920128,46.7010817,"Dabab St, Riyadh",Restaurants,3.8
Shawarmer | شاورمر,24.5351064,46.6933874,"Al Shifa Plaza, Riyadh",Restaurants,4.1
فلافل ميدان الشام,24.5455915,46.689965,"3978 Al Khaleel Bin Ahmad, Riyadh",Restaurants,3.9
KFC,24.5456045,46.6945168,"Sitteen Street Shefa, Riyadh",Restaurants,3.5
شركة مطاعم بيت الشطيرة(برغرايززر),24.5411196,46.6823201,"4371 Abdul Khaliq Ibn Ubaidullah, حي RLMA7800 7800, Riyadh",Restaurants,4.8
فوال جرة الجود,24.541746,46.6777385,"GMRH+M3X, الرياض",Restaurants,4
مطعم لذة البادية البخاري,24.5417965,46.677756,"Damanhour, Riyadh",Restaurants,4.8
مطعم بسمه شباب المطيري,24.534113,46.68547019999999,"Ibn Taymeeyah Road, GMMP+J5X, حي, حكايتي",Restaurants,5
مطاعم يلزم البخاري فرع الشفاء,24.532181,46.6840196,"Qartajah, Riyadh",Restaurants,4
البخاریمطعم مذاق النثری,24.5430423,46.68320380000001,"Al Imam Muslim Road Branch, GMVM+678, Riyadh",Restaurants,5
مطعم السفراء,24.5411192,46.6866616,3651 الامام مسلم، المروة، الرياض 14721 6202،,Restaurants,3.9
مطعم أوراق الشجر,24.5390997,46.6880003,"GMQQ+J6J, Riyadh",Restaurants,
Shmooa House,24.5021406,46.6767917,"8263 عاقل بن حبيب, RLKC2999، 2999, الرياض",Restaurants,
شواية الأوائل البخاري,24.50425,46.66011109999999,"3005 شارع وادي أرثد, RLKA7673، 7673, Riyadh",Restaurants,3
مطعم ركن السرايا طريق النفوذ,24.5044358,46.6827139,"8548 طريق النفود, RLKA3595، 3595, Riyadh",Restaurants,4.1
شوكلاتة نوره,24.5107849,46.6717913,"GM6C+8P7, Riyadh",Restaurants,
شيف الحنيذ,24.5028325,46.68599649999999,"8380 طريق النفود, 3939, Riyadh",Restaurants,4.2
National Burger,24.5037673,46.68557360000001,"حي, طريق النفود, Riyadh",Restaurants,3.5
مطعم بسطة زمان,24.5035045,46.6860179,"طريق النفود, Riyadh",Restaurants,3.8
فوال ذوق الارياف للاكلات الشعبية,24.5035066,46.6860174,"طريق النفود, Riyadh",Restaurants,5
بوفية نوير الجنادرية,24.50263,46.68671620000001,"GM3P+3M4, Riyadh",Restaurants,5
Brosted al numan,24.512175,46.66703669999999,"GM68+VR7, Riyadh",Restaurants,5
مطعم نسرين الحارثي,24.5104079,46.68039779999999,"شارع محمد الاكحل, Riyadh",Restaurants,4.3
عكاظ,24.5119888,46.6812168,"3618 محمد الأكحل, RLKB7198، 7198, Riyadh",Restaurants,5
Silencers island Bukhari Restaurant,24.5134935,46.6813568,"GM7J+9GX, Riyadh",Restaurants,3.7
فوال النخيل,24.51319759999999,46.6819134,"حي, ال طياش, Riyadh",Restaurants,4.1
مطعم ممر ٣,24.5132905,46.6817781,الرياض,Restaurants,3.2
Mataam zooq alriyadh,24.5145676,46.6615313,4551 طريق النفود، حي عكاظ، الرياض 14731 7902،,Restaurants,3.6
مطعم وقت شوايه البخاري,24.5145716,46.6615326,"حي, 7902 طريق النفود, 4551, الرياض",Restaurants,5
Grill Burger,24.5148853,46.6608938,"7927 طريق النفود, RLKA4503، 4503, الرياض",Restaurants,4.3
بوفية مذاق مشتاق,24.5137653,46.68369899999999,"7383 عمر بن أبي بكر, RLKA3875، 3875, Riyadh",Restaurants,4.7
بوفيه مريم,24.5134499,46.68419159999999,"RLKA3913، 3913 عمر بن أبي بكر، 7354, Riyadh",Restaurants,4.3
Domino's Pizza,24.5867334,46.65337470000001,"St, 8832 Aishah Bint Abi Bakr, Riyadh",Restaurants,4
عصائر مز,24.576963,46.6502086,"Badi Az Zaman Al Hamathani, Riyadh",Restaurants,4.1
Hardee's,24.6004174,46.6442813,"Aishah Bint Abi Bakr, Riyadh",Restaurants,3.8
KFC,24.6004069,46.6441676,"Aishah Bint Abi Bakr, Riyadh",Restaurants,3.7
Furn Aldayaa,24.5956589,46.6476937,"7577 Aishah Bint Abi Bakr, 7557, Riyadh",Restaurants,4.1
Feresca,24.5982236,46.6459141,"7902 Aishah Bint Abi Bakr, 2186, Riyadh",Restaurants,4.4
McDonald's,24.598766,46.640038,Riyadh,Restaurants,3.6
Al Tazaj,24.6002206,46.6443952,"طريق عائشة بنت أبي بكر،, Riyadh",Restaurants,3.6
قرصان ومرقوق خليفة ناصر محمد الصبري,24.6039019,46.7036205,"شارع السويدي ،, JP33+HC9, Riyadh",Restaurants,3.8
Al Bashaer Palace Restaurant,24.6040089,46.7037943,"Al Souweidi Al Aam, Riyadh",Restaurants,4
بيتزاء توب بيتزا - ألذ بيتزا 24 ساعة top pizza,24.6034611,46.7029875,"Al Souweidi Al Aam, Riyadh",Restaurants,4.7
امواج الحرير لثقديم الو جبات,24.606714,46.7055884,"Elite center, Riyadh",Restaurants,4.8
Barn's | بارنز,24.6038921,46.7054285,"Main Road, Riyadh",Restaurants,4.3
Farooj,24.6023393,46.70313420000001,"JP23+W7J, Riyadh",Restaurants,5
فوال ملتقى سلطانة,24.6069826,46.6860618,"7117 Aghadir, Riyadh",Restaurants,4
صيانة نظافة للمقاولات,24.6089024,46.686954,"شركة تنظيف بالرياض شركة نقل اثاث بالرياضJM5P+HGV, Ad Dabatiyah, شركة تنظيف منازل بالرياض شركة نقل عفش, Riyadh",Restaurants,
مطعم ضياء قرطبة البخاري,24.5926021,46.7150222,"حي, Riyadh",Restaurants,3.6
بيتزا وفطائر اليمامة,24.592322,46.7150829,"HPR8+W2G, Riyadh",Restaurants,4.1
محل سمك,24.5951123,46.716325,"RCYB3345، 3345 الخطاط، 7105, Riyadh",Restaurants,5
غوار تعز للأكلات الشعبيه,24.5922812,46.7148508,"Al Hafnah, HPR7+WW9, Riyadh",Restaurants,4.7
اكلات بحريه,24.5941306,46.7144918,"HPV7+MQ5, Riyadh",Restaurants,
أكل شاورما,24.5941306,46.7144918,"HPV7+MQ5, Riyadh",Restaurants,5
اليمامه,24.5941306,46.7144918,"HPV7+MQ5, Riyadh",Restaurants,
Pizzaratti | بيتزاراتي,24.603735,46.650394,"Al Madina Al Munawwarah Road, JM32+F5R, Riyadh",Restaurants,4
Al badiah riyadh saudi arabia,24.6167455,46.6758333,"JM8G+M8W, Riyadh",Restaurants,5
فوال عدس تاوه,24.614025,46.6737119,"6941-6963 Prince Sattam Ibn Abd Al Aziz, Riyadh",Restaurants,4.3
فلافل أطيب ثمار,24.6193982,46.67863819999999,"Samahat Ash Shaikh Abdulaziz Ibn Baz Street, Riyadh",Restaurants,4.3
مطاعم بخاري رحاب فرع رقم (٢),24.6204079,46.6794381,"6838 Samahat Ash Shaikh Abdulaziz Ibn Baz Street, 2446, Riyadh",Restaurants,3.9
فوال كنز الأذواق,24.6204891,46.67963109999999,"Al Shaikh Abd Al Aziz Ibn Baz, JMCH+5VR, Riyadh",Restaurants,3
Filafel Arafah,24.6202455,46.68013819999999,"2523 Samahat Ash Shaikh Abdulaziz Ibn Baz Street, 6807, Riyadh",Restaurants,4.3
The Mommy Trading Company,24.5583887,46.7470277,"7790 الخرفة, RLSA2767، 2767, Riyadh",Restaurants,3.7
Barn's | بارنز,24.5598533,46.748313,"HP5X+X68،, Riyadh",Restaurants,3.2
بوفية للوجبات السريعة,24.5600146,46.7485622,"Arafat Road, HP6X+2C3, Riyadh",Restaurants,4.1
Gryb | قريب,24.5536558,46.73099759999999,"شارع المروج الفرعي, Riyadh",Restaurants,4.7
بوفية شفيق,24.5492146,46.73203139999999,"حي, Riyadh",Restaurants,3
بوفية قمة الجماهير للوجبات السريعة,24.5485318,46.7320492,"RLDD8247، 8247 الإعتدال، 3619, Riyadh",Restaurants,4.9
Grilled Burger,24.5484892,46.7320096,"RLDD8247، 8247 الإعتدال، 3619، حي بدر،, Riyadh",Restaurants,3.6
شركة وقت الفول والفلافل السوداني,24.5596566,46.7534156,"Arafat Road, HQ53+V97, Riyadh",Restaurants,
فقيهي للوجبات الخفيفه,24.5596566,46.7534156,"اليمين الخدمه, Arafat Road, Riyadh",Restaurants,
للوجبات السريعة,24.5531239,46.72904140000001,"حي, شارع وادي الجوف, Riyadh",Restaurants,3.9
الأمجاد وان للوجبات السريعه والبيتزا الساخنه,24.553124,46.7290299,"3275 شارع وادي الجوف, 8750, Riyadh",Restaurants,4.3
هياء للوجبات و البليله,24.5577605,46.72882389999999,"طريق عرفات الفرعي, HP5H+4G4, Riyadh",Restaurants,3.6
بوفيه العوافي الوجبات السريعه,24.5503467,46.72973880000001,"حي بدر، شارع، RLDA3390، 3390 وادي الخضارم، 8455, Riyadh",Restaurants,4.3
مطعم نعمة فود [مطعم هنود وبنغال ],24.5633278,46.75190649999999,"8363 Al Mansouriah, 3253, Riyadh",Restaurants,4.7
NIEMA INDIAN RESTAURANT DAR AL BAIDA,24.5632595,46.7519753,"3253 8363 Al Mansouriah, Riyadh",Restaurants,4.3
فوال سوداني,24.5504034,46.729599,"3370 شارع وادي الخضارم, Riyadh",Restaurants,4.4
مطعم منتو ويغمش,24.5501271,46.72927079999999,"3319 Al Bateha Valley, RLDD8430، 8430, Riyadh",Restaurants,3.9
ALBAIK,24.556161,46.727645,"Arafat Road, HP4C+JGF, Riyadh",Restaurants,4.2
العريقة الهندي,24.5625221,46.7536307,"HQ73+2F2, Unnamed Road, الرياض",Restaurants,3.9
Subway,24.841728,46.828671,"Dist, Qadissiyah Remal Branch 6801, Ali Al Bjadi St, الرياض",Restaurants,3.7
Sheikh mandi Restaurant,24.8345625,46.8135625,"RRM7+RC, Riyadh",Restaurants,3.6
Tim Hortons,24.8356289,46.833693,Riyadh,Restaurants,4.8
Kudu - Ar Rimal 2,24.8355793,46.8332449,"6160 طريق الدمام الفرعي, RURB2744، 2744, الرياض",Restaurants,4
‏اليرموك,24.8233694,46.8409442,"المعالي, RRFR+89W, Riyadh",Restaurants,
بوفية فطيرة ونص,24.8359627,46.8334468,"طريق الدمام الفرعي, Riyadh",Restaurants,4.2
McDonald’s,24.8210258,46.83226090000001,"7696 جبل المدار, RFJA2094، 2094, Riyadh",Restaurants,3.4
Roh ullah,24.8212117,46.83144679999999,"RRCJ+FHP, Riyadh",Restaurants,
DEEP FRIED,24.8212117,46.83144679999999,"RRCJ+FHP, Riyadh",Restaurants,5
Baba Hotel,24.8212117,46.83144679999999,"RRCJ+FHP, Riyadh",Restaurants,
FOOD GARDEN,24.8212117,46.83144679999999,"RRCJ+FHP, Riyadh",Restaurants,5
الرواد,24.820824,46.831711,"2071 Sultan Qaboos Bin Said Road, RFJB7683، 7683, Riyadh",Restaurants,5
ALBAIK,24.8204862,46.8322796,Riyadh,Restaurants,3.4
تندر الرمال | TNDR,24.836364,46.8304256,"2440 Ali Al Bjadi, RURA6219، 6219, Riyadh",Restaurants,4.3
مطعم وشعبيات السيف,24.8256703,46.8263359,"شارع وادي الدواسر, Riyadh",Restaurants,4.1
مطعم وشعبيات السيف,24.8256812,46.8262965,"7318 Wadi Ad Dawasir, 3448, Riyadh",Restaurants,5
Tikkaway,24.836497,46.83038699999999,"2440 Ali Al Bjadi, RURA6219، 6219, Riyadh",Restaurants,4.6
تكا واي Tikka Way,24.8365067,46.8303901,"2440 Ali Al Bjadi, RURA6219، 6219, Riyadh",Restaurants,4.7
صامولجي,24.83659100000001,46.8302945,"2440 Ali Al Bjadi, RURA6219، 6219, Riyadh",Restaurants,4.4
Sign,24.8368051,46.8302597,"6269 Ali Al Bjadi, RURA6269 2428, الرياض",Restaurants,4.5
Lucky Cafe,24.6829077,46.6891245,"شارع العليا, Al, الرياض",Restaurants,3.8
Alamar,24.689183,46.6865816,"Alamar Tower, 3507 Prince Sultan Bin Abdulaziz Road, Riyadh",Restaurants,4.3
Mozart Restaurant,24.68406100000001,46.687689,"Holiday Inn Alqasr, Riyadh",Restaurants,3.8
Shake Shack,24.6899662,46.6867455,"Al Faisaliah Mall, Olaya Street, Riyadh",Restaurants,4.5
Subway,24.685618,46.690459,"6633 Abdullah Ibn Huthafa Al Sahmi St, الرياض",Restaurants,3.6
The Globe ذا غلوب,24.6898068,46.6851121,"King Fahd Road, Riyadh",Restaurants,4
Marhaba Restaurant (Olaya),24.68271829999999,46.6886063,"Olaya Behind Khaleej Centre, Riyadh",Restaurants,3.7
Makani Cuisine,24.6874508,46.6813109,"3756 طريق الأمير سلطان بن عبد العزيز،حي العلياء, Riyadh",Restaurants,3.4
Bud's Road,24.6874162,46.681247,"مجمع المطاعم, Prince Sultan Bin Abdulaziz Road, Riyadh",Restaurants,4.1
Continent Al Waha Hotel,24.680947,46.68927799999999,"Wadi AlDawasir Street, Riyadh",Restaurants,4.1
LA RUSTICA,24.6945896,46.6834839,"Wadi Al Artawi Street, Riyadh",Restaurants,4.1
بوفية فطور خفيف,24.5882896,46.6943637,"Ibn Asakir, HMQV+8P9, Riyadh",Restaurants,4
بوفية لذيذ دلة,24.5865322,46.6976927,"Southern Ring Branch Road, Riyadh",Restaurants,4.7
مطعم شعبيات,24.5924417,46.8632705,"حي, Riyadh",Restaurants,5
Fatima Restaurant,24.5827489,46.8728942,"4333 طريق الخرج, RNSA9286، 9286, الرياض",Restaurants,5
مطعم روز الريف,24.5821874,46.8731448,"HVJF+V7C, المدينة الصناعية الجديدة،, Riyadh",Restaurants,4.6
Bogura Restaurant 2,24.5823563,46.8732438,"HVJF+W7X, Riyadh",Restaurants,
Bushra Restaurant,24.5818822,46.8733168,"Eskan Village RNSA9166 9166 - المدينة الصناعية الثانية الرياض 14319 - 4408, الرياض",Restaurants,5
Riyadh central kitchen,24.57971599999999,46.87346429999999,"8928 التهيمية, RNSA8928, 4432, الرياض",Restaurants,1
مطعم ناصر سواتي للوجبات السريعة,24.5929082,46.8710955,"HVVC+4FR, Riyadh",Restaurants,4.5
مطاعم كرم اليمن,24.5955968,46.8687823,"4733 Prince Mohammed Bin Abdulrahman Bin Abdulaziz, Riyadh",Restaurants,4.4
مطعم ليالى الذوق,24.5966784,46.8690532,"2777 الأمير محمد بن عبدالرحمن بن عبدالعزيز, RNMB6817, 6817, الرياض",Restaurants,4.6
Pakistani Bufia,24.5970011,46.8687998,"HVW9+RG3, Riyadh",Restaurants,4
Lazeez Point Restaurant _ مطعم نقطة لزيز,24.5970235,46.86878650000001,"Prince Mohammed Bin Abdulrahman, Riyadh",Restaurants,4.4
مطعم نكهة ولذة,24.5687903,46.8388772,"اسواق بن دايل, Al Kharj Road, Riyadh",Restaurants,4.4
تسالي الاسكان,24.5685227,46.83903369999999,"HR9Q+CJ3, الاسكان،, Riyadh",Restaurants,4.6
Al Handab,24.5686894,46.8387294,"3077 Ibn Amar, Riyadh",Restaurants,3.8
فوال الطايف,24.5695209,46.8375625,"3077 Ibn Amar, Riyadh",Restaurants,3.9
Qaswarah Restaurant مطعم قسورة,24.5692605,46.8376598,"Ibn Amar, Riyadh",Restaurants,4.3
Pizza Mayyar,24.5695026,46.8374081,"3148 رقم 4, Riyadh",Restaurants,3.5
Kudu - Al Rayyan,24.7092575,46.7889345,"5006 Al-Imam Ahmad Bin Hanbal Street, Riyadh",Restaurants,4
McDonald's,24.713222,46.794646,"Al Imam Al Shafei, Riyadh",Restaurants,3.8
Al Romansiah,24.695907,46.792434,"Al Zoubair Ibn Al Awwam, Riyadh",Restaurants,4.2
Hot Pizza Branch 6,24.7047679,46.80721510000001,"Al Zoubair Ibn Al Awwam, حي السلام،, Riyadh",Restaurants,4.1
مطاعم الوليمة _ حي السلام,24.7055479,46.8094473,"Al Zoubair Ibn Al Awwam, PR45+6Q8, Riyadh",Restaurants,3.9
Ancestors’ Palace Restaurant,24.70264359999999,46.8026564,"Al Imam Al Shafei, Riyadh",Restaurants,4.2
KFC,24.7094289,46.814683,"Al-Zubeer In Alawam St, SALAM District, Riyadh",Restaurants,3.7
Domino's Pizza دومينوز بيتزا,24.709587,46.81487000000001,"4026 Al Zubair Ibn Al Awam St, Riyadh",Restaurants,3.9
Burger King - Al Salaam,24.706652,46.79891299999999,"Next to Al Rajhi Markets, Al Imam Al Shafi Rd, Riyadh",Restaurants,4
Saadeddin Pastry Head Office,24.6889148,46.8095969,"طلحة بن عبيد الله, Riyadh",Restaurants,4.2
Pizza Ram,24.695706,46.7920777,"شارع الزبير بن العوام، حي, Riyadh",Restaurants,4.1
Domino's Pizza دومينوز بيتزا,24.7077169,46.7862585,"4484 Al-Imam Ahmad Bin Hanbal Street, Riyadh",Restaurants,4.1
Maestro Pizza,24.7247971,46.8159105,النسيم الغربي، عبد الله بن مسعود، حي، الرياض 8407,Restaurants,3.9
Burgerizzr,24.724908,46.816112,"Abdallah Ibn Massoud, Riyadh",Restaurants,4.4
Jan Burger - جان برجر‎,24.725404,46.816208,"Al-Imam Ahmad Bin Hanbal Street, Riyadh",Restaurants,3.8
Subway Ahmad bin Hanbal st. Al-Rayan district,24.7059736,46.7838232,"4230 Ahmad Ibn Hanbal St., Al Rayan, الرياض",Restaurants,3.8
Herfy H-241,24.6829869,46.81440439999999,"شارع Al Imam Al Shafei, Riyadh",Restaurants,3.5
Domino's Pizza دومينوز بيتزا,24.682901,46.814819,"7637 Al Imam Al Shafie St, Riyadh",Restaurants,3.9
Burgerizzr,24.682745,46.814811,"Al Imam Al Shafei, Riyadh",Restaurants,4.2
"Subway Rawdah, Khurais Road",24.7301595,46.78588999999999,"4792 Khurais Road, District, Riyadh",Restaurants,3.8
Diet Center - دايت سنتر,24.721537,46.788818,"Shop, Riyadh",Restaurants,3.6
Pizza ram,24.7234912,46.7862653,"متوفر توصيل بريال, Al Imam Al Shafei, Riyadh",Restaurants,4.3
McDonald's,24.728281,46.782714,"Khurais Road, Riyadh",Restaurants,3.7
Maestro Pizza,24.7287898,46.7829235,"7610 Al Maqrizi, Riyadh",Restaurants,4.1
Al Romansiah,24.7336,46.814671,"Saad Ibn Abi Waqas, An Nasim Al Gharbi, Riyadh",Restaurants,4.3
AmoHamza,24.727054,46.78069499999999,"11435 Khurais Road, Riyadh",Restaurants,3.4
Yellow Cab Pizza Co. يلوكاب بيتزا طريق خريص,24.72673859999999,46.7801498,"Khurais Road, Exit 13, Riyadh",Restaurants,4
FORCHETTA,24.7242339,46.77901780000001,"Bouraida, Khurais Road Buraida Street, Riyadh",Restaurants,3.6
البيتزا الساخنة فرع 3,24.7378894,46.84370179999999,"Abi Al Aswad Al Douli, Riyadh",Restaurants,4
Herfy 154,24.7281426,46.85096619999999,"ابي الاسود الدؤلي, PVH2+794, Riyadh",Restaurants,3.7
Subway,24.752251,46.860809,"Dist, 2726 Prince Muteb Ibn Abdullah Ibn Abdulaziz St, National Guard Hospital, الرياض",Restaurants,4
فوال وتميس,24.7233495,46.84815699999999,"PRFX+87M, Riyadh",Restaurants,4.3
McDonald's,24.728913,46.837199,"Naseem area, Riyadh",Restaurants,3.8
KFC,24.7295328,46.8364104,"Hassan Ibn Thabet, Riyadh",Restaurants,3.7
Hot Pizza Branch 4,24.7313523,46.8342286,"8031 Hassan Ibn Thabet, Riyadh",Restaurants,4
Domino's Pizza دومينوز بيتزا,24.7411934,46.8270303,"St, 7768 Hassan Ibn Thabet, Riyadh",Restaurants,4
Herfy,24.7421129,46.8263617,"Al Suweidawi, Riyadh",Restaurants,3.7
مطبخ جنوبي عريكة جنوبية,24.7390411,46.8535585,"٤٣٣١ شارع السد, Riyadh",Restaurants,4.5
معمل استار كيك,24.736603,46.851997,RQNC8594، 8594 سبأ، 4160، حي النسيم الشرقي، الرياض 14244،,Restaurants,3.6
تسالي غاليه,24.7362252,46.85228480000001,"شارع سبأ, PVP2+FWV, Riyadh",Restaurants,5
بوفية جباتي وكرك وفوال وفلافل(فرع موسسة السحاب الرقيق رقم 1,24.7385074,46.8506087,"8798 سبا، 4016،, حي النسيم الشرقي, Riyadh",Restaurants,3.6
Neuer kitchen Rose formerly Breeze,24.7387311,46.85051,"14244 Saba, Riyadh",Restaurants,3.8
تسالي فتون,24.73467729999999,46.8536339,"Saba, Riyadh",Restaurants,
Pak Arab Zaiqa 2,24.73456239999999,46.8537155,"Saba, Riyadh",Restaurants,
للوجبات السريعة,24.7390986,46.84963219999999,"Thaniyyat Al Wada, PRQX+JVJ, Riyadh",Restaurants,4
مطعم عادل,24.7389212,46.84950579999999,"حي, 6322 Thaniyyat Al Wada, Riyadh",Restaurants,5
تسالي الرحاب 3 🍔🍟,24.7388345,46.8493615,"Thaniyyat Al Wada, Riyadh",Restaurants,4.7
مطعم البخاري,24.7404381,46.8489697,"شارع سبأ، حي, PRRX+5HH, Riyadh",Restaurants,3.6
Burger King - Al Quds,24.75744600000001,46.740876,"Exit 10, الطريق الدائري الشرقي, Al Hashimi Rd, Before, الرياض",Restaurants,3.9
Furn Aldayaa,24.7626681,46.7468047,"King Abdullah Branch Road, Riyadh",Restaurants,4.1
Benihana,24.7805349,46.69501899999999,"Northern Ring Road, Riyadh",Restaurants,4.1
Derati Restaurant,24.7802766,46.6854126,"شركة مطاعم سحايب ديرتي المحدودة ديرتي مخرج ٦, شركة مطاعم سحايب ديرتي المحدودة, شركه مطاعم سحايب ديرتي المحدوده, Riyadh",Restaurants,3.8
Domino's Pizza دومينوز بيتزا,24.775346,46.687954,"Abi Bakr Al Siddiq Branch Rd, Riyadh",Restaurants,3.9
Subway,24.761654,46.68724399999999,"Al Siddiq Branch Road, 6903 Abi Bakr, الرياض",Restaurants,4
Herfy,24.7609124,46.6736126,"Ibn Sina, QM6F+9C9, Riyadh",Restaurants,3.8
KFC,24.7826875,46.6615625,"QMM6+3J4, Riyadh",Restaurants,3.6
أوف وايت النفل Offwhite l‏,24.7762024,46.6660834,"6699 King Abdulaziz Road, Riyadh",Restaurants,4.2
Centimeal KSA,24.775739,46.6649136,7646 شارع الملك عبدالعزيز حي الغدير الرياض 13311,Restaurants,4.2
Zaatar W Zeit - Acacia Centre,24.78288569999999,46.66146190000001,"Acacia Center, King Abdulaziz Road, Riyadh",Restaurants,4.1
Kudu - Al Nafal,24.784942,46.66142319999999,"2124 King Abdulaziz Road, 7707, Riyadh",Restaurants,4
shiro,24.7693208,46.6650208,"المخرج ٥, الطريق الدائري الشمالي،حي, Riyadh",Restaurants,4.4
Amo Hamza Seafood Restaurant,24.76704040000001,46.670329,"5 خروج مستشفى الجامعة, Riyadh",Restaurants,3.4
Five Guys Mateen Plaza,24.7895838,46.65911909999999,"Mateen Plaza At King Abdulaziz Rd, Prince Saudi Ibn Muhammad Ibn Murqin Rd, الرياض",Restaurants,4
Herfy,24.766502,46.66168580000001,"Omar Al Hamazani, QM86+JM3, Riyadh",Restaurants,3.9
Domino's Pizza دومينوز بيتزا,24.7630624,46.6722457,"7067 King Abdul Aziz Branch Road, Riyadh",Restaurants,4.1
McDonald's,24.761706,46.673578,"King Abdulaziz Road, Riyadh",Restaurants,3.9
Casapasta,24.7615521,46.67306319999999,"2484 Branch Road, 6899 King Abdul Aziz Branch Rd Al Masif, Riyadh",Restaurants,4.1
KFC,24.7611389,46.6741323,"المحبي, Ibn Sina St. - Massif District, الرياض",Restaurants,4
Kudu - Ahmed Al-Damiati,24.760208,46.6736952,"Ahmad Al Doumiati, Riyadh",Restaurants,3.9
Domino's Pizza دومينوز بيتزا,24.759705,46.664277,"7537 Tamir, Riyadh",Restaurants,3.7
McDonald's,24.794238,46.65572799999999,"One Square, King Abdulaziz Road, Riyadh",Restaurants,3.7
Shawaya House,24.7585126,46.66667930000001,"Near Abdullah Al Othaim Market, Ibn Sina Street, Riyadh",Restaurants,3.7
777 Burger,24.7582818,46.6747223,"King Abdul Aziz Branch Road, Riyadh",Restaurants,4.3
Saudi Fisheries Company - الشركة السعودية للأسماك,24.756776,46.66553709999999,"سوق شمال, Riyadh",Restaurants,3.3
Pizza oven,24.7416262,46.7788788,"7261 Khalid Ibn Al Walid Street, Riyadh",Restaurants,3.8
Al Romansiah,24.7448005,46.7764349,"7611 Khalid Ibn Al Walid Street, Riyadh",Restaurants,4.2
KFC,24.7420704,46.80721659999999,"طريق خريص, Nassem, الرياض",Restaurants,3.6
Diplomat Sweets,24.7234194,46.771241,"7000 Al Hasan Ibn Ali, Riyadh",Restaurants,4.1
Maestro Pizza,24.7029117,46.7786495,"الإمام أحمد بن حنبل، الريان،, الرياض",Restaurants,4
Maestro Pizza,24.7056152,46.7671818,"7954 موقف أسواق أسوار البلاد, Riyadh",Restaurants,3.8
"Subway Rabwah, EXIT 13",24.7060019,46.76697600000001,"Exit 13 Ring Road, Riyadh",Restaurants,3.9
برغرايززر | Burgerizzr,24.705751,46.76694699999999,"Eastern Ring Road, Riyadh",Restaurants,4.1
Burgerizzr,24.79207100000001,46.862938,"2120 Khurais Road, Riyadh",Restaurants,4.4
Domino's Pizza دومينوز بيتزا,24.79206079999999,46.8628616,"7144 Khurais Road, Riyadh",Restaurants,3.8
Al Romansiah,24.792016,46.86200700000001,"14813 Al Anwar, Riyadh",Restaurants,4.4
KFC,24.7930658,46.8630347,"Khores Road, District",Restaurants,3.7
Burger mashwi/برجر مشوي,24.7709408,46.8546851,"military office, إسكان الأمن العام بالقرب من الحديقة, Riyadh",Restaurants,3
إسكان العوائل- الأمن العام الرياض,24.7709443,46.8546815,"QVC3+9VF, Riyadh",Restaurants,4.8
بوفيه,24.7709254,46.8546681,"QVC3+9VP، الرماية،،, QVC3+9VF, Riyadh",Restaurants,3
tasali aziz تسالي عزيز,24.7708746,46.85460669999999,"QVC3+9VP, Riyadh",Restaurants,5
بوفيه وتسالي,24.7843895,46.8741651,3296 الانوار، 6338، حي الندوة، الرياض 14813،,Restaurants,3.1
مطاعم سلطانة,24.7843944,46.8741899,"امام الكلية الامنية, Al Anwar, Riyadh",Restaurants,4.4
بوفية محمد فيصل,24.7885867,46.86736699999999,"2648 Al Anwar, 6761, Riyadh",Restaurants,3.3
Tasali,24.7864862,46.87883650000001,"3761 الحارث بن عبدالله، النظيم، الرياض 14813 6534،, Riyadh",Restaurants,4
Restaurants crowns home,24.7880921,46.87620679999999,"Al Hareth Ibn Abdallah, Riyadh",Restaurants,3.8
وجبات باكستانية,24.7869543,46.8782115,"QVPH+Q7P, Riyadh",Restaurants,
Nazim,24.7857559,46.879915,"6534 Al Hareth Ibn Abdallah, Riyadh",Restaurants,
مطاعم مسكوف الهيبة,24.7864873,46.87898339999999,"Al Hareth Ibn Abdallah, Riyadh",Restaurants,4.5
ورق عنب لذة ولمة,24.7861243,46.8795073,"3761 Al Hareth Ibn Abdallah, Riyadh",Restaurants,4.5
بوفية الوزير,24.7882825,46.8760118,"QVQG+8C6, Riyadh",Restaurants,3.7
مطعم الطبق الصحي للخدمات الغذائية,24.78639609999999,46.8791872,"Al Hareth Ibn Abdallah, Riyadh",Restaurants,4.5
Fish,24.5596404,46.84081159999999,"RMTA4776، 4776 المقدسي، 7848, الرياض",Restaurants,5
Wassam Restaurant,24.5596511,46.84702,"Near Rabia Hospital, HR5W+VR6, Adwa Mall, Al Kharj Road, Riyadh",Restaurants,3.9
مطعم رباب,24.5595964,46.8471762,"حي, Riyadh",Restaurants,5
Bukhari Restaurant مطعم الخليج البخاري,24.5594707,46.8473668,"5349 Al Kharj Rd, Taybah, Riyadh 14521 7781 Al Kharj Road, Riyadh",Restaurants,4.1
مؤسسه سواعد الامل للتجاره,24.55993020000001,46.84668449999999,"HR5W+XMF, Riyadh",Restaurants,4.2
HASHAM 2,24.56124969999999,46.8444065,"طريق الخرج, RMTA5137, الرياض",Restaurants,
مطعم العرين للمضغوط,24.560212,46.8466385,"HR6W+2JJ, Riyadh",Restaurants,4.5
Lahori hotel Pakistani Restaurant,24.5613424,46.844756,"5137، 7987, الرياض",Restaurants,4.8
فوال الاسكان 2,24.561481,46.84454189999999,"جوار مستشفى رابية, طريق الخرج حي, الرياض",Restaurants,5
فوال شفا النخيل لتقديم الوجبات,24.5615027,46.8445581,"طيبة، 5137، 7987, Riyadh",Restaurants,5
فوال النخيل السوداني,24.5615027,46.8445581,"5137, طيبة، 5137، 7987, Riyadh",Restaurants,4.6
مطعم زرقاء اليمامة البخاري,24.5616304,46.8445178,"5137طريق الخرج، الرياض 14521 7987،, Riyadh",Restaurants,4.2
بوفية كرك الطريق,24.56335499999999,46.84116449999999,"HR7R+8FV طريق الرياض, الخرج",Restaurants,4.5
Taj Spice - An Indian Cuisine,24.5607947,46.8484649,"Al Kharj Road, Riyadh",Restaurants,4
لقمة و لقيمات,24.5607728,46.848621,Riyadh,Restaurants,3.4
مخصوصة | بيتزا - برجر - فلافل,24.5608972,46.8487914,Riyadh,Restaurants,3.8
فوال ومخبز ريق الطائف,24.561082,46.84892079999999,Riyadh,Restaurants,4
Al Fatera,24.5614653,46.8492078,"Ashras Al Sulami Street, Riyadh",Restaurants,3.7
Shawarma,24.5614656,46.8492457,"HR6X+HM6, Riyadh",Restaurants,2.8
مطعم سلطان,24.5351225,46.7958638,Riyadh,Restaurants,3.7
مطبخ ابو رحاب للحنيذ الجنوبي,24.5206405,46.78508230000001,"3129، المنصورية، الرياض 14535 7209،, Riyadh",Restaurants,4.4
معدات للايجار اليومي والشهري,24.4918218,46.792831,"Al Haeer Road, Riyadh",Restaurants,
مطعم سهول بعدان للاكلات الشعبية,24.5047633,46.52066199999999,"2518 شارع وادي فاطمة, Riyadh",Restaurants,4
مطعم قمة الذهبي,24.49911170000001,46.51787849999999,"شارع وادي فاطمة, Riyadh",Restaurants,4.4
Bukhari Restaurant مطعم البرکة نمار البخاري,24.494434,46.529545,"3441 جبل اجياد, RKMA6859، 6859, الرياض",Restaurants,3.8
برجر وطني,24.49366670000001,46.5286526,"3333 جبل اجياد, RKMA6766، 6766, Riyadh",Restaurants,2.9
مطعم صيته matam seetah,24.4917686,46.5277671,"8030 حي, RKMB4987، 4987 جبل اجياد, الرياض",Restaurants,3.7
حي ضاحية نمار، الرياض,24.4917659,46.5277765,"3247 جبل اجياد, RKMA6554، 6554, الرياض",Restaurants,5
مطعم شيف داركم,24.4916153,46.5244789,"RKMA2926، 2926 جبل اجياد، 6547, Riyadh",Restaurants,3
مطعم بيت المدار البخاري,24.492637,46.5199826,"8208 حي, RKMA4557، 4557 جبل اجياد, Riyadh",Restaurants,4
محلات تجارية ابو علي,24.489986,46.52794220000001,"Jabal Ajyad Road, Riyadh",Restaurants,
ضحية نمار,24.489986,46.52794220000001,"قبل محطة ساسكو, Jabal Ajyad Road, Riyadh",Restaurants,5
مطعم شواية الباكستاني,24.4878232,46.52451929999999,"FGQF+4R, Riyadh",Restaurants,5
Bangladesh Restaurant,24.4874876,46.52448119999999,"4830 جبل اجياد, RKMD7880، 7880, الرياض",Restaurants,1
مطعم الريان الشمالي البخاري,24.4990168,46.50426329999999,"8590 حي, RKMB3623، 3623 جبل اجياد, Riyadh",Restaurants,3.6
ممتاز فوال,24.499128,46.503975,"Namar street, Riyadh",Restaurants,4
فوال ومطبق جاغوري,24.4989243,46.5035717,"8607 Jabal Ajyad Road, RKMA3581، 3581, Riyadh",Restaurants,3.7
بوفية نكهة عوافي,24.51631159999999,46.5569995,"Bilal Ibn Rabah, Riyadh",Restaurants,4
شركة الوجبات العجيبة التجارية,24.4949597,46.9153785,"6734 وادي سعيا, RMFC3620، 3620, Riyadh",Restaurants,5
الدوام مصنع الغذاء اليومي,24.4979054,46.9267107,"4814 طريق الخرج, RMFA7044، 7044, Riyadh",Restaurants,1
Ryan Al Madinan Pakistani Resturant,24.4973622,46.9047349,"السفانيه, FWW3+WVX, Riyadh",Restaurants,3.7
شركة دجاج اسيا للصناعات الغذائية,24.4975861,46.929816,"بوابة المدينة, Riyadh",Restaurants,5
Domino's Pizza دومينوز بيتزا,24.692357,46.605016,"Prince Mashaal Ibn Abdulaziz St, Riyadh",Restaurants,3.8
McDonald's,24.693768,46.60643499999999,"Prince Meshaal Ibn Abd Al Aziz, Riyadh",Restaurants,3.8
Zaatar W Zeit Irqa,24.6934269,46.60554919999999,"Prince Meshaal Ibn Abd Al Aziz, Riyadh",Restaurants,4.2
Casapasta,24.6939384,46.6060474,"شارع الأمير مشعل بن عبد العزيز،, Riyadh",Restaurants,4
Tim Hortons,24.6939582,46.6047546,"Prince Mashal Ibn Abdulaziz, Riyadh",Restaurants,4.2
مطعم ليلى,24.6797008,46.6192398,"E Street, MJH9+VMQ, Riyadh",Restaurants,3.8
Dolce Ragusa | دولتشي راغوزا,24.6779002,46.6231173,"Heraa Street, Riyadh",Restaurants,4.5
اتش برجر,24.6759519,46.6241014,"3167 Amr Aldamri Street, RYSA6942، 6942, Riyadh",Restaurants,
بطاطا FRIES SPOT,24.676096,46.6243164,"3167 Amr Aldamri Street, RYSA6942، 6942, Riyadh",Restaurants,
كاريبو كوفي - Caribou Coffee,24.680462,46.62330499999999,"Amr Aldamri Street, Riyadh",Restaurants,4.3
Goji Kitchen,24.6747,46.6235554,"6781 3087 Abdullah Alsahmi Street, Riyadh",Restaurants,4.6
Kudu - Diplomatic Quarter,24.68116250000001,46.6230535,"3110 7542 Amr Aldamri Street, Riyadh",Restaurants,3.7
RUSSO’S NEW YORK PIZZERIA DIPLOMATIC QUARTER,24.6810183,46.6232923,"MJJF+C7P, Riyadh",Restaurants,4
Nomas,24.6739114,46.623539,"Abdullah Alsahmi Street, Riyadh",Restaurants,4.9
